     2              OBSERVATION DATA                        RINEX VERSION / TYPE
ASHCAN V.  1.90     SOPAC / SCIGN       20000716 04:19:26UTCPGM / RUN BY / DATE
                                                            COMMENT
     SCIGN - Southern California Integrated GPS Network     COMMENT
                                                            COMMENT
      SOPAC - Scripps Orbit and Permanent Array Center      COMMENT
    IGPP - Institute of Geophysics and Planetary Physics    COMMENT
         SIO - Scripps Institution of Oceanography          COMMENT
        UCSD - University of California, San Diego          COMMENT
                                                            COMMENT
                email: archive@lox.ucsd.edu                 COMMENT
                    ftp://lox.ucsd.edu                      COMMENT
                    http://lox.ucsd.edu                     COMMENT
                                                            COMMENT
DHLG DURMID_HILL__                                          MARKER NAME
PFJ                 SOPAC / SCIGN                           OBSERVER / AGENCY
LP02767             ASHTECH Z-XII3      CC00      1D02      REC # / TYPE / VERS
CR519991761         ASH701945B_M    SCIS                    ANT # / TYPE
 -2319099.1500 -4799846.5500  3490090.4400                  APPROX POSITION XYZ
        0.1224        0.0000        0.0000                  ANTENNA: DELTA H/E/N
     1     1                                                WAVELENGTH FACT L1/2
     5    L1    L2    C1    P1    P2                        # / TYPES OF OBSERV
  2000     7    15     0     0   30.000000                  TIME OF FIRST OBS
  2000     7    15    23    59   30.000000                  TIME OF LAST OBS
    30                                                      INTERVAL
                                                            END OF HEADER
 00  7 15  0  0 30.0000000  0  9  1 21 22 30 25 29 20 15 11           .000000000
  -3803282.285 8  -2951332.47345  24664239.294    24664239.2534   24664254.1554
 -16347641.836 9 -12722381.46646  22571917.871    22571917.6574   22571929.1414
  -5208253.549 8  -1833921.71945  24999989.063    24999988.1584   25000008.5824
  -7085663.504 9  -3668176.91745  24427905.522    24427905.7434   24427918.3524
 -27850737.637 9 -21687484.43349  20541884.931    20541885.0794   20541892.8454
 -10188110.915 9  -7637207.64146  23041878.597    23041878.7994   23041888.4984
  -7258304.184 9  -5644710.55446  23346254.887    23346254.4854   23346264.0074
 -13519496.434 9 -10515093.51747  22404593.764    22404593.3724   22404605.0134
 -25013129.043 9 -19464080.30048  21080190.134    21080190.0284   21080197.9994
 00  7 15  0  1  0.0000000  0  9  1 21 22 30 25 29 20 15 11           .000000019
  -3875806.654 8  -3007844.67745  24650438.134    24650437.9684   24650452.9944
 -16280090.447 9 -12669744.12646  22584772.547    22584772.3474   22584783.8504
  -5301061.013 8  -1906238.91145  24982328.219    24982327.0154   24982347.7644
  -7088655.612 9  -3670508.36045  24427336.167    24427336.3874   24427348.8484
 -27854382.196 9 -21690324.32649  20541191.362    20541191.5294   20541199.2754
 -10119577.004 9  -7583804.65746  23054920.225    23054920.4614   23054930.1014
  -7346638.923 9  -5713542.74646  23329445.232    23329444.8524   23329454.4064
 -13413161.175 9 -10432234.99047  22424828.739    22424828.3744   22424840.0024
 -25013579.883 9 -19464431.59648  21080104.333    21080104.2374   21080112.1874
 00  7 15  0  1 30.0000000  0  9  1 21 22 30 25 29 20 15 11           .000000018
  -3948206.507 8  -3064259.84445  24636660.639    24636660.4154   24636675.3664
 -16212226.210 9 -12616863.00446  22597686.796    22597686.5664   22597698.1364
  -5394035.777 8  -1978686.48645  24964635.464    24964634.7134   24964654.6664
  -7091150.814 9  -3672452.60545  24426861.279    24426861.4754   24426873.9884
 -27857506.515 9 -21692758.83549  20540596.776    20540596.9514   20540604.7004
 -10051025.915 9  -7530388.28346  23067965.094    23067965.3704   23067975.0154
  -7434938.080 9  -5782347.21246  23312642.377    23312641.9644   23312651.6144
 -13306604.369 9 -10349203.83847  22445105.905    22445105.5474   22445117.2764
 -25013451.751 9 -19464331.74748  21080128.686    21080128.5814   21080136.5374
 00  7 15  0  2  0.0000000  0  9  1 21 22 30 25 29 20 15 11           .000000017
  -4020482.625 8  -3120578.61545  24622906.715    24622906.4874   24622921.5004
 -16144050.064 9 -12563738.83746  22610660.352    22610660.1064   22610671.7134
  -5487176.809 8  -2051263.59345  24946911.106    24946910.2634   24946930.2354
  -7093148.691 9  -3674009.33145  24426480.977    24426481.2494   24426493.6894
 -27860111.723 9 -21694788.84549  20540101.019    20540101.1844   20540108.9314
  -9982458.784 9  -7476959.41546  23081012.962    23081013.2174   23081022.9434
  -7523201.139 9  -5851123.55846  23295846.419    23295845.9914   23295855.6564
 -13199829.765 9 -10266002.96747  22465424.536    22465424.1904   22465435.9154
 -25012745.851 9 -19463781.68648  21080263.036    21080262.9284   21080270.8894
 00  7 15  0  2 30.0000000  0  9  1 21 22 30 25 29 20 15 11           .000000016
  -4092635.469 8  -3176801.34045  24609176.246    24609175.9424   24609190.9504
 -16075563.121 9 -12510372.49446  22623693.065    22623692.8234   22623704.4904
  -5580482.416 8  -2123968.96045  24929155.321    24929154.6054   24929174.5594
  -7094648.848 9  -3675178.23245  24426195.373    24426195.7074   24426208.0814
 -27862198.841 9 -21696415.14449  20539703.833    20539704.0094   20539711.7514
  -9913876.895 9  -7423519.05346  23094063.707    23094063.9024   23094073.6724
  -7611427.019 9  -5919870.93546  23279057.544    23279057.1144   23279066.7154
 -13092841.097 9 -10182635.29047  22485783.895    22485783.5664   22485795.2834
 -25011462.684 9 -19462781.81248  21080507.177    21080507.0794   21080515.0434
 00  7 15  0  3  0.0000000  0  9  1 21 22 30 25 29 20 15 11           .000000015
  -4164665.540 8  -3232928.41145  24595469.171    24595468.8814   24595483.5694
 -16006766.050 9 -12456764.49646  22636784.779    22636784.5404   22636796.2714
  -5673950.150 8  -2196800.68645  24911368.884    24911368.2494   24911388.1874
  -7095650.776 9  -3675958.89845  24426004.756    24426004.9094   24426017.2544
 -27863768.793 9 -21697638.45949  20539405.063    20539405.2264   20539412.9734
  -9845280.720 9  -7370067.55646  23107117.208    23107117.4164   23107127.1554
  -7699614.694 9  -5988588.54046  23262275.894    23262275.5024   23262285.0864
 -12985641.500 9 -10099103.26047  22506183.422    22506183.0434   22506194.7944
 -25009603.083 9 -19461332.76748  21080861.038    21080860.9344   21080868.9174
 00  7 15  0  3 30.0000000  0  9  1 21 22 30 25 29 20 15 11           .000000015
  -4236573.048 8  -3288959.95845  24581785.365    24581785.0354   24581799.6714
 -15937659.621 9 -12402915.43646  22649935.359    22649935.1764   22649946.8724
  -5767577.367 8  -2269756.67445  24893552.065    24893551.3444   24893571.2704
  -7096153.824 9  -3676350.82445  24425908.877    24425909.1354   24425921.2494
 -27864822.102 9 -21698459.18849  20539204.597    20539204.7654   20539212.5164
  -9776670.943 9  -7316605.44746  23120173.303    23120173.4384   23120183.2534
  -7787762.632 9  -6057275.17846  23245501.838    23245501.4544   23245510.9564
 -12878233.682 9 -10015408.98647  22526622.514    22526622.1244   22526633.9244
 -25007167.243 9 -19459434.69948  21081324.556    21081324.4634   21081332.4464
 00  7 15  0  4  0.0000000  0  9  1 21 22 30 25 29 20 15 11           .000000014
  -4308358.016 8  -3344896.04445  24568124.941    24568124.5524   24568139.4824
 -15868243.705 9 -12348825.22946  22663144.866    22663144.6814   22663156.4294
  -5861361.560 8  -2342834.97645  24875705.277    24875704.6784   24875724.5604
  -7096157.172 9  -3676353.37945  24425908.222    24425908.4254   24425920.4904
 -27865359.258 9 -21698877.72249  20539102.363    20539102.5254   20539110.2664
  -9708048.061 9  -7263133.13246  23133231.846    23133231.9674   23133241.8384
  -7875869.304 9  -6125929.65646  23228735.619    23228735.3114   23228744.7774
 -12770620.892 9  -9931554.98147  22547100.657    22547100.2674   22547112.0834
 -25004155.473 9 -19457087.86148  21081897.672    21081897.5664   21081905.5804
 00  7 15  0  4 30.0000000  0  9  1 21 22 30 25 29 20 15 11           .000000014
  -4380021.025 8  -3400737.10145  24554487.763    24554487.5124   24554501.9764
 -15798518.749 9 -12294494.19546  22676413.118    22676412.9454   22676424.7434
  -5955301.099 8  -2416034.33145  24857828.986    24857828.3344   24857848.1224
  -7095660.212 9  -3675966.07045  24426002.772    24426002.9104   24426015.0284
 -27865380.942 9 -21698894.59249  20539098.202    20539098.3684   20539106.1064
  -9639412.908 9  -7209651.25346  23146292.748    23146292.8954   23146302.7574
  -7963934.081 9  -6194551.49146  23211977.440    23211977.0834   23211986.5334
 -12662806.374 9  -9847543.79347  22567617.219    22567616.7744   22567628.6114
 -25000568.436 9 -19454292.76648  21082580.251    21082580.1534   21082588.1554
 00  7 15  0  5  0.0000000  0  9  1 21 22 30 25 29 20 15 11           .000000013
  -4451561.730 8  -3456482.83745  24540873.713    24540873.5564   24540887.8614
 -15728484.761 9 -12239922.36146  22689740.240    22689740.1104   22689751.8704
  -6049393.270 8  -2489352.62445  24839923.624    24839922.9704   24839942.5414
  -7094661.874 9  -3675188.08945  24426192.628    24426192.7994   24426204.8534
 -27864887.604 9 -21698510.14849  20539192.088    20539192.2434   20539199.9684
  -9570765.462 9  -7156159.79946  23159355.998    23159356.1614   23159366.0124
  -8051954.498 9  -6263138.75246  23195227.679    23195227.3684   23195236.7284
 -12554792.737 9  -9763377.44847  22588171.598    22588171.1944   22588183.0504
 -24996406.157 9 -19451049.42748  21083372.326    21083372.2154   21083380.2144
 00  7 15  0  5 30.0000000  0  9  1 21 22 30 25 29 20 15 11           .000000013
  -4522980.184 8  -3512133.33045  24527283.033    24527282.9364   24527297.0904
 -15658142.478 9 -12185110.30646  22703126.050    22703125.8934   22703137.6894
  -6143635.171 8  -2562787.58245  24821989.779    24821989.0854   24822008.5684
  -7093161.253 9  -3674018.73445  24426478.164    24426478.3904   24426490.3104
 -27863880.026 9 -21697724.99349  20539383.790    20539383.9504   20539391.6624
  -9502106.240 9  -7102659.16246  23172421.418    23172421.5574   23172431.5284
  -8139929.419 9  -6331690.56446  23178486.493    23178486.2194   23178495.5804
 -12446582.998 9  -9679058.29246  22608763.318    22608762.9194   22608774.8014
 -24991668.936 9 -19447358.08048  21084273.758    21084273.6614   21084281.6554
 00  7 15  0  6  0.0000000  0  9  1 21 22 30 25 29 20 15 11           .000000013
  -4594276.617 8  -3567688.73645  24513715.532    24513715.3184   24513729.6864
 -15587492.470 9 -12130058.46546  22716570.369    22716570.2354   22716582.0144
  -6238023.955 8  -2636337.02645  24804027.954    24804027.2494   24804046.8004
  -7091157.852 9  -3672457.59745  24426859.468    24426859.6274   24426871.5294
 -27862358.370 9 -21696539.26349  20539673.334    20539673.4904   20539681.2164
  -9433435.637 9  -7049149.66746  23185489.054    23185489.1804   23185499.1994
  -8227857.313 9  -6400205.72146  23161754.325    23161754.0124   23161763.3774
 -12338179.810 9  -9594588.40646  22629391.871    22629391.4584   22629403.3484
 -24986357.247 9 -19443219.10448  21085284.547    21085284.4614   21085292.4224
 00  7 15  0  6 30.0000000  0  9  1 21 22 30 25 29 20 15 11           .000000012
  -4665451.258 8  -3623149.25745  24500171.286    24500171.0654   24500185.5304
 -15516534.956 9 -12074767.01446  22730073.192    22730073.0284   22730084.9144
  -6332557.615 8  -2709999.32245  24786038.603    24786037.8644   24786056.8934
  -7088651.099 9  -3670504.22245  24427336.405    24427336.4564   24427348.4624
 -27860323.565 9 -21694953.67749  20540060.502    20540060.6624   20540068.3804
  -9364754.278 9  -6995631.79446  23198558.706    23198558.7724   23198568.8614
  -8315736.720 9  -6468683.09246  23145031.356    23145031.0694   23145040.4624
 -12229586.493 9  -9509970.36546  22650056.592    22650056.1524   22650068.0834
 -24980471.525 9 -19438632.82448  21086404.565    21086404.4664   21086412.4414
 00  7 15  0  7  0.0000000  0  9  1 21 22 30 25 29 20 15 11           .000000012
  -4736503.907 8  -3678514.72345  24486650.276    24486649.9964   24486664.3624
 -15445269.749 9 -12019235.79746  22743634.584    22743634.3894   22743646.2714
  -6427233.565 8  -2783772.52645  24768022.093    24768021.4274   24768040.2584
  -7085640.103 9  -3668157.95345  24427909.238    24427909.3504   24427921.3564
 -27857775.957 9 -21692968.50549  20540545.316    20540545.4564   20540553.1854
  -9296062.165 9  -6942105.52946  23211630.400    23211630.5234   23211640.5714
  -8403565.825 9  -6537121.27546  23128317.974    23128317.6994   23128327.0834
 -12120805.522 9  -9425206.10446  22670757.034    22670756.6114   22670768.5514
 -24974012.153 9 -19433599.54548  21087633.733    21087633.6454   21087641.6294
 00  7 15  0  7 30.0000000  0  9  1 21 22 30 25 29 20 15 11           .000000011
  -4807434.638 8  -3733785.19545  24473152.428    24473152.1494   24473166.5104
 -15373697.843 9 -11963465.60246  22757254.327    22757254.1314   22757266.0604
  -6522049.473 8  -2857654.76145  24749978.908    24749978.2474   24749997.1944
  -7082123.901 9  -3665418.02745  24428578.355    24428578.4074   24428590.5294
 -27854716.245 9 -21690584.28949  20541127.544    20541127.6834   20541135.3934
  -9227359.811 9  -6888571.29046  23224704.047    23224704.2514   23224714.3314
  -8491343.310 9  -6605519.22346  23111614.438    23111614.1624   23111623.5064
 -12011840.079 9  -9340298.09946  22691492.536    22691492.0874   22691504.0684
 -24966979.527 9 -19428119.57648  21088971.988    21088971.9084   21088979.8804
 00  7 15  0  8  0.0000000  0  9  1 21 22 30 25 29 20 15 11           .000000011
  -4878243.901 8  -3788961.01645  24459677.743    24459677.5584   24459691.6504
 -15301819.440 9 -11907456.57946  22770932.406    22770932.2114   22770944.1894
  -6617002.536 8  -2931643.86145  24731909.748    24731909.0964   24731927.9334
  -7078102.231 9  -3662284.20945  24429343.648    24429343.6874   24429355.7734
 -27851145.234 9 -21687801.66149  20541807.061    20541807.1934   20541814.8934
  -9158647.958 9  -6835029.63446  23237779.582    23237779.7204   23237789.7964
  -8579067.779 9  -6673875.86446  23094921.012    23094920.7294   23094930.0374
 -11902693.134 9  -9255248.66146  22712262.596    22712262.1674   22712274.1494
 -24959374.390 9 -19422193.49548  21090419.194    21090419.1074   21090427.0654
 00  7 15  0  8 30.0000000  0  9  1 21 22 30 25 29 20 15 11           .000000011
  -4948931.631 8  -3844042.15545  24446226.152    24446225.9404   24446240.0674
 -15229634.669 9 -11851208.82146  22784668.819    22784668.6324   22784680.6654
  -6712089.808 8  -3005737.53345  24713815.012    24713814.6224   24713833.1724
  -7073574.005 9  -3658755.66445  24430205.266    24430205.4004   24430217.3494
 -27847063.473 9 -21684621.04549  20542583.773    20542583.9154   20542591.5884
  -9089926.651 9  -6781480.62246  23250856.876    23250856.9874   23250867.1064
  -8666737.343 9  -6742189.72646  23078238.024    23078237.6694   23078246.9894
 -11793367.440 9  -9170059.93646  22733066.673    22733066.2364   22733078.2854
 -24951196.936 9 -19415821.45448  21091975.312    21091975.2104   21091983.1964
 00  7 15  0  9  0.0000000  0  9  1 21 22 30 25 29 20 15 11           .000000011
  -5019497.857 8  -3899028.60445  24432797.706    24432797.4374   24432811.5054
 -15157143.905 9 -11794722.62646  22798463.423    22798463.2124   22798475.2524
  -6807308.910 8  -3079933.94745  24695695.186    24695694.7274   24695713.3054
  -7068538.869 9  -3654832.11845  24431163.449    24431163.5974   24431175.5784
 -27842472.056 9 -21681043.30049  20543457.468    20543457.6104   20543465.2894
  -9021196.371 9  -6727924.62046  23263935.848    23263935.9524   23263946.1994
  -8754350.357 9  -6810459.52946  23061565.778    23061565.4304   23061574.7554
 -11683866.006 9  -9084734.27646  22753904.181    22753903.7304   22753915.8234
 -24942447.898 9 -19409004.02648  21093640.211    21093640.0974   21093648.0944
 00  7 15  0  9 30.0000000  0  9  1 21 22 30 25 29 20 15 11           .000000010
  -5089942.925 8  -3953920.62845  24419392.274    24419392.0074   24419406.0654
 -15084348.173 9 -11737998.79646  22812316.079    22812315.8424   22812327.9724
  -6902657.736 8  -3154231.44545  24677550.635    24677549.9494   24677568.5984
  -7062996.125 9  -3650513.05545  24432218.188    24432218.3774   24432230.3244
 -27837371.323 9 -21677068.68149  20544428.106    20544428.2484   20544435.9314
  -8952457.323 9  -6674361.77246  23277016.501    23277016.5964   23277026.8264
  -8841905.379 9  -6878684.14146  23044904.553    23044904.1754   23044913.4614
 -11574191.927 9  -8999274.09646  22774774.542    22774774.0624   22774786.2744
 -24933127.824 9 -19401741.63448  21095413.760    21095413.6594   21095421.6334
 00  7 15  0 10  0.0000000  0  9  1 21 22 30 25 29 20 15 11           .000000010
  -5160266.794 8  -4008718.23145  24406009.898    24406009.6414   24406023.6214
 -15011247.724 9 -11681037.51546  22826226.743    22826226.5324   22826238.6754
  -6998133.520 8  -3228627.85045  24659381.922    24659381.1974   24659399.7974
  -7056945.129 9  -3645797.94245  24433369.488    24433369.7604   24433381.6404
 -27831761.995 9 -21672697.75449  20545495.490    20545495.6294   20545503.3224
  -8883710.131 9  -6620792.60046  23290098.650    23290098.7504   23290109.0344
  -8929400.873 9  -6946862.35546  23028254.677    23028254.2114   23028263.5314
 -11464347.939 9  -8913681.52046  22795677.250    22795676.8014   22795689.0454
 -24923237.167 9 -19394034.63348  21097295.895    21097295.7964   21097303.7654
 00  7 15  0 10 30.0000000  0  9  1 21 22 30 25 29 20 15 11           .000000009
  -5230469.396 9  -4063421.32645  24392650.607    24392650.3904   24392664.3134
 -14937842.654 9 -11623838.85746  22840195.317    22840195.1224   22840207.2474
  -7093733.055 8  -3303120.68945  24641189.811    24641189.1704   24641207.4774
  -7050385.548 9  -3640686.54745  24434617.675    24434618.0054   24434629.7874
 -27825644.709 9 -21667931.01349  20546659.550    20546659.6944   20546667.3804
  -8814954.609 9  -6567216.91846  23303182.360    23303182.5334   23303192.8124
  -9016834.933 9  -7014992.71346  23011616.464    23011616.0204   23011625.2704
 -11354336.546 9  -8827958.50046  22816611.841    22816611.4384   22816623.6334
 -24912776.436 9 -19385883.41848  21099286.502    21099286.4084   21099294.3854
 00  7 15  0 11  0.0000000  0  9  1 21 22 30 25 29 20 15 11           .000000009
  -5300551.132 9  -4118030.24345  24379314.351    24379314.1324   24379327.9644
 -14864133.432 9 -11566403.20846  22854221.822    22854221.6624   22854233.7744
  -7189453.901 8  -3377708.06945  24622974.521    24622973.9104   24622991.9574
  -7043316.951 9  -3635178.51345  24435962.770    24435963.2644   24435974.9544
 -27819020.591 9 -21662769.34349  20547920.062    20547920.2114   20547927.8984
  -8746191.571 9  -6513635.40546  23316267.555    23316267.7044   23316278.0994
  -9104206.224 9  -7083074.15246  22994990.248    22994989.8004   22994999.0384
 -11244161.273 9  -8742107.76546  22837577.602    22837577.2044   22837589.4424
 -24901746.473 9 -19377288.65148  21101385.452    21101385.3554   21101393.3124
 00  7 15  0 11 30.0000000  0  9  1 21 22 30 25 29 20 15 11           .000000009
  -5370512.129 9  -4172545.09145  24366001.068    24366000.8194   24366014.7134
 -14790121.333 9 -11508731.55346  22868305.960    22868305.7414   22868317.8814
  -7285293.577 8  -3452388.04445  24604736.601    24604735.8564   24604754.0504
  -7035738.686 9  -3629273.34545  24437404.811    24437405.2574   24437416.9344
 -27811890.377 9 -21657213.30849  20549276.864    20549277.0224   20549284.7144
  -8677421.370 9  -6460048.30246  23329354.120    23329354.3044   23329364.5614
  -9191513.117 9  -7151105.41646  22978376.220    22978375.8024   22978384.9684
 -11133824.975 9  -8656131.56846  22858574.000    22858573.5994   22858585.8884
 -24890147.754 9 -19368250.69948  21103592.590    21103592.5074   21103600.4524
 00  7 15  0 12  0.0000000  0  9  1 21 22 30 25 29 20 15 11           .000000009
  -5440352.369 9  -4226965.84845  24352710.783    24352710.5104   24352724.1784
 -14715805.933 9 -11450823.56746  22882447.808    22882447.5814   22882459.7734
  -7381249.623 8  -3527158.68345  24586476.631    24586475.8874   24586494.0124
  -7027649.741 9  -3622970.22345  24438944.118    24438944.5714   24438956.0884
 -27804254.753 9 -21651263.45049  20550729.840    20550729.9964   20550737.6754
  -8608644.072 9  -6406455.67046  23342441.977    23342442.2244   23342452.4984
  -9278754.008 9  -7219085.24146  22961774.746    22961774.3554   22961783.4514
 -11023330.215 9  -8570031.89546  22879600.501    22879600.1624   22879612.4484
 -24877981.060 9 -19358770.16748  21105907.887    21105907.7944   21105915.7134
 00  7 15  0 12 30.0000000  0  9  1 21 22 30 25 29 20 15 11           .000000008
  -5510072.194 9  -4281292.77745  24339443.402    24339443.0654   24339456.6574
 -14641188.114 9 -11392679.90646  22896647.203    22896647.0314   22896659.1024
  -7477319.378 8  -3602017.91845  24568194.975    24568194.1944   24568212.4094
  -7019050.218 9  -3616269.26545  24440580.547    24440580.9384   24440592.5574
 -27796114.473 9 -21644920.35649  20552278.895    20552279.0434   20552286.7234
  -8539860.047 9  -6352857.80046  23355531.232    23355531.4924   23355541.7964
  -9365927.126 9  -7287012.27146  22945186.140    22945185.7794   22945194.8694
 -10912680.121 9  -8483811.18846  22900656.639    22900656.2454   22900668.5754
 -24865247.171 9 -19348847.66148  21108331.049    21108330.9664   21108338.8884
 00  7 15  0 13  0.0000000  0  9  1 21 22 30 25 29 20 15 11           .000000008
  -5579673.089 9  -4335527.02745  24326198.657    24326198.3634   24326211.7684
 -14566269.702 9 -11334302.04046  22910903.804    22910903.6214   22910915.7464
  -7573501.283 8  -3676964.54745  24549892.073    24549891.2444   24549909.3044
  -7009940.952 9  -3609171.09345  24442314.015    24442314.3284   24442326.0304
 -27787472.090 9 -21638186.00849  20553923.473    20553923.6154   20553931.3154
  -8471071.203 9  -6299256.16346  23368621.454    23368621.6394   23368631.9274
  -9453032.245 9  -7354886.33146  22928610.530    22928610.1644   22928619.1784
 -10801879.143 9  -8397472.91246  22921741.489    22921741.1084   22921753.4734
 -24851948.251 9 -19338484.88348  21110861.766    21110861.6844   21110869.6174
 00  7 15  0 13 30.0000000  0  9  1 21 22 30 25 29 20 15 11           .000000006
  -5649155.212 9  -4389668.73645  24312976.480    24312976.1474   24312989.5734
 -14491050.883 9 -11275690.08546  22925217.531    22925217.3424   22925229.4944
  -7669792.479 8  -3751996.32945  24531568.277    24531567.4604   24531585.3234
  -7000321.438 9  -3601675.32945  24444144.569    24444144.9014   24444156.6104
 -27778328.106 9 -21631060.80649  20555663.496    20555663.6404   20555671.3294
  -8402277.637 9  -6245650.87246  23381712.539    23381712.6874   23381722.9494
  -9540067.516 9  -7422705.95346  22912048.219    22912047.8994   22912056.8314
 -10690930.012 9  -8311019.19146  22942854.565    22942854.1624   22942866.5314
 -24838084.869 9 -19327682.26248  21113499.876    21113499.7684   21113507.7224
 00  7 15  0 14  0.0000000  0  9  1 21 22 30 25 29 20 15 11           .000000004
  -5718515.887 9  -4443715.81345  24299777.391    24299777.0654   24299790.4594
 -14415530.343 9 -11216843.01346  22939588.727    22939588.4834   22939600.7344
  -7766187.618 8  -3827109.10245  24513224.618    24513223.9194   24513241.6814
  -6990188.698 8  -3593779.66345  24446072.665    24446072.8674   24446084.6624
 -27768680.855 9 -21623543.44949  20557499.283    20557499.4294   20557507.1184
  -8333476.857 9  -6192039.92946  23394804.953    23394805.1034   23394815.2574
  -9627028.496 9  -7490467.69646  22895500.079    22895499.7164   22895508.6964
 -10579832.870 9  -8224450.13946  22963995.759    22963995.3174   22964007.7464
 -24823654.991 9 -19316438.21548  21116245.811    21116245.7074   21116253.6704
 00  7 15  0 14 30.0000000  0  9  1 21 22 30 25 29 20 15 11           .000000003
  -5787755.684 9  -4497668.68645  24286601.299    24286601.0774   24286614.2944
 -14339708.540 9 -11157761.21746  22954017.208    22954016.9844   22954029.2934
  -7862684.918 8  -3902301.47245  24494861.447    24494860.8114   24494878.5974
  -6979542.595 9  -3585483.97745  24448098.481    24448098.7634   24448110.6004
 -27758531.625 9 -21615634.94249  20559430.572    20559430.7524   20559438.4244
  -8264669.668 9  -6138424.01046  23407898.646    23407898.7294   23407908.9394
  -9713914.205 9  -7558170.78246  22878966.208    22878965.8324   22878974.8494
 -10468591.063 9  -8137768.36846  22985164.479    22985164.0424   22985176.4944
 -24808659.951 9 -19304753.78048  21119099.284    21119099.1924   21119107.1614
 00  7 15  0 15  0.0000000  0  9  1 21 22 30 25 29 20 15 11           .000000003
  -5856875.541 9  -4551528.10645  24273448.062    24273447.7824   24273461.0744
 -14263586.529 9 -11098445.48746  22968502.875    22968502.6264   22968514.9774
  -7959282.094 8  -3977571.68845  24476479.353    24476478.8764   24476496.5824
  -6968383.347 9  -3576788.43245  24450222.008    24450222.2244   24450234.0094
 -27747882.225 9 -21607336.68749  20561457.049    20561457.2294   20561464.9074
  -8195856.872 9  -6084803.71746  23420993.326    23420993.3934   23421003.6144
  -9800723.537 9  -7625814.35746  22862446.881    22862446.4484   22862455.4994
 -10357208.427 9  -8050976.85946  23006360.002    23006359.5584   23006372.0134
 -24793101.504 9 -19292630.33048  21122059.964    21122059.8724   21122067.8514
 00  7 15  0 15 30.0000000  0  9  1 21 22 30 25 29 20 15 11           .000000003
  -5925875.455 9  -4605294.07345  24260317.635    24260317.4234   24260330.6124
 -14187164.837 9 -11038896.22546  22983045.512    22983045.3094   22983057.6134
  -8055976.154 8  -4052917.40245  24458078.897    24458078.6364   24458096.0124
  -6956710.721 9  -3567692.83745  24452443.279    24452443.4764   24452455.1384
 -27736733.115 9 -21598649.05649  20563578.647    20563578.8214   20563586.4964
  -8127039.141 9  -6031179.57146  23434088.904    23434089.0784   23434099.2484
  -9887454.707 9  -7693397.03746  22845942.413    22845942.0044   22845951.0324
 -10245687.920 9  -7964077.91846  23027581.780    23027581.3974   23027593.8804
 -24776980.277 9 -19280068.34948  21125127.741    21125127.6484   21125135.6424
 00  7 15  0 16  0.0000000  0  9  1 21 22 30 25 29 20 15 11           .000000002
  -5994755.542 9  -4658966.67345  24247210.003    24247209.8064   24247222.9884
 -14110444.511 9 -10979114.28146  22997644.989    22997644.8124   22997657.1604
  -8152764.357 9  -4128336.44745  24439660.486    24439660.1164   24439677.5764
  -6944524.694 9  -3558197.20945  24454762.137    24454762.4104   24454774.0104
 -27725085.442 9 -21589572.93149  20565795.147    20565795.3164   20565802.9734
  -8058216.300 9  -5977551.43946  23447185.466    23447185.6414   23447195.8464
  -9974106.110 9  -7760917.55346  22829453.147    22829452.7594   22829461.7104
 -10134032.212 9  -7877073.63146  23048829.247    23048828.8774   23048841.3844
 -24760297.192 9 -19267068.55648  21128302.423    21128302.3214   21128310.3144
 00  7 15  0 16 30.0000000  0  9  1 21 22 30 25 29 20 15 11           .000000002
  -6063516.246 9  -4712546.23145  24234125.145    24234124.9164   24234138.1044
 -14033426.141 9 -10919100.09046  23012301.172    23012301.0764   23012313.4334
  -8249644.258 9  -4203826.95845  24421224.684    24421224.2094   24421241.6474
  -6931824.724 9  -3548301.10045  24457178.872    24457179.2174   24457190.7594
 -27712940.623 9 -21580109.42249  20568106.226    20568106.3864   20568114.0324
  -7989388.874 9  -5923919.74746  23460283.027    23460283.2534   23460293.2614
 -10060675.864 9  -7828374.44147  22812979.454    22812979.0334   22812988.0514
 -10022244.179 9  -7789966.23546  23070101.929    23070101.5514   23070114.0994
 -24743053.100 9 -19253631.61748  21131583.880    21131583.7694   21131591.7594
 00  7 15  0 17  0.0000000  0  9  1 21 22 30 25 29 20 15 11           .000000002
  -6132157.931 8  -4766033.05445  24221062.892    24221062.6774   24221075.8314
 -13956110.789 9 -10858854.49746  23027013.831    23027013.7204   23027026.2444
  -8346613.563 9  -4279387.12245  24402771.800    24402771.3034   24402788.6694
  -6918610.923 9  -3538004.60045  24459693.334    24459693.6374   24459705.2764
 -27700299.381 9 -21570259.08949  20570511.760    20570511.9214   20570519.5734
  -7920557.268 9  -5870284.78846  23473381.295    23473381.5164   23473391.5544
 -10147162.635 9  -7895766.68047  22796521.466    22796521.0874   22796530.1274
  -9910327.063 9  -7702758.26046  23091399.127    23091398.8074   23091411.3494
 -24725249.071 9 -19239758.35948  21134971.909    21134971.8134   21134979.7944
 00  7 15  0 17 30.0000000  0  9  1 21 22 30 25 29 20 15 11           .000000002
  -6200680.610 8  -4819427.17745  24208023.283    24208023.1244   24208036.1224
 -13878498.182 9 -10798377.27046  23041783.105    23041782.9854   23041795.5494
  -8443669.108 8  -4355014.49145  24384302.457    24384302.0394   24384319.3354
  -6904882.859 9  -3527307.37545  24462305.611    24462305.9484   24462317.5404
 -27687162.819 9 -21560022.79649  20573011.547    20573011.7104   20573019.3574
  -7851721.427 9  -5816646.53246  23486480.345    23486480.5384   23486490.6764
 -10233564.409 9  -7963092.68847  22780079.750    22780079.3394   22780088.3994
  -9798283.573 9  -7615451.80846  23112720.420    23112720.0564   23112732.6534
 -24706886.006 9 -19225449.48848  21138466.266    21138466.1644   21138474.1604
 00  7 15  0 18  0.0000000  0  9  1 21 22 30 25 29 20 15 11           .000000002
  -6269084.631 8  -4872728.80245  24195006.242    24195005.9874   24195019.0934
 -13800589.095 9 -10737669.03546  23056608.815    23056608.6224   23056621.2264
  -8540807.838 8  -4430706.66845  24365817.242    24365816.8174   24365834.0554
  -6890640.425 9  -3516209.36645  24465015.887    24465016.1424   24465027.7014
 -27673532.011 9 -21549401.37549  20575605.379    20575605.5454   20575613.1864
  -7782882.021 9  -5763005.50346  23499580.139    23499580.2594   23499590.3724
 -10319879.565 9  -8030351.20247  22763654.542    22763654.1604   22763663.1234
  -9686116.742 9  -7528049.24546  23134065.168    23134064.7504   23134077.4444
 -24687965.091 9 -19210705.92748  21142066.800    21142066.6924   21142074.6914
 00  7 15  0 18 30.0000000  0  9  1 21 22 30 25 29 20 15 11           .000000001
  -6337370.134 8  -4925938.08245  24182011.703    24182011.5924   24182024.5864
 -13722384.513 9 -10676730.53946  23071490.769    23071490.5394   23071503.2734
  -8638027.185 8  -4506461.67345  24347316.722    24347316.3144   24347333.5184
  -6875883.548 9  -3504710.46245  24467823.988    24467824.1884   24467835.7334
 -27659408.106 9 -21538395.72349  20578293.082    20578293.2444   20578300.8874
  -7714039.032 9  -5709361.67446  23512680.614    23512680.7094   23512690.8524
 -10406106.449 9  -8097540.92747  22747246.081    22747245.6894   22747254.6314
  -9573829.692 9  -7440553.01946  23155432.808    23155432.3674   23155445.1234
 -24668487.269 9 -19195528.41148  21145773.299    21145773.2164   21145781.2084
 00  7 15  0 19  0.0000000  0  9  1 21 22 30 25 29 20 15 11           .000000001
  -6405537.419 9  -4979055.24045  24169039.723    24169039.6624   24169052.4674
 -13643884.738 9 -10615562.03046  23086428.883    23086428.6284   23086441.3584
  -8735324.682 8  -4582277.58745  24328801.340    24328800.9424   24328818.0474
  -6860611.838 9  -3492810.40245  24470730.130    24470730.4154   24470741.9564
 -27644791.914 9 -21527006.47149  20581074.448    20581074.5994   20581082.2324
  -7645192.884 9  -5655715.37446  23525781.542    23525781.7294   23525791.9374
 -10492243.178 9  -8164660.40047  22730854.724    22730854.3474   22730863.2954
  -9461425.118 9  -7352965.19846  23176822.860    23176822.4104   23176835.1434
 -24648453.727 9 -19179917.86848  21149585.563    21149585.4674   21149593.4904
 00  7 15  0 19 30.0000000  0 10  1 21 22 30 25 29 20 16 15 11        .000000001
  -6473586.406 8  -5032080.22545  24156090.279    24156090.2774   24156102.9524
 -13565090.652 9 -10554164.17846  23101423.024    23101422.7784   23101435.5094
  -8832697.509 8  -4658152.18045  24310271.733    24310271.2604   24310288.1674
  -6844825.141 9  -3480509.04245  24473734.349    24473734.4964   24473746.0764
 -27629684.497 9 -21515234.44949  20583949.300    20583949.4484   20583957.0714
  -7576343.381 9  -5602066.49146  23538883.169    23538883.3704   23538893.6884
 -10578287.896 9  -8231708.16047  22714480.932    22714480.5834   22714489.4854
   -928340.889 8   -700980.81845  25546090.240    25546087.3724   25546099.2004
  -9348905.651 9  -7265287.87146  23198234.788    23198234.2964   23198247.0954
 -24627865.269 9 -19163874.92248  21153503.448    21153503.3344   21153511.3594
 00  7 15  0 20  0.0000000  0 10  1 21 22 30 25 29 20 16 15 11        .000000001
  -6541517.639 8  -5085013.46145  24143163.287    24143163.1564   24143175.9174
 -13486003.219 9 -10492537.76346  23116472.921    23116472.7694   23116485.4044
  -8930142.917 8  -4734083.35745  24291728.353    24291727.7384   24291744.3534
  -6828523.665 9  -3467806.55845  24476836.340    24476836.5184   24476848.2004
 -27614087.313 9 -21503080.78949  20586917.314    20586917.4744   20586925.1074
  -7507491.366 9  -5548415.62446  23551985.374    23551985.5094   23551995.8134
 -10664239.036 9  -8298683.02247  22698124.926    22698124.5754   22698133.4694
  -1022211.315 8   -774126.52945  25528226.649    25528225.3174   25528237.5884
  -9236274.532 9  -7177523.54646  23219667.898    23219667.4384   23219680.1854
 -24606723.080 9 -19147400.49948  21157526.667    21157526.5594   21157534.5854
 00  7 15  0 20 30.0000000  0 10  1 21 22 30 25 29 20 16 15 11        .000000001
  -6609330.938 9  -5137854.82145  24130258.713    24130258.6304   24130271.2464
 -13406622.874 9 -10430683.08746  23131578.602    23131578.3914   23131591.1004
  -9027657.485 8  -4810068.40345  24273171.755    24273171.1034   24273187.3184
  -6811707.205 9  -3454702.79945  24480036.291    24480036.4644   24480048.1254
 -27598001.169 9 -21490546.12149  20589978.381    20589978.5444   20589986.1824
  -7438636.595 9  -5494762.62246  23565087.967    23565088.1594   23565098.4054
 -10750094.574 9  -8365583.37147  22681787.141    22681786.7764   22681795.6064
  -1116161.546 8   -847334.42145  25510348.119    25510347.2544   25510359.6404
  -9123534.303 9  -7089674.19646  23241121.773    23241121.4064   23241134.1754
 -24585028.280 9 -19130495.46248  21161655.087    21161654.9814   21161662.9964
 00  7 15  0 21  0.0000000  0 10  1 21 22 30 25 29 20 16 15 11        .000000001
  -6677026.749 9  -5190604.62245  24117376.538    24117376.4184   24117388.9424
 -13326950.310 9 -10368600.71946  23146739.911    23146739.6554   23146752.3574
  -9125238.451 8  -4886105.17545  24254602.315    24254601.6104   24254617.9984
  -6794375.265 9  -3441197.38245  24483334.365    24483334.6504   24483346.3664
 -27581427.338 9 -21477631.43749  20593132.250    20593132.4114   20593140.0504
  -7369779.221 9  -5441107.58746  23578191.164    23578191.3184   23578201.6704
 -10835852.619 9  -8432407.76347  22665467.800    22665467.4444   22665476.2774
  -1210190.592 8   -920603.74045  25492454.705    25492453.7024   25492466.6794
  -9010688.160 9  -7001742.31446  23262595.892    23262595.4604   23262608.3254
 -24562781.856 9 -19113160.59548  21165888.451    21165888.3404   21165896.3284
 00  7 15  0 21 30.0000000  0 10  1 21 22 30 25 29 20 16 15 11        .000000000
  -6744605.026 9  -5243262.85145  24104516.778    24104516.6614   24104528.9384
 -13246986.292 9 -10306291.24346  23161956.698    23161956.4614   23161969.0854
  -9222883.336 8  -4962191.75345  24236020.702    24236020.2934   24236036.6604
  -6776528.097 9  -3427290.46145  24486730.578    24486730.9194   24486742.5414
 -27564366.732 9 -21464337.45149  20596378.802    20596378.9544   20596386.5914
  -7300919.575 9  -5387450.78046  23591294.816    23591294.9064   23591305.3274
 -10921511.542 9  -8499154.89847  22649167.406    22649167.0484   22649175.8924
  -1304297.852 8   -993934.04245  25474546.542    25474545.7184   25474558.4334
  -8897738.857 9  -6913730.06246  23284089.541    23284089.0904   23284102.0424
 -24539984.863 9 -19095396.70948  21170226.585    21170226.4674   21170234.4564
 00  7 15  0 22  0.0000000  0 10  1 21 22 30 25 29 20 16 15 11        .000000000
  -6812066.278 9  -5295829.89145  24091679.237    24091679.1184   24091691.3284
 -13166731.457 9 -10243755.15646  23177228.780    23177228.5294   23177241.2144
  -9320589.592 8  -5038326.15445  24217427.579    24217427.4144   24217443.6864
  -6758165.652 9  -3412982.04145  24490224.729    24490225.2104   24490236.8104
 -27546820.904 9 -21450665.37049  20599717.630    20599717.7824   20599725.4164
  -7232057.850 9  -5333792.36046  23604398.927    23604398.9254   23604409.3884
 -11007069.401 9  -8565823.29647  22632886.281    22632885.9094   22632894.7404
  -1398482.485 8  -1067324.61245  25456623.754    25456623.0074   25456635.7274
  -8784689.546 9  -6825639.88146  23305602.238    23305601.8184   23305614.8034
 -24516638.709 9 -19077204.90748  21174669.207    21174669.1024   21174677.0914
 00  7 15  0 22 30.0000000  0 10  1 21 22 30 25 29 20 16 15 11        .000000000
  -6879410.612 9  -5348305.85445  24078863.893    24078863.7304   24078875.8814
 -13086186.488 9 -10180992.98346  23192556.116    23192555.8974   23192568.6634
  -9418353.817 8  -5114505.75345  24198823.461    24198823.1744   24198839.5464
  -6739287.956 8  -3398272.11845  24493817.015    24493817.4644   24493829.0744
 -27528791.063 9 -21436616.14049  20603148.588    20603148.7374   20603156.3844
  -7163194.174 9  -5280132.42946  23617503.182    23617503.3024   23617513.7314
 -11092524.402 9  -8632411.53047  22616624.657    22616624.3274   22616633.1614
  -1492743.540 8  -1140774.75945  25438686.374    25438685.6754   25438698.5364
  -8671542.891 9  -6737473.88446  23327133.396    23327133.0124   23327146.1674
 -24492744.486 9 -19058586.04048  21179216.163    21179216.0544   21179224.0554
 00  7 15  0 23  0.0000000  0 10  1 21 22 30 25 29 20 16 15 11        .000000000
  -6946638.518 9  -5400691.07745  24066070.763    24066070.6064   24066082.6884
 -13005352.162 9 -10118005.35346  23207938.468    23207938.3194   23207951.0814
  -9516173.288 8  -5190728.38645  24180208.804    24180208.4714   24180224.8224
  -6719895.242 8  -3383160.87345  24497507.306    24497507.7294   24497519.2974
 -27510278.049 9 -21422190.41149  20606671.505    20606671.6484   20606679.2934
  -7094328.896 9  -5226471.24846  23630607.902    23630608.0204   23630618.4044
 -11177875.056 9  -8698918.45747  22600382.910    22600382.5714   22600391.4004
  -1587079.991 7  -1214283.60645  25420734.574    25420733.8724   25420746.6204
  -8558301.936 9  -6649234.37046  23348682.498    23348682.1234   23348695.3664
 -24468303.598 9 -19039541.20148  21183867.091    21183866.9944   21183874.9964
 00  7 15  0 23 30.0000000  0 10  1 21 22 30 25 29 20 16 15 11        .000000000
  -7013749.728 9  -5452985.37546  24053299.831    24053299.5884   24053311.6954
 -12924229.035 9 -10054792.68346  23223375.789    23223375.6624   23223388.4804
  -9614044.704 8  -5266991.51145  24161584.271    24161583.8244   24161600.3314
  -6699987.160 8  -3367648.07245  24501295.685    24501296.0754   24501307.7034
 -27491282.930 9 -21407389.01549  20610286.127    20610286.2864   20610293.9164
  -7025461.765 9  -5172808.63346  23643713.013    23643713.0384   23643723.4094
 -11263118.818 9  -8765342.10247  22584161.487    22584161.1814   22584169.8954
  -1681491.143 7  -1287850.67644  25402768.617    25402767.9324   25402780.7274
  -8444969.093 9  -6560923.27546  23370249.200    23370248.8044   23370262.1164
 -24443316.963 9 -19020071.10748  21188621.885    21188621.7724   21188629.8064
 00  7 15  0 24  0.0000000  0 10  1 21 22 30 25 29 20 16 15 11        .000000000
  -7080744.774 9  -5505189.14146  24040550.955    24040550.6834   24040562.9314
 -12842818.409 9  -9991355.98646  23238867.766    23238867.6164   23238880.4884
  -9711965.929 9  -5343293.45045  24142950.281    24142949.8054   24142966.1674
  -6679563.979 8  -3351733.90545  24505182.032    24505182.5354   24505194.0994
 -27471807.528 9 -21392213.36749  20613992.150    20613992.3104   20613999.9484
  -6956593.443 9  -5119145.09446  23656818.188    23656818.3664   23656828.7174
 -11348254.357 9  -8831681.41747  22567960.691    22567960.3464   22567969.0514
  -1775974.97717  -1361474.34144  25384788.757    25384787.8505   25384801.0514
  -8331547.652 9  -6472543.14646  23391832.715    23391832.3614   23391845.7624
 -24417786.025 9 -19000176.88148  21193480.273    21193480.1794   21193488.1954
 00  7 15  0 24 30.0000000  0 10  1 21 22 30 25 29 20 16 15 11        .000000000
  -7147623.679 9  -5557302.40846  24027824.221    24027823.9244   24027836.1794
 -12761120.880 9  -9927695.73946  23254414.409    23254414.2844   23254427.1194
  -9809933.928 9  -5419631.82846  24124307.420    24124306.8404   24124323.1004
  -6658625.673 8  -3335418.32845  24509166.363    24509166.8574   24509178.4334
 -27451852.447 9 -21376663.94749  20617789.475    20617789.6314   20617797.2724
  -6887723.703 9  -5065480.43546  23669923.597    23669923.7934   23669934.2794
 -11433279.541 9  -8897934.73347  22551780.895    22551780.5274   22551789.2664
  -1870532.056 7  -1435155.12344  25366795.074    25366794.4544   25366806.8524
  -8218040.263 9  -6384096.03846  23413432.624    23413432.2284   23413445.5494
 -24391711.767 9 -18979859.29748  21198442.060    21198441.9744   21198449.9684
 00  7 15  0 25  0.0000000  0 10  1 21 22 30 25 29 20 16 15 11        .000000000
  -7214386.707 9  -5609325.39346  24015119.506    24015119.2194   24015131.4984
 -12679136.868 9  -9863812.25346  23270015.620    23270015.4934   23270028.4314
  -9907945.477 8  -5496004.13846  24105656.173    24105655.6624   24105671.7594
  -6637172.152 8  -3318701.27345  24513248.868    24513249.3714   24513260.8314
 -27431418.875 9 -21360741.66549  20621677.860    20621678.0294   20621685.6714
  -6818852.732 9  -5011814.83046  23683029.425    23683029.6304   23683040.0424
 -11518192.520 9  -8964100.61447  22535622.446    22535622.0844   22535630.8224
  -1965160.733 8  -1508891.70844  25348787.909    25348786.9384   25348800.6664
  -8104449.923 9  -6295584.30446  23435048.305    23435047.8344   23435061.2514
 -24365095.689 9 -18959119.51048  21203506.945    21203506.8584   21203514.8684
 00  7 15  0 25 30.0000000  0 10  1 21 22 30 25 29 20 16 15 11       -.000000001
  -7281034.136 9  -5661258.27046  24002436.759    24002436.5794   24002448.7294
 -12596867.277 9  -9799706.25346  23285671.131    23285671.1154   23285683.9304
 -10005997.526 9  -5572408.01646  24086997.265    24086996.7704   24087012.7974
  -6615203.969 8  -3301583.19545  24517429.180    24517429.5974   24517441.2584
 -27410508.540 9 -21344447.88849  20625656.964    20625657.1354   20625664.7534
  -6749980.837 9  -4958148.50046  23696135.493    23696135.5764   23696146.0214
 -11602991.610 9  -9030177.75947  22519485.691    22519485.3354   22519494.0204
  -2059859.880 8  -1582683.24344  25330767.101    25330766.2944   25330779.6154
  -7990779.422 9  -6207010.11746  23456679.285    23456678.8094   23456692.2664
 -24337939.234 9 -18937958.65748  21208674.647    21208674.5504   21208682.5834
 00  7 15  0 26  0.0000000  0 10  1 21 22 30 25 29 20 16 15 11       -.000000001
  -7347566.134 9  -5713101.20846  23989775.965    23989775.7944   23989788.0044
 -12514312.887 9  -9735378.31746  23301380.868    23301380.7704   23301393.7044
 -10104087.318 8  -5648841.30746  24068331.147    24068330.6324   24068346.6634
  -6592721.082 8  -3284064.02445  24521707.640    24521708.0254   24521719.5114
 -27389122.663 9 -21327783.55249  20629726.529    20629726.6974   20629734.3304
  -6681107.996 9  -4904481.44346  23709241.566    23709241.7334   23709252.2134
 -11687674.642 9  -9096164.47247  22503370.981    22503370.6314   22503379.2524
  -2154628.455 8  -1656528.85044  25312733.312    25312732.5604   25312745.3844
  -7877031.757 9  -6118375.79046  23478324.951    23478324.4234   23478337.8424
 -24310243.830 9 -18916377.84348  21213944.909    21213944.8124   21213952.8444
 00  7 15  0 26 30.0000000  0 10  1 21 22 30 25 29 20 16 15 11       -.000000001
  -7413982.857 9  -5764854.32646  23977137.110    23977136.9344   23977149.1084
 -12431475.023 9  -9670829.50746  23317144.508    23317144.3674   23317157.3354
 -10202212.188 9  -5725301.95246  24049658.448    24049657.9294   24049673.7834
  -6569723.590 8  -3266143.88445  24526083.915    24526084.2354   24526095.7784
 -27367262.134 9 -21310749.36149  20633886.435    20633886.6084   20633894.2514
  -6612234.250 9  -4850813.68546  23722347.803    23722347.9504   23722358.6134
 -11772239.456 9  -9162059.06247  22487278.772    22487278.4314   22487287.0744
  -2249465.473 8  -1730427.78544  25294686.318    25294685.8534   25294698.7204
  -7763209.561 9  -6029683.37246  23499984.796    23499984.2394   23499997.7044
 -24282010.418 9 -18894377.80248  21219317.562    21219317.4724   21219325.4864
 00  7 15  0 27  0.0000000  0 10  1 21 22 30 25 29 20 16 15 11       -.000000001
  -7480284.807 9  -5816518.00746  23964520.124    23964519.9984   23964532.0524
 -12348353.898 9  -9606059.97746  23332962.015    23332961.9164   23332974.9874
 -10300369.167 8  -5801787.61545  24030979.554    24030979.0194   24030994.8994
  -6546211.722 8  -3247822.92245  24530558.031    24530558.4284   24530569.8714
 -27344928.702 9 -21293346.67349  20638136.348    20638136.5254   20638144.1574
  -6543359.741 9  -4797145.33546  23735454.345    23735454.4464   23735465.0864
 -11856684.593 9  -9227860.40047  22471209.363    22471209.0064   22471217.6584
  -2344370.169 8  -1804379.51944  25276626.613    25276625.7964   25276639.1734
  -7649315.674 9  -5940935.10846  23521658.232    23521657.8144   23521671.1754
 -24253240.704 9 -18871959.86248  21224792.283    21224792.1824   21224800.1964
 00  7 15  0 27 30.0000000  0 10  1 21 22 30 25 29 20 16 15 11       -.000000001
  -7546472.025 9  -5868092.31446  23951924.996    23951924.8684   23951936.8944
 -12264950.783 9  -9541070.68845  23348833.255    23348833.0194   23348846.2244
 -10398554.938 8  -5878295.72545  24012295.242    24012294.7454   24012310.5014
  -6522185.717 8  -3229101.34845  24535129.905    24535130.2734   24535141.8244
 -27322123.376 9 -21275576.27849  20642476.054    20642476.2314   20642483.8604
  -6474484.689 9  -4743476.55646  23748560.896    23748560.9534   23748571.6434
 -11941007.997 9  -9293566.89147  22455163.114    22455162.7454   22455171.3474
  -2439340.871 8  -1878382.63744  25258554.271    25258553.2784   25258566.2734
  -7535352.923 9  -5852133.17846  23543344.829    23543344.3724   23543357.7604
 -24223935.988 9 -18849125.04548  21230368.796    21230368.7214   21230376.6834
 00  7 15  0 28  0.0000000  0 10  1 21 22 30 25 29 20 16 15 11       -.000000001
  -7612544.626 9  -5919577.27646  23939351.711    23939351.5024   23939363.5874
 -12181266.710 9  -9475862.49546  23364757.933    23364757.6254   23364770.9574
 -10496766.456 8  -5954823.87345  23993605.941    23993605.5134   23993621.1324
  -6497645.782 8  -3209979.33745  24539799.792    24539800.0994   24539811.7734
 -27298848.043 9 -21257439.64449  20646905.178    20646905.3354   20646912.9824
  -6405609.192 9  -4689807.41146  23761667.552    23761667.6504   23761678.1764
 -12025207.730 9  -9359177.01347  22439140.380    22439140.0074   22439148.5974
  -2534377.371 8  -1952437.03144  25240469.475    25240468.5784   25240481.3354
  -7421324.412 9  -5763279.99045  23565043.920    23565043.4594   23565056.7024
 -24194097.905 9 -18825874.61548  21236046.819    21236046.7314   21236054.7054
 00  7 15  0 28 30.0000000  0 10  1 21 22 30 25 29 20 16 15 11       -.000000001
  -7678503.007 9  -5970973.25346  23926800.136    23926799.8724   23926812.0574
 -12097302.232 9  -9410435.79745  23380735.996    23380735.6934   23380749.0814
 -10595000.933 8  -6031369.94245  23974912.262    23974911.7054   23974927.4114
  -6472592.206 8  -3190457.07845  24544567.231    24544567.7494   24544579.0534
 -27275103.719 9 -21238937.56349  20651423.556    20651423.7274   20651431.3824
  -6336733.251 9  -4636137.92946  23774774.283    23774774.4164   23774784.9454
 -12109281.869 9  -9424689.25447  22423141.524    22423141.1534   22423149.7854
  -2629477.847 8  -2026541.23945  25222372.396    25222371.3554   25222384.2794
  -7307232.854 9  -5674377.71345  23586754.953    23586754.4194   23586767.9764
 -24163727.640 9 -18802209.49748  21241826.120    21241826.0304   21241834.0124
 00  7 15  0 29  0.0000000  0 10  1 21 22 30 25 29 20 16 15 11       -.000000001
  -7744347.594 9  -6022280.56846  23914270.166    23914269.9464   23914282.0964
 -12013057.630 9  -9344790.81845  23396767.343    23396766.9754   23396780.4304
 -10693255.842 8  -6107931.94645  23956214.672    23956214.1184   23956229.7894
  -6447025.354 8  -3170534.82845  24549432.482    24549432.9214   24549444.2894
 -27250891.865 9 -21220071.17449  20656030.910    20656031.0674   20656038.7254
  -6267857.026 9  -4582468.21746  23787881.101    23787881.2324   23787891.7244
 -12193228.518 9  -9490102.17047  22407166.950    22407166.5914   22407175.2294
  -2724642.030 8  -2100695.05445  25204263.170    25204262.3224   25204274.8974
  -7193081.048 9  -5585428.47945  23608477.437    23608476.8014   23608490.5804
 -24132826.821 9 -18778130.96248  21247706.393    21247706.2894   21247714.2814
 00  7 15  0 29 30.0000000  0 10  1 21 22 30 25 29 20 16 15 11       -.000000001
  -7810078.330 9  -6073499.13246  23901761.847    23901761.6254   23901773.8064
 -11928534.114 9  -9278928.52046  23412851.754    23412851.4314   23412864.8724
 -10791528.079 8  -6184507.43845  23937513.836    23937513.3844   23937528.8304
  -6420945.496 8  -3150212.85145  24554395.346    24554395.7764   24554407.2024
 -27226213.657 9 -21200841.38749  20660727.013    20660727.1564   20660734.8284
  -6198980.567 9  -4528798.32146  23800987.881    23800988.0694   23800998.5914
 -12277045.568 9  -9555414.09947  22391217.054    22391216.7034   22391225.3574
  -2819867.972 8  -2174896.98245  25186142.194    25186141.4264   25186153.9864
  -7078871.779 8  -5496434.46345  23630210.934    23630210.3254   23630224.1354
 -24101396.922 9 -18753640.15548  21253687.303    21253687.2084   21253695.2144
 00  7 15  0 30  0.0000000  0 10  1 21 22 30 25 29 20 16 15 11       -.000000001
  -7875695.823 9  -6124629.47946  23889275.110    23889274.8694   23889287.0144
 -11843732.984 9  -9212849.89745  23428988.978    23428988.6984   23429002.1754
 -10889814.138 8  -6261093.68945  23918810.368    23918809.9234   23918825.1534
  -6394353.079 8  -3129491.48245  24559455.635    24559456.2924   24559467.6004
 -27201070.432 9 -21181249.26149  20665511.584    20665511.7444   20665519.3974
  -6130104.231 9  -4475128.52646  23814094.696    23814094.8654   23814105.4694
 -12360731.096 9  -9620623.54047  22375292.182    22375291.8484   22375300.4914
  -2915154.941 8  -2249146.46245  25168009.694    25168009.0404   25168021.3874
  -6964608.219 9  -5407398.14045  23651954.643    23651954.2124   23651967.9314
 -24069439.606 9 -18728738.38348  21259768.578    21259768.4794   21259776.5074
 00  7 15  0 30 30.0000000  0 10  1 21 22 30 25 29 20 16 15 11       -.000000002
  -7941199.845 9  -6175671.41846  23876809.932    23876809.7594   23876821.7554
 -11758655.203 9  -9146555.68945  23445178.835    23445178.6004   23445192.0754
 -10988110.791 8  -6337688.18145  23900104.946    23900104.3834   23900119.6874
  -6367248.253 8  -3108370.83645  24564613.349    24564613.9814   24564625.3554
 -27175463.611 9 -21161295.88349  20670384.407    20670384.5614   20670392.2094
  -6061227.491 9  -4421458.42145  23827201.607    23827201.7214   23827212.3284
 -12444282.948 9  -9685728.82247  22359392.740    22359392.4054   22359401.0164
  -3010501.734 8  -2323442.55345  25149865.694    25149865.1014   25149877.6344
  -6850292.804 8  -5318321.42845  23673708.405    23673708.0124   23673721.7264
 -24036956.152 9 -18703426.63048  21265950.020    21265949.9294   21265957.9524
 00  7 15  0 31  0.0000000  0 10  1 21 22 30 25 29 20 16 15 11       -.000000001
  -8006590.841 9  -6226625.27346  23864366.378    23864366.2434   23864378.1264
 -11673301.557 9  -9080046.55545  23461421.184    23461421.0564   23461434.5214
 -11086415.544 8  -6414288.98245  23881397.952    23881397.2844   23881412.5894
  -6339631.343 8  -3086851.12945  24569868.775    24569869.1334   24569880.5324
 -27149394.804 9 -21140982.52349  20675345.124    20675345.2764   20675352.9184
  -5992350.658 9  -4367788.25145  23840308.464    23840308.5684   23840319.0964
 -12527699.292 9  -9750728.52047  22343519.113    22343518.7544   22343527.3284
  -3105907.341 8  -2397784.49245  25131710.557    25131709.8814   25131722.6034
  -6735928.446 8  -5229206.60545  23695471.458    23695470.9374   23695484.8454
 -24003948.175 9 -18677706.16148  21272231.225    21272231.1414   21272239.1814
 00  7 15  0 31 30.0000000  0 10  1 21 22 30 25 29 20 16 15 11       -.000000001
  -8071869.218 9  -6277491.38746  23851944.161    23851944.0034   23851955.8634
 -11587672.657 9  -9013322.91345  23477715.952    23477715.8954   23477729.3714
 -11184725.758 8  -6490894.06245  23862689.923    23862689.3144   23862704.4914
  -6311503.152 8  -3064933.06745  24575221.295    24575221.6894   24575233.3414
 -27122865.869 9 -21120310.61749  20680393.433    20680393.5824   20680401.2174
  -5923473.975 9  -4314118.19145  23853415.328    23853415.4444   23853425.9944
 -12610978.308 9  -9815621.21547  22327671.603    22327671.2454   22327679.8074
  -3201370.735 8  -2472171.45645  25113544.277    25113543.5564   25113556.1284
  -6621518.267 8  -5140056.06345  23717243.012    23717242.6044   23717256.5304
 -23970417.383 9 -18651578.30448  21278611.914    21278611.8244   21278619.8804
 00  7 15  0 32  0.0000000  0 10  1 21 22 30 25 29 20 16 15 11       -.000000007
  -8137036.889 9  -6328271.20846  23839543.055    23839542.8584   23839554.6554
 -11501771.471 9  -8946387.10845  23494062.502    23494062.4294   23494076.1024
 -11283039.849 8  -6567502.16645  23843981.166    23843980.6164   23843995.5934
  -6282865.708 8  -3042618.19445  24580670.658    24580670.9354   24580683.0354
 -27095879.613 9 -21099282.36149  20685528.731    20685528.8864   20685536.5244
  -5854599.430 8  -4260449.79845  23866521.747    23866521.8514   23866532.5094
 -12694119.753 9  -9880406.71247  22311850.253    22311849.8984   22311858.4754
  -3296892.515 8  -2546603.89645  25095367.067    25095366.3794   25095378.7504
  -6507066.589 8  -5050873.16245  23739022.628    23739022.1874   23739036.1784
 -23936367.413 9 -18625045.89448  21285091.457    21285091.3684   21285099.4264
 00  7 15  0 32 30.0000000  0 10  1 21 22 30 25 29 20 16 15 11       -.000000008
  -8202091.753 9  -6378963.16845  23827163.443    23827163.1684   23827174.9444
 -11415596.382 9  -8879237.89746  23510461.255    23510461.0974   23510474.8814
 -11381351.852 9  -6644108.64345  23825272.788    23825272.2784   23825287.0874
  -6253716.827 8  -3019904.73845  24586217.781    24586217.7864   24586229.7314
 -27068434.944 9 -21077896.90049  20690751.288    20690751.4414   20690759.0644
  -5785724.091 8  -4206780.77345  23879628.347    23879628.4374   23879639.0864
 -12777118.908 9  -9945081.32947  22296056.002    22296055.6724   22296064.1844
  -3392468.964 8  -2621078.97645  25077179.516    25077178.6414   25077191.1284
  -6392573.781 9  -4961658.24545  23760809.993    23760809.5444   23760823.6584
 -23901797.168 9 -18598108.07148  21291670.004    21291669.9144   21291677.9654
 00  7 15  0 33  0.0000000  0 10  1 21 22 30 25 29 20 16 15 11       -.000000008
  -8267034.331 9  -6429567.62645  23814805.042    23814804.8344   23814816.5494
 -11329149.042 9  -8811876.52945  23526911.773    23526911.6274   23526925.4664
 -11479659.153 9  -6720711.45545  23806565.421    23806564.9094   23806579.6664
  -6224057.308 8  -2996793.42845  24591861.702    24591861.8484   24591873.6634
 -27040533.817 9 -21056155.75749  20696060.681    20696060.8454   20696068.4584
  -5716848.649 8  -4153111.69245  23892734.934    23892735.1434   23892745.6174
 -12859974.099 9 -10009643.77547  22280289.134    22280288.7774   22280297.2814
  -3488099.282 8  -2695596.05245  25058981.625    25058980.9884   25058993.2244
  -6278042.908 9  -4872413.65446  23782604.647    23782604.2654   23782618.4564
 -23866708.531 9 -18570766.30848  21298347.168    21298347.0814   21298355.1114
 00  7 15  0 33 30.0000000  0 10  1 21 22 30 25 29 20 16 15 11       -.000000008
  -8331864.886 9  -6480084.79846  23802468.123    23802467.8754   23802479.4254
 -11242429.760 9  -8744303.26345  23543414.017    23543413.8534   23543427.7244
 -11577959.079 9  -6797308.51945  23787859.370    23787858.7594   23787873.5784
  -6193887.675 8  -2973284.60845  24597602.762    24597602.9844   24597614.7924
 -27012177.933 9 -21034060.26149  20701456.635    20701456.8004   20701464.4134
  -5647973.092 8  -4099442.49045  23905841.516    23905841.7714   23905852.2314
 -12942683.456 9 -10074092.58447  22264550.040    22264549.6934   22264558.1774
  -3583782.314 8  -2770154.15845  25040773.834    25040773.1634   25040785.2444
  -6163476.907 9  -4783141.68446  23804406.108    23804405.6234   23804419.8944
 -23831103.177 9 -18543021.91048  21305122.685    21305122.5904   21305130.6334
 00  7 15  0 34  0.0000000  0 10  1 21 22 30 25 29 20 16 15 11       -.000000008
  -8396583.824 9  -6530515.01846  23790152.460    23790152.2804   23790163.7374
 -11155440.398 9  -8676519.52645  23559967.742    23559967.6334   23559981.3564
 -11676249.039 9  -6873897.82146  23769155.271    23769154.6774   23769169.3704
  -6163208.573 8  -2949378.85045  24603440.859    24603440.9924   24603452.6874
 -26983368.660 9 -21011611.47349  20706938.847    20706939.0044   20706946.5934
  -5579097.580 8  -4045773.34645  23918948.086    23918948.3084   23918958.9384
 -13025245.232 9 -10138426.39247  22248839.027    22248838.6804   22248847.1844
  -3679516.863 8  -2844752.44145  25022556.037    25022555.4664   25022567.6754
  -6048878.644 9  -4693844.57845  23826213.556    23826213.0964   23826227.5064
 -23794983.253 9 -18514876.54348  21311996.082    21311995.9724   21312004.0444
 00  7 15  0 34 30.0000000  0 10  1 21 22 30 25 29 20 16 15 11       -.000000008
  -8461191.593 9  -6580858.59346  23777857.920    23777857.7724   23777869.1744
 -11068182.200 8  -8608526.34545  23576572.519    23576572.4584   23576586.2334
 -11774525.776 9  -6950476.82846  23750453.636    23750453.0344   23750467.6454
  -6132020.712 8  -2925076.62645  24609375.594    24609375.6834   24609387.2544
 -26954107.792 9 -20988810.79349  20712507.006    20712507.1704   20712514.7464
  -5510222.504 8  -3992104.52245  23932054.717    23932054.8024   23932065.5214
 -13107657.384 9 -10202643.61547  22233156.488    22233156.1364   22233164.6024
  -3775302.462 8  -2919390.50445  25004328.476    25004327.9044   25004339.9714
  -5934250.974 9  -4604524.54745  23848026.726    23848026.3444   23848040.6614
 -23758350.452 9 -18486331.53748  21318967.097    21318966.9964   21318975.0984
 00  7 15  0 35  0.0000000  0 10  1 21 22 30 25 29 20 16 15 11       -.000000008
  -8525688.681 9  -6631115.93846  23765584.484    23765584.2784   23765595.7034
 -10980655.432 9  -8540323.87745  23593228.483    23593228.3874   23593242.1404
 -11872785.846 9  -7027042.84146  23731755.181    23731754.6694   23731769.0954
  -6100324.946 8  -2900378.60445  24615407.145    24615407.3284   24615418.9184
 -26924396.758 9 -20965659.33349  20718160.816    20718160.9864   20718168.5734
  -5441347.734 8  -3938435.96145  23945161.172    23945161.2904   23945171.9174
 -13189917.895 9 -10266742.67147  22217502.819    22217502.4534   22217510.8744
  -3871137.358 8  -2994066.96945  24986091.535    24986091.0004   24986103.4494
  -5819596.792 9  -4515183.84945  23869844.913    23869844.4704   23869858.8144
 -23721206.575 9 -18457388.28648  21326035.370    21326035.2734   21326043.3984
 00  7 15  0 35 30.0000000  0 10  1 21 22 30 25 29 20 16 15 11       -.000000008
  -8590075.217 9  -6681287.14446  23753332.051    23753331.9414   23753343.2544
 -10892861.831 9  -8471913.48445  23609935.244    23609935.1414   23609948.8294
 -11971026.323 9  -7103593.58746  23713060.410    23713059.9614   23713074.3104
  -6068121.649 8  -2875285.13945  24621535.180    24621535.4254   24621546.8974
 -26894237.299 9 -20942158.45349  20723899.976    20723900.1324   20723907.7284
  -5372473.475 8  -3884767.77545  23958267.560    23958267.5964   23958278.4104
 -13272024.578 9 -10330721.86347  22201878.408    22201878.0704   22201886.4214
  -3967020.771 8  -3068781.25245  24967845.269    24967844.8624   24967857.0014
  -5704919.034 8  -4425824.81645  23891667.578    23891667.1924   23891681.5544
 -23683553.392 9 -18428048.17548  21333200.541    21333200.4434   21333208.5854
 00  7 15  0 36  0.0000000  0 10  1 21 22 30 25 29 20 16 15 11       -.000000008
  -8654351.184 9  -6731372.18846  23741100.598    23741100.4784   23741111.7944
 -10804801.756 8  -8403295.45445  23626692.640    23626692.5414   23626706.3714
 -12069244.345 9  -7180126.83046  23694369.860    23694369.4204   23694383.8424
  -6035411.387 8  -2849796.61345  24627759.712    24627760.0274   24627771.5564
 -26863630.929 9 -20918309.33149  20729724.154    20729724.3114   20729731.9084
  -5303599.223 8  -3831099.62845  23971373.949    23971374.0734   23971384.8474
 -13353975.348 9 -10394579.57447  22186283.695    22186283.3264   22186291.6764
  -4062950.723 7  -3143531.75445  24949590.438    24949589.8484   24949602.3034
  -5590220.401 8  -4336449.49445  23913494.156    23913493.6934   23913508.1244
 -23645392.530 9 -18398312.47748  21340462.337    21340462.2264   21340470.4124
 00  7 15  0 36 30.0000000  0 10  1 21 22 30 25 29 20 16 15 11       -.000000008
  -8718517.171 9  -6781371.54746  23728890.127    23728890.0324   23728901.2344
 -10716476.403 8  -8334470.74345  23643500.502    23643500.2944   23643514.2034
 -12167437.072 9  -7256640.36146  23675684.080    23675683.5764   23675698.0734
  -6002194.810 8  -2823913.55945  24634080.572    24634080.9704   24634092.3554
 -26832579.106 9 -20894113.10249  20735633.139    20735633.3004   20735640.8624
  -5234725.516 8  -3777431.86745  23984480.245    23984480.4594   23984491.2304
 -13435768.270 9 -10458314.27447  22170718.968    22170718.6114   22170726.9534
  -4158926.439 8  -3218317.91945  24931326.829    24931326.4104   24931338.8964
  -5475503.521 8  -4247059.97445  23935324.224    23935323.5804   23935338.0674
 -23606725.964 9 -18368182.71748  21347820.357    21347820.2614   21347828.4454
 00  7 15  0 37  0.0000000  0 10  1 21 22 30 25 29 20 16 15 11       -.000000008
  -8782573.093 9  -6831285.14446  23716700.605    23716700.4704   23716711.6464
 -10627887.041 8  -8265440.27345  23660358.647    23660358.4354   23660372.4924
 -12265600.754 9  -7333131.28546  23657003.970    23657003.4384   23657017.9304
  -5968472.427 8  -2797636.36745  24640497.829    24640498.3184   24640509.6574
 -26801083.239 9 -20869570.86849  20741626.619    20741626.7714   20741634.3524
  -5165851.877 8  -3723764.17245  23997586.522    23997586.7764   23997597.6574
 -13517401.053 9 -10521924.20147  22155184.722    22155184.3454   22155192.6914
  -4254946.560 8  -3293138.75245  24913054.793    24913054.5314   24913066.8824
  -5360770.924 8  -4157658.19545  23957157.263    23957156.5154   23957171.2784
 -23567555.159 9 -18337660.04048  21355274.333    21355274.2514   21355282.4154
 00  7 15  0 37 30.0000000  0 10  1 21 22 30 25 29 20 16 15 11       -.000000008
  -8846519.658 9  -6881113.53146  23704531.945    23704531.8044   23704542.8874
 -10539034.466 8  -8196204.71945  23677266.839    23677266.5494   23677280.7074
 -12363732.482 9  -7409597.31746  23638329.935    23638329.4464   23638343.8104
  -5934245.116 8  -2770965.74045  24647011.113    24647011.6594   24647022.9814
 -26769145.376 9 -20844684.22149  20747704.173    20747704.3434   20747711.9144
  -5096978.758 9  -3670096.89145  24010692.687    24010692.8834   24010703.9624
 -13598871.948 9 -10585407.96747  22139681.270    22139680.8784   22139689.2834
  -4351009.899 8  -3367993.23845  24894774.614    24894774.3164   24894786.5464
  -5246025.849 8  -4068246.71845  23978992.718    23978991.9094   23979006.8624
 -23527882.441 9 -18306746.26748  21362823.825    21362823.7454   21362831.9204
 00  7 15  0 38  0.0000000  0 10  1 21 22 30 25 29 20 16 15 11       -.000000008
  -8910357.349 9  -6930857.08746  23692383.959    23692383.8144   23692394.8804
 -10449920.326 8  -8126765.36745  23694224.848    23694224.6704   23694238.8644
 -12461829.535 8  -7486036.30546  23619662.491    23619661.9394   23619676.3854
  -5899513.888 8  -2743902.47945  24653620.092    24653620.5034   24653631.9884
 -26736767.362 9 -20819454.59349  20753865.506    20753865.6684   20753873.2514
  -5028106.236 9  -3616430.08745  24023798.796    24023798.9804   24023810.0454
 -13680179.006 9 -10648764.06947  22124208.987    22124208.6194   22124217.0254
  -4447115.658 8  -3442880.80545  24876486.295    24876485.8984   24876498.0794
  -5131271.317 8  -3978827.86145  24000829.921    24000829.4104   24000844.2764
 -23487709.999 9 -18275443.09148  21370468.394    21370468.3134   21370476.4844
 00  7 15  0 38 30.0000000  0 10  1 21 22 30 25 29 20 16 15 11       -.000000007
  -8974086.047 9  -6980515.70746  23680256.669    23680256.5994   23680267.6024
 -10360545.554 8  -8057122.91745  23711232.498    23711232.3154   23711246.3474
 -12559888.467 8  -7562445.61546  23601002.304    23601001.6884   23601016.1284
  -5864279.039 8  -2716446.76045  24660325.185    24660325.6234   24660336.8624
 -26703950.308 9 -20793882.85749  20760110.360    20760110.5344   20760118.1064
  -4959233.923 9  -3562763.42346  24036904.847    24036905.0574   24036916.0094
 -13761319.786 9 -10711990.60447  22108768.388    22108768.0194   22108776.4124
  -4543262.015 9  -3517799.99245  24858190.298    24858189.7234   24858201.7894
  -5016509.544 8  -3889403.35145  24022668.511    24022668.1124   24022682.7584
 -23447039.006 9 -18243751.44648  21378207.880    21378207.7654   21378215.9654
 00  7 15  0 39  0.0000000  0 10  1 21 22 30 25 29 20 16 15 11       -.000000007
  -9037706.049 9  -7030089.62546  23668150.083    23668150.0314   23668161.0904
 -10270910.963 8  -7987278.01945  23728289.581    23728289.3874   23728303.5204
 -12657906.480 8  -7638823.04245  23582349.835    23582349.1904   23582363.6484
  -5828541.209 8  -2688599.10045  24667125.842    24667126.1034   24667137.2934
 -26670696.113 9 -20767970.49449  20766438.431    20766438.6144   20766446.1764
  -4890362.029 9  -3509097.08746  24050010.815    24050011.0544   24050022.0074
 -13842292.337 9 -10775086.06047  22093359.805    22093359.4464   22093367.8214
  -4639447.527 9  -3592749.70645  24839886.802    24839886.5344   24839897.9834
  -4901743.408 8  -3799975.43945  24044507.821    24044507.4934   24044522.2514
 -23405871.620 9 -18211672.99348  21386041.806    21386041.7114   21386049.9174
 00  7 15  0 39 30.0000000  0 10  1 21 22 30 25 29 20 16 15 11       -.000000007
  -9101217.461 9  -7079578.92746  23656064.120    23656064.1184   23656075.1144
 -10181017.371 8  -7917231.32045  23745395.821    23745395.6054   23745409.9894
 -12755879.730 8  -7715165.58445  23563705.923    23563705.1474   23563719.5364
  -5792301.180 8  -2660360.13245  24674022.119    24674022.6704   24674033.3994
 -26637006.072 9 -20741718.51049  20772849.430    20772849.6154   20772857.1694
  -4821490.042 9  -3455430.69346  24063116.704    24063117.0304   24063128.0754
 -13923094.080 9 -10838048.40847  22077983.694    22077983.3404   22077991.7024
  -4735671.014 9  -3667729.04345  24821576.043    24821575.6904   24821586.8474
  -4786975.330 8  -3710546.03645  24066347.735    24066347.4044   24066362.1654
 -23364209.654 9 -18179209.15948  21393969.823    21393969.7234   21393977.9524
 00  7 15  0 40  0.0000000  0 10  1 21 22 30 25 29 20 16 15 11       -.000000007
  -9164621.200 9  -7128984.34346  23643998.702    23643998.6914   23644009.7114
 -10090867.295 8  -7846984.73745  23762551.028    23762550.8584   23762565.2714
 -12853805.631 8  -7791471.22945  23545071.007    23545070.3574   23545084.5884
  -5755560.144 8  -2631730.72545  24681013.859    24681014.0204   24681024.9654
 -26602882.308 9 -20715128.56249  20779342.997    20779343.1704   20779350.7134
  -4752618.741 9  -3401764.80246  24076222.656    24076222.9384   24076233.8674
 -14003723.755 9 -10900876.66947  22062640.368    22062640.0124   22062648.3624
  -4831931.755 8  -3742737.41145  24803258.156    24803258.0314   24803268.8214
  -4672208.915 8  -3621117.93045  24088187.235    24088186.8654   24088202.0264
 -23322055.516 9 -18146361.81148  21401991.499    21401991.3904   21401999.6394
 00  7 15  0 40 30.0000000  0 10  1 21 22 30 25 29 20 16 15 11       -.000000007
  -9227916.884 9  -7178305.54946  23631953.825    23631953.8294   23631964.7844
 -10000460.238 9  -7776537.92345  23779755.191    23779754.9574   23779769.4304
 -12951680.815 9  -7867737.37145  23526445.764    23526445.1814   23526459.2584
  -5718318.590 8  -2602711.33345  24688100.715    24688100.7124   24688111.9854
 -26568326.145 9 -20688201.68349  20785918.785    20785918.9684   20785926.5084
  -4683747.694 9  -3348099.13746  24089328.480    24089328.7554   24089339.6794
 -14084178.580 9 -10963568.69047  22047330.287    22047329.9314   22047338.2804
  -4928228.139 8  -3817773.49645  24784933.546    24784933.2684   24784944.1114
  -4557446.330 8  -3531692.81545  24110026.122    24110025.6564   24110040.8594
 -23279410.345 9 -18113131.84648  21410106.638    21410106.5224   21410114.7814
 00  7 15  0 41  0.0000000  0 10  1 21 22 30 25 29 20 16 15 11       -.000000007
  -9291105.158 9  -7227543.05746  23619929.416    23619929.3744   23619940.3504
  -9909797.970 9  -7705892.24245  23797007.926    23797007.6434   23797022.2094
 -13049502.487 9  -7943961.81746  23507830.794    23507830.2384   23507844.0994
  -5680577.421 8  -2573302.59645  24695282.543    24695282.5814   24695294.1284
 -26533339.455 9 -20660939.32449  20792576.532    20792576.7094   20792584.2554
  -4614876.855 9  -3294433.64146  24102434.242    24102434.5224   24102445.4804
 -14164456.625 9 -11026122.95647  22032053.856    22032053.5074   22032061.7964
  -5024558.431 8  -3892835.96745  24766602.333    24766602.0784   24766613.0904
  -4442690.669 8  -3442273.08445  24131863.615    24131863.2494   24131878.3174
 -23236276.693 9 -18079521.24748  21418314.712    21418314.6194   21418322.8564
 00  7 15  0 41 30.0000000  0 10  1 21 22 30 25 29 20 16 15 11       -.000000006
  -9354186.135 9  -7276696.96346  23607925.426    23607925.2844   23607936.2964
  -9818881.844 9  -7635048.75145  23814308.940    23814308.7074   23814323.1294
 -13147267.417 9  -8020142.05846  23489226.635    23489226.0684   23489239.8604
  -5642337.665 8  -2543505.36545  24702559.375    24702559.6434   24702571.0294
 -26497923.664 9 -20633342.60249  20799315.920    20799316.1034   20799323.6464
  -4546006.218 8  -3240768.29745  24115539.946    24115540.1704   24115551.2164
 -14244555.740 9 -11088537.79147  22016811.464    22016811.0994   22016819.4314
  -5120921.675 8  -3967924.09845  24748264.905    24748264.7724   24748276.0554
  -4327944.404 8  -3352860.67545  24153699.384    24153698.8224   24153714.1074
 -23192656.392 9 -18045531.43748  21426615.396    21426615.3034   21426623.5404
 00  7 15  0 42  0.0000000  0 10  1 21 22 30 25 29 20 16 15 11       -.000000007
  -9417160.178 9  -7325767.53646  23595941.720    23595941.5604   23595952.7024
  -9727712.986 9  -7564008.33245  23831658.039    23831657.7564   23831672.3064
 -13244972.033 9  -8096275.31046  23470633.928    23470633.3494   23470646.9814
  -5603600.001 8  -2513320.17745  24709930.805    24709931.2914   24709942.3404
 -26462080.693 9 -20605413.01549  20806136.619    20806136.8014   20806144.3434
  -4477135.810 9  -3187103.12345  24128645.674    24128645.8664   24128656.8794
 -14324473.827 9 -11150811.56747  22001603.503    22001603.1474   22001611.4664
  -5217316.304 8  -4043036.65845  24729921.496    24729921.1734   24729932.8274
  -4213210.328 9  -3263457.79145  24175532.788    24175532.2574   24175547.5314
 -23148551.685 9 -18011164.17648  21435008.277    21435008.1734   21435016.4374
 00  7 15  0 42 30.0000000  0 10  1 21 22 30 25 29 20 16 15 11       -.000000006
  -9480027.415 9  -7374754.89246  23583978.387    23583978.2624   23583989.3374
  -9636291.924 9  -7492771.39245  23849055.094    23849054.7734   23849069.4844
 -13342612.802 9  -8172358.80746  23452053.339    23452052.8424   23452066.4174
  -5564365.110 9  -2482747.54445  24717396.830    24717397.3724   24717408.5324
 -26425811.777 9 -20577151.52149  20813038.368    20813038.5334   20813046.0834
  -4408265.122 8  -3133437.71745  24141751.408    24141751.6034   24141762.6374
 -14404208.497 9 -11212942.42447  21986430.458    21986430.1014   21986438.4094
  -5313741.105 7  -4118172.68845  24711572.188    24711572.1054   24711583.7474
  -4098490.731 9  -3174066.17845  24197363.391    24197363.0134   24197378.2404
 -23103964.176 9 -17976420.70248  21443493.048    21443492.9494   21443501.2104
 00  7 15  0 43  0.0000000  0 10  1 21 22 30 25 29 20 16 15 11       -.000000006
  -9542787.872 9  -7423659.03746  23572035.385    23572035.2204   23572046.3004
  -9544620.341 9  -7421339.24545  23866499.830    23866499.4664   23866514.1884
 -13440186.640 9  -8248390.16846  23433485.528    23433485.0264   23433498.4574
  -5524633.697 9  -2451788.00145  24724957.599    24724958.0084   24724968.9884
 -26389118.709 9 -20548559.52249  20820020.830    20820020.9994   20820028.5604
  -4339394.112 8  -3079772.07545  24154857.114    24154857.2714   24154868.3494
 -14483757.331 9 -11274928.47247  21971292.760    21971292.4014   21971300.7084
  -5410194.099 7  -4193330.66445  24693217.429    24693217.4014   24693229.5234
  -3983788.146 9  -3084687.81145  24219190.779    24219190.2934   24219205.7124
 -23058895.759 9 -17941302.49948  21452069.286    21452069.1914   21452077.4564
 00  7 15  0 43 30.0000000  0 10  1 21 22 30 25 29 20 16 15 11       -.000000007
  -9605442.708 9  -7472480.87246  23560112.457    23560112.2944   23560123.4134
  -9452699.529 8  -7349712.90345  23883992.031    23883991.6074   23884006.4594
 -13537691.432 9  -8324367.73646  23414930.771    23414930.2714   23414943.6154
  -5484407.143 9  -2420442.64145  24732612.484    24732612.8394   24732623.8794
 -26352004.215 9 -20519639.14049  20827083.462    20827083.6304   20827091.1734
  -4270523.323 8  -3026106.60045  24167962.730    24167962.8674   24167974.0834
 -14563118.897 9 -11336768.59947  21956190.689    21956190.3564   21956198.6594
  -5506674.827 8  -4268510.29645  24674857.769    24674857.5414   24674869.9274
  -3869106.034 8  -2995325.39945  24241014.223    24241013.7754   24241029.3114
 -23013349.192 9 -17905811.71448  21460736.514    21460736.4114   21460744.7194
 00  7 15  0 44  0.0000000  0 10  1 21 22 30 25 29 20 16 15 11       -.000000006
  -9667991.180 9  -7521219.84746  23548209.827    23548209.6644   23548220.7404
  -9360529.689 8  -7277892.53745  23901531.498    23901531.1444   23901546.0564
 -13635122.848 9  -8400288.11846  23396390.044    23396389.5674   23396402.7934
  -5443685.746 9  -2388711.67245  24740361.534    24740361.8744   24740372.7574
 -26314468.727 9 -20490390.71049  20834226.231    20834226.3954   20834233.9584
  -4201651.736 8  -2972440.50545  24181068.639    24181068.6844   24181079.9744
 -14642290.114 9 -11398460.40947  21941124.911    21941124.5664   21941132.8484
  -5603180.816 8  -4343709.64645  24656493.359    24656493.1554   24656505.4054
  -3754446.032 8  -2905980.23645  24262833.475    24262833.0904   24262848.5424
 -22967325.629 9 -17869949.23848  21469494.533    21469494.4484   21469502.7644
 00  7 15  0 44 30.0000000  0 10  1 21 22 30 25 29 20 16 15 11       -.000000005
  -9730434.263 9  -7569876.68346  23536327.248    23536327.1104   23536338.1014
  -9268113.147 8  -7205879.93045  23919118.022    23919117.7384   23919132.5454
 -13732478.166 9  -8476149.20346  23377863.798    23377863.2824   23377876.5364
  -5402471.416 9  -2356596.56745  24748204.557    24748204.8834   24748215.6844
 -26276515.160 9 -20460816.50649  20841448.564    20841448.7254   20841456.2874
  -4132780.206 8  -2918774.47345  24194174.523    24194174.4724   24194185.9024
 -14721269.716 9 -11460002.90747  21926095.556    21926095.2004   21926103.4504
  -5699711.698 9  -4418928.39445  24638124.199    24638123.9724   24638136.0474
  -3639812.041 8  -2816655.35245  24284647.839    24284647.3374   24284662.8814
 -22920828.194 9 -17833717.52148  21478342.750    21478342.6634   21478350.9914
 00  7 15  0 45  0.0000000  0 10  1 21 22 30 25 29 20 16 15 11       -.000000006
  -9792772.285 9  -7618451.66046  23524464.647    23524464.5224   23524475.5494
  -9175450.986 8  -7133675.91345  23936751.257    23936750.9624   23936765.6574
 -13829753.978 9  -8551948.32246  23359352.641    23359352.1284   23359365.3934
  -5360764.583 9  -2324097.72245  24756141.155    24756141.5194   24756152.2784
 -26238144.705 9 -20430917.45649  20848750.228    20848750.4004   20848757.9374
  -4063908.585 8  -2865108.35645  24207280.207    24207280.1284   24207291.7894
 -14800055.144 9 -11521394.09747  21911103.148    21911102.7994   21911111.0294
  -5796265.705 9  -4494165.18146  24619750.580    24619750.1924   24619762.2464
  -3525206.513 8  -2727352.62945  24306456.788    24306456.0714   24306471.7284
 -22873858.472 9 -17797117.78848  21487280.840    21487280.7454   21487289.0654
 00  7 15  0 45 30.0000000  0 10  1 21 22 30 25 29 20 16 15 11       -.000000005
  -9855004.927 9  -7666944.52646  23512622.090    23512621.8914   23512632.8884
  -9082543.695 8  -7061280.91345  23954430.988    23954430.8134   23954445.5444
 -13926946.666 9  -8627682.66946  23340857.307    23340856.7614   23340869.9984
  -5318566.058 8  -2291215.77045  24764171.137    24764171.6914   24764182.7574
 -26199358.929 9 -20400694.77549  20856130.937    20856131.0814   20856138.6514
  -3995035.868 8  -2811441.38845  24220386.184    24220386.3854   24220397.7934
 -14878643.790 9 -11582631.95447  21896148.172    21896147.8124   21896156.0774
  -5892841.006 9  -4569418.54846  24601372.936    24601372.5744   24601384.3624
  -3410631.404 8  -2638073.62645  24328259.881    24328259.1964   24328274.8874
 -22826418.269 9 -17760151.44048  21496308.454    21496308.3654   21496316.6954
 00  7 15  0 46  0.0000000  0 10  1 21 22 30 25 29 20 16 15 11       -.000000006
  -9917134.546 9  -7715357.11146  23500799.169    23500799.0154   23500809.8924
  -8989395.025 8  -6988697.81545  23972156.786    23972156.5214   23972171.5824
 -14024055.534 9  -8703351.71646  23322377.901    23322377.4144   23322390.6084
  -5275878.934 8  -2257953.09745  24772294.228    24772294.8084   24772305.7374
 -26160161.452 9 -20370151.29549  20863589.951    20863590.1074   20863597.6504
  -3926164.404 8  -2757775.38945  24233492.068    24233492.0624   24233503.6334
 -14957035.485 9 -11643716.35047  21881230.687    21881230.3394   21881238.5664
  -5989438.214 9  -4644688.98546  24582991.088    24582990.7204   24583002.4124
  -3296091.436 8  -2548822.06545  24350056.362    24350055.6674   24350071.4074
 -22778511.848 9 -17722821.81548  21505424.780    21505424.6944   21505433.0224
 00  7 15  0 46 30.0000000  0 10  1 21 22 30 25 29 20 16 15 11       -.000000007
  -9979159.830 9  -7763688.41946  23488996.144    23488996.0174   23489006.7824
  -8896004.450 8  -6915926.25245  23989928.474    23989928.1094   23989943.4314
 -14121075.420 9  -8778951.41646  23303915.415    23303914.8964   23303928.1234
  -5232702.363 8  -2224309.06245  24780510.411    24780511.0104   24780522.1554
 -26120552.342 9 -20339287.05849  20871127.321    20871127.4594   20871135.0324
  -3857292.287 8  -2704108.86945  24246598.048    24246598.1984   24246609.8194
 -15035226.649 9 -11704644.48748  21866351.354    21866350.9804   21866359.2234
  -6086054.009 9  -4719973.91745  24564605.638    24564605.1384   24564616.8754
  -3181587.808 8  -2459598.71145  24371846.033    24371845.4124   24371860.7464
 -22730139.762 9 -17685129.32748  21514629.707    21514629.6024   21514637.9584
 00  7 15  0 47  0.0000000  0 10  1 21 22 30 25 29 20 16 15 11       -.000000007
 -10041080.388 9  -7811938.09246  23477213.005    23477212.8344   23477223.5774
  -8802372.342 8  -6842966.47945  24007746.376    24007745.9934   24007760.9814
 -14218002.207 9  -8854478.57346  23285470.681    23285470.1054   23285483.4074
  -5189037.099 8  -2190284.23445  24788819.477    24788820.1464   24788831.4094
 -26080532.865 9 -20308103.05849  20878742.769    20878742.9274   20878750.4794
  -3788418.864 8  -2650441.36445  24259704.400    24259704.4664   24259715.8874
 -15113214.115 9 -11765413.89448  21851510.777    21851510.4244   21851518.6614
  -6182686.827 9  -4795272.11845  24546216.926    24546216.3684   24546228.0424
  -3067122.352 8  -2370405.12045  24393628.314    24393627.6524   24393642.9574
 -22681303.438 9 -17647075.09648  21523922.991    21523922.8984   21523931.2554
 00  7 15  0 47 30.0000000  0 10  1 21 22 30 25 29 20 16 15 11       -.000000008
 -10102897.103 9  -7860106.85346  23465449.582    23465449.4384   23465460.1344
  -8708500.559 8  -6769819.90845  24025609.732    24025609.1864   24025624.6984
 -14314833.000 9  -8929930.93946  23267044.279    23267043.6824   23267056.8744
  -5144884.533 8  -2155879.65745  24797221.578    24797222.1904   24797233.2124
 -26040105.324 9 -20276601.08349  20886435.897    20886436.0414   20886443.6254
  -3719544.484 8  -2596773.09845  24272810.821    24272810.9224   24272822.4854
 -15190996.058 9 -11826023.16948  21836709.342    21836708.9814   21836717.1944
  -6279335.303 9  -4870582.53245  24527825.225    24527824.7604   24527836.3674
  -2952698.087 8  -2281243.67945  24415402.738    24415402.2384   24415417.7204
 -22632005.535 9 -17608661.20148  21533304.125    21533304.0244   21533312.3744
 00  7 15  0 48  0.0000000  0 10  1 21 22 30 25 29 20 16 15 11       -.000000008
 -10164609.807 9  -7908194.56646  23453705.949    23453705.7874   23453716.4704
  -8614390.013 8  -6696487.32945  24043518.683    24043518.2374   24043533.5054
 -14411564.679 9  -9005306.06846  23248636.686    23248636.0654   23248649.2484
  -5100245.502 8  -2121096.03045  24805716.226    24805716.8204   24805727.9194
 -25999271.436 9 -20244782.47149  20894206.322    20894206.4624   20894214.0394
  -3650668.757 8  -2543103.77645  24285917.518    24285917.5004   24285928.9454
 -15268570.216 9 -11886470.52748  21821947.430    21821947.0804   21821955.2874
  -6375997.854 8  -4945903.92745  24509430.858    24509430.3554   24509441.9094
  -2838317.575 8  -2192116.34645  24437168.916    24437168.3904   24437183.8964
 -22582248.359 9 -17569889.42648  21542772.637    21542772.5394   21542780.8944
 00  7 15  0 48 30.0000000  0 10  1 21 22 30 25 29 20 16 15 11       -.000000008
 -10226218.876 9  -7956201.52646  23441982.075    23441981.8744   23441992.5324
  -8520042.417 8  -6622969.99545  24061472.701    24061472.4384   24061487.5764
 -14508194.346 9  -9080601.71446  23230248.483    23230247.8854   23230261.0204
  -5055121.143 8  -2085934.21845  24814303.165    24814303.6554   24814314.8804
 -25958033.021 9 -20212648.64649  20902053.742    20902053.8894   20902061.4694
  -3581791.544 8  -2489433.29045  24299024.471    24299024.4154   24299036.1024
 -15345934.334 9 -11946754.21848  21807225.473    21807225.1324   21807233.3344
  -6472672.890 8  -5021235.07345  24491034.113    24491033.7094   24491044.8934
  -2723983.542 8  -2103025.18845  24458926.200    24458925.6884   24458941.2844
 -22532033.920 9 -17530761.34348  21552328.147    21552328.0444   21552336.4134
 00  7 15  0 49  0.0000000  0 10  1 21 22 30 25 29 20 16 15 11       -.000000008
 -10287725.095 9  -8004128.32846  23430277.700    23430277.5564   23430288.1074
  -8425459.086 8  -6549269.01345  24079471.592    24079471.2984   24079486.3784
 -14604718.805 9  -9155815.38246  23211880.310    23211879.7004   23211892.8684
  -5009513.110 8  -2050395.50945  24822982.135    24822982.6574   24822993.9844
 -25916392.264 9 -20180201.30649  20909977.709    20909977.8544   20909985.4134
  -3512913.454 9  -2435762.12445  24312131.637    24312131.7214   24312143.2394
 -15423086.694 9 -12006872.91148  21792543.895    21792543.5564   21792551.7124
  -6569359.434 8  -5096575.16145  24472635.124    24472634.9174   24472645.9934
  -2609699.117 8  -2013972.69745  24480674.044    24480673.5624   24480689.3474
 -22481364.985 9 -17491279.10648  21561970.192    21561970.0894   21561978.4464
 00  7 15  0 49 30.0000000  0 10  1 21 22 30 25 29 20 16 15 11       -.000000008
 -10349128.625 9  -8051975.11146  23418592.963    23418592.7564   23418603.3054
  -8330641.641 8  -6475385.60245  24097514.978    24097514.7374   24097529.9084
 -14701134.499 9  -9230944.31246  23193532.823    23193532.2724   23193545.3634
  -4963422.610 8  -2014480.83445  24831753.012    24831753.4054   24831764.7844
 -25874350.747 9 -20147441.68649  20917977.950    20917978.0954   20917985.6414
  -3444034.121 9  -2382090.01045  24325239.040    24325239.1484   24325250.6664
 -15500024.949 9 -12066824.76748  21777903.034    21777902.6724   21777910.7764
  -6666056.124 8  -5171923.16045  24454234.239    24454233.8374   24454245.1304
  -2495466.822 8  -1924960.84245  24502411.856    24502411.6534   24502427.4774
 -22430243.705 9 -17451444.38848  21571698.276    21571698.1844   21571706.5524
 00  7 15  0 50  0.0000000  0 10  1 21 22 30 25 29 20 16 15 11       -.000000008
 -10410429.684 9  -8099742.05446  23406927.665    23406927.4914   23406938.0004
  -8235590.652 9  -6401320.20045  24115602.802    24115602.6654   24115617.9494
 -14797437.909 9  -9305985.75446  23175206.845    23175206.2494   23175219.2264
  -4916850.452 8  -1978190.93845  24840615.210    24840615.5994   24840627.1824
 -25831910.611 9 -20114371.45549  20926054.046    20926054.2044   20926061.7514
  -3375153.078 9  -2328416.55545  24338346.739    24338346.8934   24338358.2704
 -15576746.612 9 -12126607.85048  21763303.352    21763302.9994   21763311.0884
  -6762761.032 8  -5247277.54345  24435831.792    24435831.3564   24435842.8354
  -2381289.208 8  -1835991.60045  24524139.343    24524139.0814   24524155.0514
 -22378672.085 9 -17411258.76248  21581512.061    21581511.9604   21581520.3544
 00  7 15  0 50 30.0000000  0 10  1 21 22 30 25 29 20 16 15 11       -.000000008
 -10471628.941 9  -8147429.66946  23395281.728    23395281.5544   23395292.0454
  -8140308.179 9  -6327074.40745  24133734.741    24133734.5834   24133749.8684
 -14893626.528 9  -9380937.74346  23156902.626    23156902.0014   23156914.9554
  -4869798.327 8  -1941526.94345  24849568.819    24849569.3204   24849580.6354
 -25789073.522 9 -20080991.91449  20934205.677    20934205.8214   20934213.3854
  -3306270.826 9  -2274742.16945  24351454.800    24351454.7584   24351466.3314
 -15653249.727 9 -12186220.64248  21748745.270    21748744.9274   21748753.0204
  -6859472.876 8  -5322637.34145  24417428.061    24417427.5664   24417438.8714
  -2267169.075 8  -1747067.15445  24545855.948    24545855.6674   24545871.7014
 -22326652.953 9 -17370724.42248  21591411.037    21591410.9474   21591419.3514
 00  7 15  0 51  0.0000000  0  9  1 21 22 25 29 20 16 15 11          -.000000008
 -10532726.948 9  -8195038.38946  23383655.093    23383654.8734   23383665.4384
  -8044795.662 9  -6252649.38145  24151910.413    24151910.2704   24151925.6894
 -14989697.597 9  -9455798.14846  23138620.780    23138620.2174   23138633.0814
 -25745841.992 9 -20047305.01549  20942432.350    20942432.4964   20942440.0764
  -3237387.182 9  -2221066.69545  24364563.047    24364562.9244   24364574.6294
 -15729532.342 9 -12245661.60448  21734229.130    21734228.7864   21734236.8734
  -6956190.385 8  -5398001.55645  24399023.209    24399022.8384   24399034.1414
  -2153109.204 8  -1658189.70545  24567561.059    24567560.8714   24567577.0204
 -22274188.869 9 -17329843.36548  21601394.640    21601394.5554   21601402.9444
 00  7 15  0 51 30.0000000  0  9  1 21 22 25 29 20 16 15 11          -.000000008
 -10593723.227 9  -8242567.84146  23372047.770    23372047.5384   23372058.1114
  -7949053.823 9  -6178045.67445  24170129.760    24170129.5274   24170145.2174
 -15085646.664 9  -9530563.49046  23120362.163    23120361.6274   23120374.4014
 -25702217.271 9 -20013311.73549  20950733.844    20950733.9994   20950741.5894
  -3168501.677 9  -2167389.77345  24377671.603    24377671.4894   24377683.2594
 -15805591.802 9 -12304928.68648  21719755.489    21719755.1264   21719763.2274
  -7052911.691 8  -5473368.70945  24380617.654    24380617.2894   24380628.6804
  -2039111.552 8  -1569360.71045  24589254.333    24589254.0934   24589270.4444
 -22221281.565 9 -17288616.94948  21611462.600    21611462.4864   21611470.9014
 00  7 15  0 52  0.0000000  0  9  1 21 22 25 29 20 16 15 11          -.000000015
 -10654616.865 9  -8290017.30146  23360459.994    23360459.8404   23360470.3264
  -7853082.753 8  -6103263.34645  24188392.679    24188392.4944   24188408.3134
 -15181469.122 9  -9605230.17046  23102127.651    23102127.1004   23102139.8114
 -25658199.986 9 -19979012.56049  20959110.066    20959110.2204   20959117.8074
  -3099612.746 9  -2113710.17345  24390780.850    24390780.7734   24390792.5044
 -15881424.395 9 -12364018.97948  21705324.985    21705324.6274   21705332.7334
  -7149633.774 8  -5548736.47845  24362212.012    24362211.7034   24362223.0584
  -1925177.597 8  -1480581.36045  24610935.424    24610935.1644   24610951.7874
 -22167932.169 9 -17247046.04148  21621614.650    21621614.5584   21621622.9854
 00  7 15  0 52 30.0000000  0  9  1 21 22 25 29 20 16 15 11          -.000000014
 -10715410.354 9  -8337388.74046  23348891.251    23348891.1294   23348901.5794
  -7756885.706 8  -6028304.95345  24206698.578    24206698.3114   24206714.4204
 -15277163.724 9  -9679797.23146  23083917.440    23083916.8874   23083929.5424
 -25613793.804 9 -19944410.34849  20967560.282    20967560.4304   20967568.0194
  -3030722.507 8  -2060029.54545  24403890.385    24403890.3484   24403901.9994
 -15957029.965 9 -12422932.37148  21690937.704    21690937.3474   21690945.4264
  -7246357.088 8  -5624105.20345  24343806.091    24343805.6844   24343817.0734
  -1811311.976 8  -1391855.26945  24632603.562    24632603.3234   24632619.8844
 -22114144.924 9 -17205133.95848  21631850.052    21631849.9824   21631858.4224
 00  7 15  0 53  0.0000000  0  9  1 21 22 25 29 20 16 15 11          -.000000014
 -10776103.508 9  -8384681.99246  23337341.654    23337341.5144   23337351.9444
  -7660464.099 8  -5953171.56345  24225047.197    24225047.0384   24225063.1234
 -15372727.354 9  -9754262.24346  23065732.183    23065731.6464   23065744.1484
 -25569000.319 9 -19909506.34349  20976084.197    20976084.3594   20976091.9154
  -2961830.174 8  -2006347.32245  24417000.230    24417000.0234   24417011.8684
 -16032405.578 9 -12481666.57948  21676594.193    21676593.8264   21676601.8864
  -7343079.676 9  -5699473.38445  24325400.367    24325400.0264   24325411.4004
  -1697516.753 8  -1303184.03845  24654258.242    24654257.5634   24654274.6684
 -22059921.905 9 -17162882.30648  21642168.380    21642168.3084   21642176.7584
 00  7 15  0 53 30.0000000  0  9  1 21 22 25 29 20 16 15 11          -.000000014
 -10836696.328 9  -8431897.04846  23325811.107    23325810.9674   23325821.4164
  -7563818.702 8  -5877863.80045  24243438.408    24243438.3174   24243454.3314
 -15468156.301 9  -9828622.29546  23047572.551    23047572.0084   23047584.4764
 -25523821.401 9 -19874301.99749  20984681.456    20984681.6274   20984689.2034
  -2892935.398 8  -1952663.17145  24430110.551    24430110.3764   24430122.1624
 -16107548.987 9 -12540219.85248  21662294.825    21662294.4564   21662302.5064
  -7439799.564 9  -5774839.45545  24306995.207    24306994.8084   24307006.2494
  -1583794.350 8  -1214569.58545  24675899.197    24675898.5204   24675915.8334
 -22005265.236 9 -17120292.74648  21652569.259    21652569.1884   21652577.6674
 00  7 15  0 54  0.0000000  0  9  1 21 22 25 29 20 16 15 11          -.000000013
 -10897189.431 9  -8479034.42046  23314299.561    23314299.3974   23314309.8174
  -7466951.458 8  -5802383.16145  24261871.890    24261871.8154   24261888.0164
 -15563447.260 9  -9902874.82746  23029439.153    23029438.5724   23029450.9454
 -25478259.051 9 -19838798.87449  20993351.680    20993351.8454   20993359.4354
  -2824038.259 8  -1898977.17245  24443221.263    24443221.1204   24443232.9234
 -16182458.091 9 -12598590.55348  21648040.055    21648039.6944   21648047.7444
  -7536515.719 9  -5850202.62346  24288590.814    24288590.4094   24288601.8074
  -1470147.686 8  -1126014.15045  24697525.569    24697525.1204   24697542.5934
 -21950177.534 9 -17077367.31548  21663052.142    21663052.0714   21663060.5114
 00  7 15  0 54 30.0000000  0  9  1 21 22 25 29 20 16 15 11          -.000000024
 -10957582.679 9  -8526093.98446  23302807.034    23302806.8634   23302817.2744
  -7369863.021 8  -5726730.21345  24280347.341    24280347.2844   24280363.5224
 -15658596.276 9  -9977016.76646  23011332.797    23011332.1774   23011344.5244
 -25432315.051 9 -19802998.36049  21002094.513    21002094.6724   21002102.2984
  -2755138.490 8  -1845289.13645  24456332.527    24456332.5934   24456344.1744
 -16257130.171 9 -12656776.56548  21633830.403    21633830.0414   21633838.0464
  -7633226.169 9  -5925561.34546  24270187.444    24270186.9794   24270198.3334
  -1356579.013 8  -1037519.46745  24719137.154    24719136.9164   24719154.2534
 -21894660.960 9 -17034107.69748  21673616.599    21673616.5274   21673624.9924
 00  7 15  0 55  0.0000000  0  9  1 21 22 25 29 20 16 15 11          -.000000024
 -11017876.088 9  -8573075.76146  23291333.508    23291333.3064   23291343.7594
  -7272554.827 8  -5650906.03845  24298864.580    24298864.5274   24298880.9954
 -15753600.000 9 -10051045.47946  22993254.003    22993253.4124   22993265.8394
 -25385990.667 9 -19766901.44849  21010909.766    21010909.9404   21010917.5254
  -2686235.417 8  -1791598.51245  24469444.390    24469444.3074   24469456.1034
 -16331562.730 9 -12714775.93148  21619666.306    21619665.9474   21619673.9884
  -7729928.776 9  -6000913.94046  24251785.546    24251785.0394   24251796.4104
  -1243090.555 8   -949087.27745  24740733.520    24740733.1484   24740750.7114
 -21838717.513 9 -16990515.45148  21684262.334    21684262.2584   21684270.7214
 00  7 15  0 55 30.0000000  0  9  1 21 22 25 29 20 16 15 11          -.000000024
 -11078070.334 9  -8619980.27046  23279878.832    23279878.6754   23279889.0474
  -7175028.213 8  -5574911.66245  24317423.402    24317423.2574   24317440.0924
 -15848455.927 9 -10124959.02846  22975203.373    22975202.8284   22975215.2034
 -25339288.528 9 -19730510.17949  21019796.931    21019797.0874   21019804.6834
  -2617329.311 8  -1737905.52545  24482556.762    24482556.7284   24482568.6014
 -16405753.763 9 -12772587.09148  21605548.188    21605547.8404   21605555.8794
  -7826622.397 9  -6076259.52346  24233385.314    24233384.8764   24233396.1724
  -1129684.947 8   -860719.64245  24762314.202    24762313.6164   24762331.3354
 -21782350.258 9 -16946592.96448  21694988.704    21694988.6224   21694997.0614
 00  7 15  0 56  0.0000000  0  9  1 21 22 25 29 20 16 15 11          -.000000024
 -11138165.483 9  -8666807.56146  23268443.050    23268442.8224   23268453.2384
  -7077284.901 8  -5498748.39845  24336023.627    24336023.2614   24336040.3364
 -15943160.524 9 -10198754.65646  22957181.558    22957181.0354   22957193.2914
 -25292210.484 9 -19693825.99948  21028755.604    21028755.7654   21028763.3404
  -2548419.812 8  -1684209.88545  24495669.861    24495669.9214   24495681.7344
 -16479701.002 9 -12830208.28848  21591476.462    21591476.1224   21591484.1524
  -7923305.346 9  -6151596.79046  24214987.079    24214986.6544   24214997.8454
  -1016364.824 8   -772418.64545  24783878.633    24783878.1674   24783895.9194
 -21725561.403 9 -16902341.95948  21705795.322    21705795.2504   21705803.6874
 00  7 15  0 56 30.0000000  0  9  1 21 22 25 29 20 16 15 11          -.000000024
 -11198162.083 9  -8713558.05946  23257025.957    23257025.7564   23257036.1624
  -6979326.391 8  -5422417.39845  24354664.789    24354664.6364   24354681.2344
 -16037710.064 9 -10272429.47346  22939189.295    22939188.7604   22939200.9714
 -25244758.402 9 -19656850.35748  21037785.431    21037785.5944   21037793.1574
  -2479506.854 8  -1630511.57345  24508783.435    24508783.5324   24508795.5294
 -16553402.131 9 -12887637.71248  21577451.569    21577451.2414   21577459.2784
  -8019975.822 9  -6226924.35646  24196591.271    24196590.7594   24196602.0864
   -903132.814 8   -684186.27745  24805426.318    24805425.7314   24805443.6974
 -21668353.405 9 -16857764.35248  21716681.691    21716681.6144   21716690.0694
 00  7 15  0 57  0.0000000  0  9  1 21 22 25 29 20 16 15 11          -.000000023
 -11258060.735 9  -8760232.23946  23245627.504    23245627.3684   23245637.7254
  -6881154.484 8  -5345920.13545  24373346.534    24373346.4824   24373363.0964
 -16132101.562 9 -10345981.12746  22921227.046    22921226.4964   22921238.7364
 -25196934.617 9 -19619585.08248  21046885.996    21046886.1544   21046893.7434
  -2410590.474 8  -1576810.60345  24521897.896    24521897.8444   24521909.5774
 -16626855.173 9 -12944873.80948  21563473.914    21563473.5884   21563481.6234
  -8116632.667 8  -6302241.28645  24178197.957    24178197.5224   24178208.7094
   -789991.549 8   -596024.60345  24826956.668    24826956.0964   24826973.9794
 -21610729.280 9 -16812862.49448  21727647.231    21727647.1534   21727655.6294
 00  7 15  0 57 30.0000000  0  9  1 21 22 25 29 20 16 15 11          -.000000023
 -11317861.333 9  -8806830.00246  23234247.738    23234247.5754   23234257.8754
  -6782770.292 8  -5269257.44545  24392068.656    24392068.6634   24392084.9444
 -16226331.416 9 -10419406.83346  22903295.556    22903294.9794   22903307.2754
 -25148740.835 9 -19582031.49748  21056056.970    21056057.1254   21056064.7104
  -2341670.226 8  -1523106.63145  24535013.015    24535012.8544   24535024.9874
 -16700057.348 9 -13001914.43648  21549543.971    21549543.6124   21549551.6444
  -8213273.918 8  -6377546.06245  24159807.647    24159807.1644   24159818.4384
   -676943.255 8   -507935.36345  24848469.357    24848469.0924   24848486.4484
 -21552691.103 9 -16767637.99547  21738691.576    21738691.4974   21738699.9864
 00  7 15  0 58  0.0000000  0 10  1 21 22 25 29 20 16 15 30 11       -.000000029
 -11377563.974 9  -8853351.45746  23222886.658    23222886.5304   23222896.7864
  -6684174.832 8  -5192430.15745  24410831.033    24410831.0034   24410847.2814
 -16320396.669 9 -10492704.27746  22885395.380    22885394.8414   22885407.0784
 -25100178.653 9 -19544190.84348  21065298.056    21065298.2274   21065305.8064
  -2272745.967 8  -1469399.51145  24548128.815    24548128.8834   24548140.9244
 -16773006.223 9 -13058757.67848  21535662.264    21535661.9024   21535669.9084
  -8309897.434 8  -6452837.03145  24141420.744    24141420.3134   24141431.5364
   -563990.171 8   -419920.32445  24869963.932    24869963.6024   24869981.1784
  -1289014.140 9  -1014695.49742          .000            .0004           .0004
 -21494241.237 9 -16722092.70547  21749814.257    21749814.1674   21749822.6814
 00  7 15  0 58 30.0000000  0 10  1 21 22 25 29 20 16 15 30 11       -.000000029
 -11437168.801 9  -8899796.70946  23211544.202    23211544.0134   23211554.2414
  -6585369.584 8  -5115439.37245  24429633.413    24429633.3354   24429649.3524
 -16414293.541 9 -10565870.52546  22867527.278    22867526.7514   22867538.9624
 -25051249.771 9 -19506064.45448  21074608.960    21074609.1224   21074616.7114
  -2203817.138 8  -1415688.81745  24561245.461    24561245.6934   24561257.9784
 -16845699.347 9 -13115401.64248  21521829.181    21521828.8384   21521836.8474
  -8406501.759 8  -6528113.05245  24123037.432    24123036.9794   24123048.3254
   -451134.688 8   -331981.35445  24891439.883    24891439.5754   24891457.3634
  -1234456.459 8   -972183.60352          .000            .0004           .0005
 -21435382.107 9 -16676228.52147  21761014.805    21761014.7334   21761023.2624
 00  7 15  0 59  0.0000000  0 10  1 21 22 25 29 20 16 15 30 11       -.000000029
 -11496676.619 9  -8946166.36146  23200220.130    23200219.9724   23200230.1804
  -6486356.387 8  -5038286.54545  24448475.271    24448475.2224   24448491.4144
 -16508018.873 9 -10638903.10046  22849691.869    22849691.3284   22849703.4534
 -25001956.848 9 -19467654.39348  21083989.075    21083989.2484   21083996.8404
  -2134884.026 8  -1361974.79645  24574363.054    24574363.1134   24574375.5804
 -16918134.891 9 -13171844.89048  21508045.138    21508044.7904   21508052.7964
  -8503085.415 8  -6603372.99145  24104658.055    24104657.5834   24104668.8844
   -338379.996 8   -244120.94145  24912896.767    24912896.1704   24912914.3704
  -1179441.864 9   -929315.03252          .000            .0004           .0005
 -21376116.710 9 -16630047.75647  21772292.710    21772292.6364   21772301.1784
 00  7 15  0 59 30.0000000  0 11  1 21 22 19 25 29 20 16 15 30 11    -.000000028
 -11556087.667 9  -8992460.60346  23188914.531    23188914.3494   23188924.5804
  -6387136.865 8  -4960972.95045  24467356.447    24467356.3714   24467372.9014
 -16601569.288 9 -10711799.38146  22831889.730    22831889.1624   22831901.2744
  -1546196.861 8  -1177468.27552          .000            .0004           .0005
 -24952301.960 9 -19428962.28048  21093438.086    21093438.2374   21093445.8454
  -2065946.629 8  -1308257.46245  24587481.614    24587481.5894   24587493.9414
 -16990310.579 9 -13228085.65048  21494310.533    21494310.1994   21494318.1824
  -8599647.078 8  -6678615.78645  24086282.967    24086282.4734   24086293.5294
   -225728.810 8   -156341.18045  24934333.894    24934333.4094   24934351.5044
  -1123972.21419   -886091.97545          .000            .0005   25026095.0704
 -21316447.668 9 -16583552.46747  21783647.403    21783647.3454   21783655.9104
 00  7 15  1  0  0.0000000  0 10  1 21 22 25 29 20 16 15 30 11       -.000000028
 -11615402.175 9  -9038679.62246  23177627.248    23177627.1234   23177637.3704
  -6287712.146 8  -4883499.48745  24486276.636    24486276.3044   24486293.1524
 -16694941.738 9 -10784556.98446  22814121.391    22814120.8534   22814132.9384
 -24902286.957 9 -19389989.56248  21102955.619    21102955.7784   21102963.4014
  -1997004.465 8  -1254536.39045  24600601.122    24600601.2774   24600613.1264
 -17062224.151 9 -13284122.16548  21480625.842    21480625.5024   21480633.4674
  -8696184.640 8  -6753839.77245  24067912.365    24067911.9024   24067923.1384
   -113183.181 8    -68643.69445  24955750.848    24955750.5434   24955768.4394
  -1068048.661 9   -842515.18945  25036724.790    25036724.9364   25036735.4464
 -21256377.336 9 -16536744.48247  21795078.439    21795078.3614   21795086.9864
 00  7 15  1  0 30.0000000  0 11  1 21 22 19 25 29 20 16 15 30 11    -.000000028
 -11674620.029 9  -9084823.32546  23166358.446    23166358.2644   23166368.4844
  -6188083.727 8  -4805867.26645  24505235.541    24505235.2784   24505252.4884
 -16788132.753 9 -10857173.22246  22796387.602    22796387.0704   22796399.0854
  -1744371.491 8  -1070856.52642          .000            .0004           .0004
 -24851913.593 9 -19350737.60648  21112541.346    21112541.5124   21112549.1354
  -1928057.165 8  -1200811.30845  24613721.418    24613721.5464   24613733.3574
 -17133872.725 9 -13339952.18548  21466991.560    21466991.2114   21466999.1494
  -8792696.225 8  -6829043.55045  24049546.691    24049546.2164   24049557.5014
      -745.391 8     18969.76445  24977147.315    24977146.9414   24977165.0744
  -1011672.531 9   -798585.74745  25047452.346    25047453.0694   25047464.6024
 -21195907.962 9 -16489625.56047  21806585.408    21806585.3454   21806593.9764
 00  7 15  1  1  0.0000000  0 11  1 21 22 19 25 29 20 16 15 30 11    -.000000028
 -11733741.932 9  -9130892.27046  23155107.863    23155107.6534   23155117.8874
  -6088253.595 8  -4728077.82645  24524232.819    24524232.4754   24524249.7274
 -16881139.186 9 -10929645.61346  22778688.944    22778688.4424   22778700.4324
  -1843328.511 8  -1147962.89652          .000            .0004           .0005
 -24801184.012 9 -19311208.07448  21122194.875    21122195.0394   21122202.6494
  -1859105.039 8  -1147082.45845  24626842.584    24626842.6014   24626854.7374
 -17205254.401 9 -13395574.23248  21453408.040    21453407.6954   21453415.6514
  -8889180.348 8  -6904225.92245  24031186.370    24031186.0264   24031197.1794
    111581.739 8    106496.95145  24998522.736    24998522.6134   24998540.9224
   -954845.840 9   -754305.25045  25058266.112    25058266.4634   25058278.1604
 -21135042.595 9 -16442198.06947  21818167.721    21818167.6474   21818176.3094
 00  7 15  1  1 30.0000000  0 10  1 21 22 25 29 20 16 15 30 11       -.000000027
 -11792767.995 9  -9176886.52046  23143875.491    23143875.2994   23143885.5244
  -5988223.070 8  -4650132.26945  24543268.307    24543267.9794   24543284.9584
 -16973957.266 9 -11001971.25046  22761026.173    22761025.6804   22761037.6274
 -24750100.359 9 -19271402.64248  21131915.808    21131915.9794   21131923.5804
  -1790147.505 8  -1093349.43145  24639964.811    24639965.0074   24639976.6314
 -17276366.835 9 -13450986.48348  21439875.742    21439875.3934   21439883.3504
  -8985635.051 9  -6979385.36645  24012831.581    24012831.2534   24012842.2974
    223795.780 7    193936.04745  25019876.682    25019876.4494   25019894.6794
   -897570.140 8   -709674.83845  25069165.253    25069165.5104   25069177.0204
 -21073783.881 9 -16394464.08047  21829824.937    21829824.8374   21829833.5434
 00  7 15  1  2  0.0000000  0 10  1 21 22 25 29 20 16 15 30 11       -.000000027
 -11851698.731 9  -9222806.49346  23132661.267    23132661.1024   23132671.3024
  -5887994.264 8  -4572032.19245  24562341.469    24562341.0954   24562358.3804
 -17066583.788 9 -11074147.60646  22743399.832    22743399.3034   22743411.2674
 -24698664.737 9 -19231322.95148  21141703.672    21141703.8334   21141711.4514
  -1721184.629 8  -1039612.20445  24653088.184    24653088.1414   24653100.0284
 -17347207.701 9 -13506187.12248  21426395.153    21426394.8164   21426402.7554
  -9082059.010 9  -7054520.84745  23994482.598    23994482.2464   23994493.3424
    335894.477 7    281285.24544  25041208.541    25041208.5524   25041226.7154
   -839847.270 8   -664695.92945  25080149.253    25080149.3734   25080161.2604
 -21012134.496 9 -16346425.66347  21841556.505    21841556.4254   21841565.0874
 00  7 15  1  2 30.0000000  0 10  1 21 22 25 29 20 16 15 30 11       -.000000026
 -11910534.459 9  -9268652.44646  23121465.175    23121465.0034   23121475.1054
  -5787567.924 8  -4493778.21045  24581452.241    24581451.9944   24581469.3744
 -17159015.692 9 -11146172.31846  22725810.540    22725809.9994   22725821.8994
 -24646879.056 9 -19190970.48648  21151558.184    21151558.3414   21151565.9614
  -1652216.218 8   -985870.66045  24666212.634    24666212.4264   24666224.0284
 -17417774.983 9 -13561174.58348  21412966.603    21412966.2524   21412974.1864
  -9178450.431 9  -7129630.99145  23976139.926    23976139.6344   23976150.4894
    447874.525 8    368541.98145  25062518.077    25062517.9194   25062535.9204
   -781678.813 8   -619369.86845  25091218.312    25091218.6314   25091230.7794
 -20950097.126 9 -16298084.93247  21853361.883    21853361.7824   21853370.4454
 00  7 15  1  3  0.0000000  0 10  1 21 22 25 29 20 16 15 30 11       -.000000026
 -11969275.418 9  -9314424.55646  23110287.099    23110286.9024   23110296.9964
  -5686945.419 8  -4415371.34545  24600600.375    24600600.0094   24600617.5114
 -17251249.953 9 -11218043.01046  22708258.824    22708258.2714   22708270.1264
 -24594745.051 9 -19150346.59648  21161478.961    21161479.1134   21161486.7534
  -1583241.914 8   -932124.51045  24679338.043    24679338.2104   24679349.4234
 -17488066.001 9 -13615946.77048  21399590.650    21399590.2824   21399598.2354
  -9274807.260 9  -7204714.17445  23957803.793    23957803.4284   23957814.3714
    559734.179 8    455704.94245  25083804.565    25083804.5834   25083822.3664
   -723066.172 8   -573697.77045  25102372.137    25102372.3004   25102384.6544
 -20887674.297 9 -16249443.83247  21865240.588    21865240.4894   21865249.2254
 00  7 15  1  3 30.0000000  0 10  1 21 22 25 29 20 16 15 30 11       -.000000025
 -12027921.706 9  -9360122.89446  23099127.032    23099126.8184   23099136.9264
  -5586128.849 8  -4336813.27645  24619785.394    24619785.0174   24619802.6354
 -17343282.688 9 -11289756.67846  22690745.494    22690744.9744   22690756.7254
 -24542264.948 9 -19109453.02748  21171465.580    21171465.7294   21171473.3734
  -1514261.640 8   -878373.68445  24692464.650    24692464.7724   24692476.0284
 -17558078.170 9 -13670501.67948  21386267.787    21386267.4354   21386275.3534
  -9371127.727 9  -7279769.02045  23939474.608    23939474.1974   23939484.9864
    671471.277 8    542772.41445  25105067.800    25105067.7034   25105085.8624
   -664011.019 8   -527680.72154  25113609.821    25113609.9124           .0005
 -20824868.592 9 -16200504.39647  21877192.162    21877192.0754   21877200.8314
 00  7 15  1  4  0.0000000  0 10  1 21 22 25 29 20 16 15 30 11       -.000000025
 -12086473.439 9  -9405747.55246  23087984.984    23087984.7514   23087994.7884
  -5485118.850 7  -4258104.54745  24639007.096    24639006.3504   24639024.5734
 -17435110.164 9 -11361310.40946  22673271.200    22673270.6514   22673282.3204
 -24489440.955 9 -19068291.48848  21181517.653    21181517.8204   21181525.4584
  -1445274.741 8   -824617.73145  24705592.624    24705592.4944   24705604.2914
 -17627809.122 9 -13724837.45348  21372998.406    21372998.0614   21373005.9364
  -9467410.095 9  -7354794.17846  23921152.699    23921152.3014   23921162.8904
    783083.399 8    629742.51745  25126307.237    25126307.1094   25126325.5404
   -604514.806 8   -481319.90754  25124931.583    25124931.9114           .0005
 -20761682.422 9 -16151268.49347  21889216.135    21889216.0614   21889224.8334
 00  7 15  1  4 30.0000000  0 10  1 21 22 25 29 20 16 15 30 11       -.000000024
 -12144931.342 9  -9451299.08946  23076860.773    23076860.5424   23076870.5374
  -5383917.746 7  -4179246.88145  24658265.249    24658264.4794   24658282.7474
 -17526729.429 9 -11432701.89446  22655836.484    22655835.9514   22655847.6214
 -24436275.189 9 -19026863.63548  21191634.781    21191634.9564   21191642.5934
  -1376281.448 8   -770856.79645  24718721.702    24718721.6354   24718733.3694
 -17697257.045 9 -13778952.69248  21359782.879    21359782.5204   21359790.4004
  -9563652.409 9  -7429788.12346  23902838.394    23902837.9204   23902848.4964
    894567.397 8    716612.75745  25147522.253    25147522.1524   25147540.6454
   -544580.063 8   -434617.61744  25136337.080    25136336.5874   25136349.0964
 -20698118.886 9 -16101738.53947  21901311.927    21901311.8674   21901320.6354
 00  7 15  1  5  0.0000000  0 10  1 21 22 25 29 20 16 15 30 11       -.000000024
 -12203295.312 9  -9496777.43546  23065754.456    23065754.2704   23065764.1614
  -5282527.248 8  -4100241.58645  24677559.341    24677558.8194   24677577.1154
 -17618137.321 9 -11503928.67546  22638442.023    22638441.4934   22638453.0954
 -24382769.284 9 -18985170.73848  21201816.640    21201816.8184   21201824.4234
  -1307281.223 8   -717090.45345  24731851.915    24731852.0254   24731863.9404
 -17766419.199 9 -13832845.25348  21346621.720    21346621.3724   21346629.2344
  -9659853.378 9  -7504749.85346  23884531.968    23884531.4634   23884542.1194
   1005921.283 8    803381.62345  25168712.500    25168712.2834   25168730.9434
   -484207.940 8   -387574.42744  25147825.457    25147824.8444   25147837.5434
 -20634180.472 9 -16051916.46347  21913479.074    21913478.9744   21913487.7684
 00  7 15  1  5 30.0000000  0 10  1 21 22 25 29 20 16 15 30 11       -.000000024
 -12261565.615 9  -9542182.79746  23054665.903    23054665.6874   23054675.6364
  -5180948.537 8  -4021089.64945  24696889.301    24696888.7694   24696907.2874
 -17709330.424 9 -11574988.09246  22621088.413    22621087.8574   22621099.5224
 -24328925.376 9 -18943214.46248  21212062.792    21212062.9744   21212070.5704
  -1238273.881 8   -663318.57445  24744983.600    24744983.6744   24744995.7074
 -17835293.120 9 -13886513.22448  21333515.423    21333515.0754   21333522.9404
  -9756010.479 9  -7579677.39446  23866233.847    23866233.3804   23866244.0024
   1117142.865 8    890047.42345  25189877.474    25189877.2904   25189896.1214
   -423399.845 8   -340191.46144  25159396.587    25159396.1134   25159408.6344
 -20569869.830 9 -16001804.35247  21925716.988    21925716.8724   21925725.7114
 00  7 15  1  6  0.0000000  0 10  1 21 22 25 29 20 16 15 30 11       -.000000024
 -12319742.533 9  -9587515.38646  23043595.103    23043594.9114   23043604.8394
  -5079182.994 8  -3941792.08945  24716254.863    24716254.2734   24716272.5954
 -17800305.034 9 -11645877.25646  22603776.376    22603775.8914   22603787.4854
 -24274745.144 9 -18900996.11548  21222372.980    21222373.1574   21222380.7574
  -1169259.093 8   -609540.85445  24758116.776    24758116.7324   24758128.8734
 -17903876.549 9 -13939954.83448  21320464.414    21320464.0704   21320471.9374
  -9852121.707 9  -7654569.18146  23847944.419    23847943.9334   23847954.5764
   1228229.921 8    976608.37545  25211016.881    25211016.5464   25211035.6204
   -362157.910 8   -292470.45944  25171050.654    25171050.4824   25171062.4994
 -20505189.470 9 -15951404.14447  21938025.301    21938025.2014   21938034.0624
 00  7 15  1  6 30.0000000  0 10  1 21 22 25 29 20 16 15 30 11       -.000000023
 -12377826.223 9  -9632775.32946  23032542.084    23032541.9134   23032551.8064
  -4977232.702 8  -3862350.56545  24735655.550    24735655.1414   24735673.4144
 -17891057.558 9 -11716593.37146  22586506.663    22586506.1274   22586517.6764
 -24220231.063 9 -18858517.62448  21232746.653    21232746.8154   21232754.4534
  -1100236.774 8   -555757.27045  24771251.495    24771251.4594   24771263.3634
 -17972166.935 9 -13993168.09748  21307469.153    21307468.7974   21307476.6634
  -9948185.874 9  -7729424.28046  23829663.988    23829663.4474   23829674.2644
   1339179.869 8   1063062.48245  25232130.319    25232129.7094   25232148.7884
   -300483.821 7   -244412.76654  25182786.761    25182786.5304           .0005
 -20440142.360 9 -15900718.15747  21950403.427    21950403.3224   21950412.1934
 00  7 15  1  7  0.0000000  0 10  1 21 22 25 29 20 16 15 30 11       -.000000023
 -12435817.118 9  -9677962.96946  23021506.754    23021506.5834   23021516.4384
  -4875099.484 8  -3782766.46545  24755091.058    24755090.7764   24755108.8094
 -17981585.001 9 -11787134.10246  22569279.732    22569279.2134   22569290.6904
 -24165385.208 9 -18815780.61148  21243183.457    21243183.6304   21243191.2924
  -1031206.681 8   -501967.68245  24784387.506    24784387.4654   24784399.8014
 -18040162.213 9 -14046151.41048  21294530.095    21294529.7244   21294537.5744
 -10044200.963 9  -7804241.13446  23811392.840    23811392.2874   23811403.2254
   1449990.292 8   1149407.88445  25253217.170    25253216.3424   25253235.7954
   -238379.354 7   -196019.78144  25194604.535    25194604.6454   25194616.9104
 -20374731.196 9 -15849748.50247  21962850.840    21962850.7254   21962859.6134
 00  7 15  1  7 30.0000000  0 10  1 21 22 25 29 20 16 15 30 11       -.000000023
 -12493715.238 9  -9723078.31646  23010489.015    23010488.8604   23010498.7184
  -4772784.117 8  -3703040.43345  24774561.229    24774561.0184   24774579.2864
 -18071884.040 9 -11857496.84246  22552096.269    22552095.7194   22552107.2364
 -24110209.093 9 -18772786.25048  21253683.131    21253683.3014   21253690.9744
   -962168.483 8   -448171.80745  24797524.829    24797524.9514   24797537.5504
 -18107859.742 9 -14098902.70548  21281647.639    21281647.2824   21281655.1244
 -10140165.022 9  -7879018.23046  23793131.298    23793130.7284   23793141.6924
   1560659.250 8   1235643.06244  25274277.098    25274276.1634   25274295.9294
   -175845.954 7   -147292.50644  25206504.699    25206505.2374   25206516.9304
 -20308958.524 9 -15798497.14547  21975367.036    21975366.9204   21975375.7874
 00  7 15  1  8  0.0000000  0 11  1 21 22 19 25 29 20 16 15 30 11    -.000000022
 -12551520.529 9  -9768121.32946  22999488.983    22999488.8064   22999498.7034
  -4670288.116 8  -3623173.62945  24794065.800    24794065.5454   24794083.9724
 -18161951.253 9 -11927678.95646  22534956.928    22534956.3354   22534967.8774
  -1225922.186 8   -941816.89042          .000            .0004           .0004
 -24054704.898 9 -18729536.24548  21264245.269    21264245.4194   21264253.0924
   -893121.677 8   -394369.17045  24810663.812    24810664.1454   24810676.5424
 -18175256.984 9 -14151420.01548  21268822.345    21268821.9814   21268829.8244
 -10236075.659 9  -7953753.67746  23774879.946    23774879.4434   23774890.5254
   1671184.235 8   1321766.05644  25295309.508    25295308.7824   25295329.0594
   -112885.221 7    -98232.20144  25218486.142    25218486.0234   25218497.4154
 -20242826.964 9 -15746966.13947  21987951.494    21987951.3884   21987960.2624
 00  7 15  1  8 30.0000000  0 11  1 21 22 19 25 29 20 16 15 30 11    -.000000022
 -12609233.808 9  -9813092.65346  22988506.449    22988506.2984   22988516.1644
  -4567613.405 8  -3543167.55845  24813604.275    24813604.1994   24813622.4724
 -18251783.190 9 -11997677.73647  22517862.357    22517861.8094   22517873.2934
  -1323397.585 8  -1017770.32252          .000            .0004           .0005
 -23998875.036 9 -18686032.47248  21274869.341    21274869.5244   21274877.1484
   -824066.336 8   -340559.87245  24823804.611    24823805.0664   24823817.3404
 -18242351.929 9 -14203701.76548  21256054.585    21256054.2304   21256062.0754
 -10331931.795 9  -8028446.67546  23756639.030    23756638.5724   23756649.6274
   1781562.779 8   1407774.98144  25316314.115    25316314.2384   25316333.6274
    -49499.588 7    -48840.78644  25230547.495    25230548.1674   25230559.5594
 -20176339.563 9 -15695157.85047  22000603.685    22000603.5894   22000612.4594
 00  7 15  1  9  0.0000000  0 11  1 21 22 19 25 29 20 16 15 30 11    -.000000021
 -12666855.657 9  -9857992.72046  22977541.331    22977541.1794   22977551.0174
  -4464761.696 8  -3463023.55145  24833176.381    24833176.2404   24833194.7194
 -18341376.563 9 -12067490.63147  22500813.249    22500812.7124   22500824.1054
  -1420763.310 8  -1093638.26452          .000            .0004           .0005
 -23942721.767 9 -18642276.69848  21285554.980    21285555.1574   21285562.7994
   -755002.509 7   -286743.99045  24836947.371    24836947.6184   24836959.8284
 -18309142.389 9 -14255746.25848  21243344.754    21243344.3994   21243352.2444
 -10427731.377 9  -8103095.61846  23738408.927    23738408.5514   23738419.4654
   1891792.627 8   1493668.04454  25337290.426    25337290.3094           .0005
     14308.936 7       880.06044  25242689.954    25242690.6004   25242702.3314
 -20109499.356 9 -15643074.65147  22013323.021    22013322.9134   22013331.7794
 00  7 15  1  9 30.0000000  0 11  1 21 22 19 25 29 20 16 15 30 11    -.000000021
 -12724386.292 9  -9902821.71646  22966593.537    22966593.3794   22966603.2324
  -4361734.891 8  -3382743.08745  24852781.930    24852781.7174   24852800.2424
 -18430728.220 9 -12137115.16847  22483810.137    22483809.5724   22483820.9464
  -1518017.897 8   -912623.75442          .000            .0004           .0004
 -23886246.870 9 -18598270.30248  21296301.828    21296302.0074   21296309.6484
   -685930.071 7   -232921.45045  24850091.749    24850091.7504   24850103.9614
 -18375626.192 9 -14307551.79848  21230693.289    21230692.9374   21230700.7934
 -10523472.961 9  -8177699.34746  23720189.825    23720189.4554   23720200.3834
   2001870.829 7   1579442.88454  25358237.816    25358237.1794           .0005
     78538.404 7     50928.87644  25254912.460    25254912.7674   25254924.1594
 -20042309.249 9 -15590718.80147  22026108.960    22026108.8424   22026117.6794
 00  7 15  1 10  0.0000000  0 11  1 21 22 19 25 29 20 16 15 30 11    -.000000020
 -12781825.550 9  -9947579.50746  22955663.109    22955662.9564   22955672.8494
  -4258534.461 8  -3302327.33145  24872420.505    24872420.1224   24872439.2504
 -18519835.062 9 -12206548.95847  22466853.592    22466853.0014   22466864.3334
  -1615159.799 8   -988317.21552          .000            .0004           .0005
 -23829452.473 9 -18554014.94948  21307109.458    21307109.6154   21307117.2714
   -616848.397 7   -179091.76144  24863237.488    24863236.9104   24863249.8724
 -18441800.613 9 -14359116.26148  21218100.706    21218100.3654   21218108.2084
 -10619153.943 9  -8252255.86946  23701982.281    23701981.8204   23701992.7964
   2111795.925 7   1665098.47254  25379156.188    25379155.6574           .0005
    143187.528 7    101304.72244  25267214.267    25267214.7724   25267226.9404
 -19974771.578 9 -15538092.12447  22038961.001    22038960.9054   22038969.7594
 00  7 15  1 10 30.0000000  0 11  1 21 22 19 25 29 20 16 15 30 11    -.000000020
 -12839173.558 9  -9992266.19946  22944750.068    22944749.9504   22944759.8194
  -4155161.870 8  -3221777.30544  24892091.800    24892091.5244   24892110.5554
 -18608693.501 9 -12275789.18247  22449944.261    22449943.6884   22449955.0054
  -1712187.198 8  -1063921.30952          .000            .0004           .0005
 -23772340.389 9 -18509512.04148  21317977.522    21317977.7014   21317985.3644
   -547757.054 7   -125254.39345  24876385.010    24876384.8274   24876397.3324
 -18507663.120 9 -14410437.66948  21205567.454    21205567.1014   21205574.9814
 -10714772.481 9  -8326763.73646  23683786.611    23683786.1474   23683797.1004
   2221565.71717   1750632.91754          .000            .0005           .0005
    208254.154 7    152005.97344  25279596.378    25279597.0874   25279608.3244
 -19906889.115 9 -15485196.77947  22051878.660    22051878.5624   22051887.4674
 00  7 15  1 11  0.0000000  0 10  1 21 22 25 29 20 16 15 30 11       -.000000020
 -12896430.504 9 -10036881.94546  22933854.413    22933854.3034   22933864.1244
  -4051618.491 8  -3141094.18844  24911795.575    24911795.6014   24911813.4584
 -18697299.591 9 -12344832.76447  22433083.034    22433082.4404   22433093.7494
 -23714913.072 9 -18464763.50348  21328905.608    21328905.7864   21328913.4314
   -478655.732 7    -71409.35045  24889534.452    24889534.6444   24889547.1034
 -18573211.386 9 -14461514.21748  21193094.016    21193093.6574   21193101.5134
 -10810326.631 9  -8401221.45346  23665603.177    23665602.6744   23665613.6504
   2331177.74416   1836044.40054          .000            .0005           .0005
    273736.513 8    203031.21445  25292057.593    25292058.1424   25292069.3104
 -19838664.448 9 -15432034.78347  22064861.468    22064861.3544   22064870.2584
 00  7 15  1 11 30.0000000  0 10  1 21 22 25 29 20 16 15 30 11       -.000000019
 -12953597.259 9 -10081427.41147  22922975.927    22922975.8144   22922985.5944
  -3947906.505 8  -3060279.65254  24931531.453    24931531.7614           .0005
 -18785650.510 9 -12413677.52147  22416270.320    22416269.7694   22416280.9914
 -23657172.584 9 -18419770.93248  21339893.305    21339893.4694   21339901.1154
   -409544.865 8    -17556.80545  24902685.700    24902685.8994   24902698.5684
 -18638443.523 9 -14512344.43548  21180680.738    21180680.4004   21180688.2294
 -10905814.794 9  -8475627.74946  23647432.380    23647431.8934   23647442.6664
   2440629.264 7   5390491.04942          .000            .0004           .0004
    339632.259 8    254378.52245  25304597.075    25304597.7324   25304609.2324
 -19770101.021 9 -15378608.81747  22077908.683    22077908.6024   22077917.5324
 00  7 15  1 12  0.0000000  0 10  1 21 22 25 29 20 16 15 30 11       -.000000018
 -13010673.995 9 -10125902.73847  22912114.570    22912114.4434   22912124.1514
  -3844028.102 8  -2979335.53654  24951299.051    24951298.2084           .0005
 -18873743.102 9 -12482320.99047  22399506.818    22399506.2644   22399517.4024
 -23599121.235 9 -18374536.13348  21350940.133    21350940.2824   21350947.9374
   -340424.073 8     36303.45645  24915839.034    24915839.2744   24915851.8864
 -18703357.119 9 -14562926.44148  21168328.078    21168327.7324   21168335.5514
 -11001235.193 9  -8549981.24546  23629274.489    23629274.0444   23629284.7024
   2549917.889 7   5475708.55252          .000            .0004           .0005
    405939.580 8    306046.53645  25317214.888    25317215.4864   25317227.1374
 -19701201.841 9 -15324921.23347  22091019.846    22091019.7554   22091028.6944
 00  7 15  1 12 30.0000000  0 10  1 21 22 25 29 20 16 15 30 11       -.000000018
 -13067660.815 9 -10170307.99847  22901270.340    22901270.1804   22901279.8084
  -3739984.502 7  -2898262.71544  24971098.008    24971096.8104   24971116.7124
 -18961574.080 9 -12550760.59547  22382793.038    22382792.4954   22382803.6154
 -23540760.796 9 -18329060.48648  21362045.761    21362045.9234   21362053.5694
   -271292.897 8     90171.81745  24928994.421    24928994.5164   24929007.3754
 -18767949.734 9 -14613258.32948  21156036.484    21156036.1414   21156043.9594
 -11096585.602 9  -8624280.21346  23611129.891    23611129.4764   23611139.9644
   2659041.907 7   5560797.81452          .000            .0004           .0005
    472656.842 8    358033.97445  25329910.775    25329911.2674   25329922.9664
 -19631969.216 9 -15270973.82347  22104194.403    22104194.3154   22104203.2634
 00  7 15  1 13  0.0000000  0 10  1 21 22 25 29 20 16 15 30 11       -.000000018
 -13124557.576 9 -10214643.08947  22890443.230    22890443.0864   22890452.7224
  -3635776.53616  -2817061.78854  24990928.330    24990927.4125           .0005
 -19049139.659 9 -12618993.39447  22366129.789    22366129.2314   22366140.3254
 -23482093.302 9 -18283345.57948  21373209.826    21373209.9654   21373217.6474
   -202150.642 8    144048.76845  24942151.858    24942151.9474   24942164.7564
 -18832218.578 9 -14663337.93448  21143806.535    21143806.1884   21143813.9994
 -11191863.784 9  -8698522.89546  23592999.041    23592998.5874   23593009.0374
   2767999.401 8   5407190.53242          .000            .0004           .0004
    539782.476 8    410339.65745  25342684.475    25342684.8844   25342696.6254
 -19562405.770 9 -15216768.63647  22117431.954    22117431.8804   22117440.8754
 00  7 15  1 13 30.0000000  0 10  1 21 22 25 29 20 16 15 30 11       -.000000018
 -13181364.852 9 -10258908.43847  22879633.126    22879632.9704   22879642.6004
  -3531405.94816  -2735734.18954          .000            .0005           .0005
 -19136436.455 9 -12687016.75247  22349517.641    22349517.1024   22349528.1974
 -23423120.639 9 -18237392.87648  21384431.945    21384432.0964   21384439.7944
   -132997.615 8    197934.18545  24955311.387    24955311.3674   24955324.1744
 -18896161.589 9 -14713163.64248  21131638.558    21131638.1914   21131646.0164
 -11287067.927 9  -8772707.87146  23574882.230    23574881.8394   23574892.1624
   2876788.075 8   5491957.52552          .000            .0004           .0005
    607314.223 8    462961.73745  25355535.222    25355535.7384   25355547.5554
 -19492514.479 9 -15162307.96747  22130731.906    22130731.8034   22130740.8374
 00  7 15  1 14  0.0000000  0 10  1 21 22 25 29 20 16 15 30 11       -.000000017
 -13238082.467 9 -10303103.92447  22868840.090    22868839.9214   22868849.5714
  -3426874.46217  -2654281.25344          .000            .0005   25030698.8074
 -19223460.655 9 -12754827.70247  22332957.368    22332956.8364   22332967.8884
 -23363844.568 9 -18191203.75248  21395711.792    21395711.9774   21395719.6594
    -63832.993 9    251828.60345  24968473.065    24968473.1054   24968485.8034
 -18959776.071 9 -14762733.35248  21119533.126    21119532.7624   21119540.5754
 -11382195.782 9  -8846833.41446  23556779.930    23556779.5414   23556789.8984
   2985405.448 8   5576590.76352          .000            .0004           .0005
    675250.230 9    515898.96046  25368463.104    25368463.5584   25368475.4164
 -19422298.008 9 -15107593.93147  22144093.717    22144093.6134   22144102.6594
 00  7 15  1 14 30.0000000  0 10  1 21 22 25 29 20 16 15 30 11       -.000000016
 -13294711.173 9 -10347230.14047  22858063.947    22858063.7724   22858073.4624
  -3322184.583 7  -2572704.77445  25050602.513    25050602.2694   25050620.9924
 -19310209.683 9 -12822424.23947  22316449.528    22316448.9844   22316459.9744
 -23304267.590 9 -18144780.15548  21407048.951    21407049.1284   21407056.8334
      5342.972 8    305731.91245  24981636.937    24981637.1024   24981649.5554
 -19023060.023 9 -14812045.50648  21107490.565    21107490.1994   21107498.0434
 -11477245.680 9  -8920898.20746  23538692.508    23538692.0134   23538702.5204
   3093849.059 8   5423921.35242          .000            .0004           .0004
    743587.841 9    569149.03946  25381467.334    25381467.8054   25381479.6884
 -19351759.762 9 -15052629.15847  22157516.783    22157516.6704   22157525.7364
 00  7 15  1 15  0.0000000  0 10  1 21 22 25 29 20 16 15 30 11       -.000000016
 -13351250.838 9 -10391286.95847  22847304.733    22847304.5404   22847314.2944
  -3217337.382 8  -2491005.68445  25070554.385    25070554.4864   25070573.0094
 -19396680.280 9 -12889803.80847  22299994.625    22299994.1254   22300005.0634
 -23244392.051 9 -18098123.91148  21418442.902    21418443.0704   21418450.7544
     74530.960 9    359644.58045  24994803.099    24994803.2384   24994815.5584
 -19086010.817 9 -14861098.05148  21095511.409    21095511.0524   21095518.8894
 -11572215.598 9  -8994900.68346  23520620.273    23520619.8044   23520630.2734
   3202117.332 8   5508283.68052          .000            .0004           .0005
    812325.746 9    622710.99846  25394547.734    25394548.2604   25394559.9544
 -19280902.212 9 -14997415.57647  22171000.589    22171000.4564   22171009.5884
 00  7 15  1 15 30.0000000  0 10  1 21 22 25 29 20 16 15 30 11       -.000000016
 -13407701.538 9 -10435274.46747  22836562.464    22836562.2774   22836572.0124
  -3112334.543 8  -2409185.26345  25090535.862    25090535.9534   25090554.5074
 -19482868.905 9 -12956963.66947  22283593.407    22283592.8804   22283603.8194
 -23184219.710 9 -18051236.39748  21429893.373    21429893.5434   21429901.2124
    143731.169 9    413566.78145  25007971.528    25007971.4414   25007983.8784
 -19148626.295 9 -14909889.31348  21083596.071    21083595.7304   21083603.5464
 -11667103.519 9  -9068839.25046  23502563.663    23502563.2054   23502573.6814
   3310207.848 8   5592506.90652          .000            .0004           .0005
    881461.721 9    676583.15546  25407703.869    25407704.3524   25407716.0244
 -19209728.205 9 -14941955.40247  22184544.588    22184544.4894   22184553.6774
 00  7 15  1 16  0.0000000  0 10  1 21 22 25 29 20 16 15 30 11       -.000000016
 -13464063.559 9 -10479192.87747  22825837.116    22825836.9524   22825846.6554
  -3007177.634 8  -2327244.82045  25110546.620    25110546.7294   25110565.3294
 -19568771.787 9 -13023900.87547  22267246.500    22267246.0164   22267256.9104
 -23123752.506 9 -18004119.11548  21441399.906    21441400.0784   21441407.7504
    212943.954 8    467498.81745  25021142.319    25021142.5124   25021154.8184
 -19210903.760 9 -14958417.19748  21071745.052    21071744.7054   21071752.5104
 -11761907.149 9  -9142712.13146  23484523.087    23484522.7034   23484533.1374
   3418118.376 8   5440746.77442          .000            .0004           .0004
    950994.134 9    730764.29446  25420935.483    25420935.9324   25420947.6564
 -19138240.560 9 -14886250.84547  22198148.338    22198148.2414   22198157.3994
 00  7 15  1 16 30.0000000  0 10  1 21 22 25 29 20 16 15 30 11       -.000000015
 -13520337.293 9 -10523042.49747  22815128.581    22815128.4354   22815138.0674
  -2901868.270 8  -2245185.56745  25130586.319    25130586.4074   25130605.1724
 -19654385.690 9 -13090612.90547  22250954.610    22250954.0854   22250965.0024
 -23062992.878 9 -17956773.97848  21452962.051    21452962.2134   21452969.9304
    282169.439 8    521440.71845  25034315.532    25034315.6044   25034328.0654
 -19272841.131 9 -15006680.06948  21059958.738    21059958.3844   21059966.1924
 -11856624.837 9  -9216518.05746  23466498.855    23466498.5114   23466508.8784
   3525847.257 8   5524689.37152          .000            .0004           .0005
   1020920.844 9    785252.67246  25434242.140    25434242.6204   25434254.4234
 -19066442.433 9 -14830304.34447  22211811.130    22211811.0434   22211820.2264
 00  7 15  1 17  0.0000000  0 11  1 21 22 19 25 29 20 16 15 30 11     .000000028
 -13576522.940 9 -10566823.47347  22804436.745    22804436.6074   22804446.1834
  -2796408.962 8  -2163009.47945  25150654.576    25150654.6454   25150673.6114
 -19739707.625 9 -13157097.42047  22234718.280    22234717.7764   22234728.6574
  -1046342.178 8   -799804.20242          .000            .0004           .0004
 -23001942.588 9 -17909202.35048  21464579.554    21464579.7314   21464587.4464
    351407.688 9    575392.56945  25047491.213    25047490.8544   25047503.9244
 -19334436.116 9 -15054676.14348  21048237.616    21048237.2694   21048245.0774
 -11951254.224 9  -9290255.16846  23448491.391    23448491.0174   23448501.4004
   3633392.967 8   5608488.77052          .000            .0004           .0005
   1091239.282 8    840046.27245  25447623.283    25447623.6284   25447635.3054
 -18994336.642 9 -14774118.10947  22225532.483    22225532.4244   22225541.5944
 00  7 15  1 17 30.0000000  0 11  1 21 22 19 25 29 20 16 15 30 11     .000000027
 -13632620.842 9 -10610536.07147  22793761.626    22793761.4784   22793771.0234
  -2690800.281 8  -2080716.98845  25170751.156    25170751.3224   25170770.1764
 -19824734.642 9 -13223352.14047  22218538.146    22218537.5774   22218548.4184
  -1141629.471 8   -874053.78452          .000            .0004           .0005
 -22940603.780 9 -17861405.89848  21476251.984    21476252.1604   21476259.8734
    420659.161 8    629354.79444  25060669.471    25060669.0494   25060681.9084
 -19395686.312 9 -15102403.54748  21036582.069    21036581.7284   21036589.5144
 -12045793.641 9  -9363922.17046  23430501.072    23430500.7324   23430511.1574
   3740752.507 8   5458871.42442          .000            .0004           .0004
   1161947.652 8    895143.73745  25461078.594    25461079.0124   25461090.3604
 -18921926.139 9 -14717694.42947  22239311.808    22239311.7154   22239320.9584
 00  7 15  1 18  0.0000000  0 10  1 21 22 19 25 29 20 16 30 11        .000000027
 -13688630.868 9 -10654180.21047  22783103.257    22783103.0964   22783112.6264
  -2585043.516 8  -1998309.04545  25190875.998    25190876.1004   25190894.9794
 -19909462.705 9 -13289373.91047  22202414.916    22202414.3294   22202425.1014
  -1236782.11418   -948198.38944          .000            .0005   24690419.8684
 -22878978.479 9 -17813386.20948  21487978.924    21487979.0824   21487986.7924
    489924.204 8    683327.53654  25073850.246    25073849.5644           .0005
 -19456589.207 9 -15149860.32948  21024992.636    21024992.2914   21025000.0504
 -12140240.722 9  -9437517.21946  23412528.260    23412527.9154   23412538.3774
   1233044.338 8    950543.81444  25474607.808    25474607.6144   25474619.9804
 -18849213.537 9 -14661035.35847  22253148.576    22253148.5164   22253157.7434
 00  7 15  1 18 30.0000000  0 10  1 21 22 19 25 29 20 16 30 11        .000000028
 -13744556.045 9 -10697758.22047  22772461.012    22772460.8234   22772470.4534
  -2479143.262 8  -1915789.28545  25211028.208    25211028.1084   25211047.1354
 -19993891.124 9 -13355162.19447  22186348.620    22186348.0114   22186358.7754
  -1331801.979 8  -1022239.53645  24672324.364    24672322.6164   24672339.8544
 -22817071.685 9 -17765147.17748  21499759.415    21499759.5564   21499767.2884
    559200.564 8    737309.16854  25087033.150    25087033.0974           .0005
 -19517145.086 9 -15197046.71148  21013469.229    21013468.8784   21013476.6464
 -12234596.147 9  -9511040.84846  23394572.925    23394572.6554   23394583.0404
   1304524.421 7   1006242.59144  25488209.991    25488210.0334   25488222.3824
 -18776204.456 9 -14604145.27047  22267041.796    22267041.7374   22267051.0094
 00  7 15  1 19  0.0000000  0 10  1 21 22 19 25 29 20 16 30 11        .000000022
 -13800398.669 9 -10741271.90347  22761834.471    22761834.2714   22761843.9244
  -2373103.674 8  -1833160.97545  25231206.972    25231206.8784   25231225.9184
 -20078018.791 9 -13420716.12147  22170339.550    22170338.9644   22170349.7454
  -1426689.962 8  -1096177.90845  24654266.943    24654265.6674   24654281.8124
 -22754887.488 9 -17716691.98148  21511592.682    21511592.8344   21511600.5664
    628486.051 8    791297.85144  25100217.701    25100218.1794   25100229.1704
 -19577353.797 9 -15243962.57048  21002011.870    21002011.5304   21002019.2594
 -12328859.903 9  -9584493.05246  23376635.098    23376634.7634   23376645.2444
   1376383.777 7   1062236.91154  25501884.314    25501884.0734           .0005
 -18702904.131 9 -14547028.22747  22280990.451    22280990.3814   22280999.6884
 00  7 15  1 19 30.0000000  0 10  1 21 22 19 25 29 20 16 30 11        .000000016
 -13856155.420 9 -10784718.67947  22751224.245    22751224.0954   22751233.7124
  -2266922.480 8  -1750422.32045  25251412.768    25251412.4584   25251431.6314
 -20161839.434 9 -13486030.81847  22154388.926    22154388.3264   22154399.1094
  -1521441.398 8  -1170009.90645  24636235.987    24636233.9704   24636251.1774
 -22692424.723 9 -17668019.72048  21523478.960    21523479.1154   21523486.8614
    697784.329 7    845296.52244  25113404.720    25113404.7254   25113416.6744
 -19637209.819 9 -15290603.61548  20990621.636    20990621.2954   20990629.0254
 -12423026.904 9  -9657869.86646  23358715.710    23358715.3784   23358725.7894
   1448623.30417   1118527.49553          .000            .0005           .0005
 -18629312.022 9 -14489683.83047  22294994.644    22294994.5664   22295003.8884
 00  7 15  1 20  0.0000000  0 10  1 21 22 19 25 29 20 16 30 11        .000000011
 -13911824.668 9 -10828097.26047  22740630.697    22740630.5394   22740640.1214
  -2160599.504 7  -1667573.14244  25271645.586    25271645.5844   25271663.8164
 -20245347.854 9 -13551102.21647  22138497.750    22138497.1684   22138507.9014
  -1616052.867 8  -1243732.82045  24618231.810    24618230.8534   24618246.9324
 -22629683.407 9 -17619130.40948  21535418.273    21535418.4204   21535426.1734
    767097.864 7    899307.00754  25126594.517    25126594.5004           .0005
 -19696708.839 9 -15336966.47448  20979299.322    20979298.9844   20979306.6934
 -12517092.750 9  -9731167.86446  23340815.578    23340815.2504   23340825.5324
   1521243.31717   1175114.49753          .000            .0005           .0005
 -18555429.239 9 -14432112.93047  22309054.127    22309054.0634   22309063.4094
 00  7 15  1 20 30.0000000  0 10  1 21 22 19 25 29 20 16 30 11        .000000008
 -13967403.982 9 -10871405.77347  22730054.282    22730054.1214   22730063.6774
  -2054134.107 8  -1584612.96644  25291905.104    25291905.0194   25291923.7414
 -20328537.624 9 -13615925.32447  22122667.182    22122666.6064   22122677.3384
  -1710520.580 8  -1317343.75145  24600255.039    24600254.4584   24600270.3754
 -22566662.780 9 -17570023.45948  21547410.733    21547410.8784   21547418.6384
    836429.851 7    953331.92154  25139787.948    25139787.6774           .0005
 -19755845.815 9 -15383047.22148  20968045.922    20968045.5844   20968053.3234
 -12611052.951 9  -9804383.54846  23322935.531    23322935.1484   23322945.4264
   1594243.46616   -644977.17842          .000            .0005           .0004
 -18481255.898 9 -14374315.62447  22323168.932    22323168.8724   22323178.2494
 00  7 15  1 21  0.0000000  0  9  1 21 22 19 25 29 20 16 11           .000000006
 -14022894.708 9 -10914645.26047  22719494.701    22719494.5414   22719504.1314
  -1947527.979 8  -1501543.14744  25312191.490    25312191.0664   25312209.8574
 -20411406.486 9 -13680498.37547  22106897.709    22106897.1344   22106907.7864
  -1804844.275 8  -1390842.46045  24582305.624    24582305.2544   24582320.7734
 -22503366.216 9 -17520701.48648  21559455.663    21559455.8194   21559463.5944
    905778.936 7   1007370.05044  25152984.550    25152984.6604   25152996.9174
 -19814619.333 9 -15428844.75548  20956861.671    20956861.3474   20956869.0684
 -12704906.092 9  -9877515.80446  23305075.837    23305075.4424   23305085.6824
 -18406796.019 9 -14316295.04547  22337338.289    22337338.2324   22337347.5824
 00  7 15  1 21 30.0000000  0  9  1 21 22 19 25 29 20 16 11           .000000005
 -14078297.512 9 -10957816.22247  22708951.853    22708951.6904   22708961.2094
  -1840784.76417  -1418366.52754  25332503.832    25332502.9715           .0005
 -20493951.763 9 -13744819.28447  22091189.778    22091189.1884   22091199.8534
  -1899023.328 8  -1464228.44945  24564383.659    24564383.4014   24564399.2084
 -22439796.610 9 -17471166.75248  21571552.565    21571552.7154   21571560.5204
    975146.25716   1061422.37354  25166184.926    25166185.0925           .0005
 -19873027.647 9 -15474357.71448  20945746.963    20945746.6214   20945754.3254
 -12798651.028 9  -9950563.75146  23287236.701    23287236.2914   23287246.5964
 -18332053.063 9 -14258053.88047  22351561.470    22351561.4164   22351570.7774
 00  7 15  1 22  0.0000000  0  7  1 22 19 25 20 16 11                 .000000004
 -14133613.238 9 -11000919.33747  22698425.570    22698425.3874   22698434.9394
 -20576171.267 9 -13808886.34247  22075543.829    22075543.2604   22075553.9084
  -1993057.056 8  -1537501.19845  24546489.271    24546489.1404   24546504.9254
 -22375956.470 9 -17421421.21648  21583700.939    21583701.0954   21583708.9144
 -19931069.313 9 -15519584.97248  20934701.983    20934701.6384   20934709.3154
 -12892286.182 9 -10023526.14846  23269418.494    23269418.0874   23269428.3574
 -18257031.050 9 -14199595.26347  22365837.785    22365837.7234   22365847.0754
 00  7 15  1 22 30.0000000  0  7  1 22 19 25 20 16 11                 .000000004
 -14188842.427 9 -11043955.02047  22687915.762    22687915.6034   22687925.1334
 -20658061.968 9 -13872697.18647  22059960.437    22059959.8584   22059970.5804
  -2086944.404 8  -1610659.88745  24528622.760    24528622.3884   24528638.3984
 -22311848.191 9 -17371466.74348  21595900.379    21595900.5094   21595908.3144
 -19988742.203 9 -15564524.86848  20923727.185    20923726.8354   20923734.5284
 -12985809.593 9 -10096401.47246  23251621.513    23251621.0684   23251631.3694
 -18181732.872 9 -14140921.45847  22380166.611    22380166.5334   22380175.9374
 00  7 15  1 23  0.0000000  0  7  1 22 19 25 20 16 11                 .000000004
 -14243985.582 9 -11086923.64947  22677422.359    22677422.1574   22677431.6884
 -20739620.631 9 -13936249.30547  22044440.262    22044439.7124   22044450.3814
  -2180684.555 8  -1683703.88345  24510784.345    24510783.7864   24510799.7924
 -22247474.301 9 -17321305.30248  21608150.402    21608150.5394   21608158.2914
 -20046044.335 9 -15609175.86748  20912822.960    20912822.6144   20912830.3014
 -13079219.776 9 -10169188.57846  23233846.125    23233845.6834   23233855.8684
 -18106161.955 9 -14082035.13247  22394547.360    22394547.3074   22394556.7684
 00  7 15  1 23 30.0000000  0  7  1 22 19 25 20 16 11                 .000000004
 -14299043.246 9 -11129825.67647  22666945.218    22666945.0204   22666954.4994
 -20820844.264 9 -13999540.36247  22028983.853    22028983.3124   22028993.9534
  -2274277.018 8  -1756632.77745  24492974.099    24492973.9674   24492989.6444
 -22182837.170 9 -17270938.73348  21620450.457    21620450.5734   21620458.3084
 -20102973.844 9 -15653536.50948  20901989.608    20901989.2744   20901996.9694
 -13172514.854 9 -10241885.99046  23216092.637    23216092.1844   23216102.2824
 -18030321.622 9 -14022938.87447  22408979.376    22408979.3264   22408988.7814
 00  7 15  1 24  0.0000000  0  7  1 22 19 25 20 16 11                 .000000004
 -14354015.368 9 -11172661.03647  22656484.328    22656484.1324   22656493.5954
 -20901729.637 9 -14062567.82547  22013591.849    22013591.3084   22013601.9494
  -2367720.301 8  -1829445.44445  24475192.304    24475192.1384   24475207.8164
 -22117938.824 9 -17220368.62048  21632800.210    21632800.3544   21632808.1274
 -20159528.064 9 -15697604.72148  20891227.685    20891227.3444   20891235.0444
 -13265692.496 9 -10314491.88546  23198361.485    23198361.0594   23198371.1894
 -17954214.566 9 -13963634.77147  22423462.159    22423462.0704   22423471.5354
 00  7 15  1 24 30.0000000  0  7  1 22 19 25 20 16 11                 .000000004
 -14408901.906 9 -11215429.71547  22646039.770    22646039.5834   22646048.9894
 -20982273.427 9 -14125329.12547  21998264.784    21998264.2394   21998274.8784
  -2461012.302 8  -1902140.24145  24457439.286    24457439.1374   24457454.5444
 -22052780.790 9 -17169596.15548  21645199.345    21645199.5104   21645207.3224
 -20215704.588 9 -15741378.62148  20880537.640    20880537.2954   20880544.9794
 -13358750.010 9 -10387004.17946  23180653.167    23180652.7484   23180662.8754
 -17877843.582 9 -13904125.01147  22437995.157    22437995.0894   22438004.5044
 00  7 15  1 25  0.0000000  0  7  1 22 19 25 20 16 11                 .000000004
 -14463703.152 9 -11258131.92047  22635611.423    22635611.2024   22635620.6164
 -21062472.587 9 -14187821.89047  21983003.292    21983002.7544   21983013.3614
  -2554152.257 9  -1974716.55745  24439715.196    24439715.2284   24439730.4984
 -21987365.398 9 -17118623.14948  21657647.495    21657647.6534   21657655.4944
 -20271501.089 9 -15784856.40148  20869919.911    20869919.5754   20869927.2524
 -13451685.776 9 -10459421.60546  23162968.024    23162967.6414   23162977.6884
 -17801211.714 9 -13844411.96447  22452577.786    22452577.7334   22452587.1834
 00  7 15  1 25 30.0000000  0  7  1 22 19 25 20 16 11                 .000000004
 -14518419.300 9 -11300767.82347  22625199.159    22625198.9314   22625208.4294
 -21142323.527 9 -14250043.30747  21967808.111    21967807.5534   21967818.1454
  -2647139.413 9  -2047173.81045  24422020.176    24422020.2284   24422035.3494
 -21921694.924 9 -17067451.38648  21670144.184    21670144.3514   21670152.1854
 -20326915.703 9 -15828036.61148  20859374.847    20859374.5164   20859382.1974
 -13544497.466 9 -10531742.35146  23145306.512    23145306.1484   23145316.1394
 -17724322.245 9 -13784498.21147  22467209.472    22467209.3944   22467218.8744
 00  7 15  1 26  0.0000000  0  7  1 22 19 25 20 16 11                 .000000004
 -14573050.672 9 -11343337.66347  22614803.065    22614802.8684   22614812.3454
 -21221823.005 9 -14311990.86447  21952679.840    21952679.2864   21952689.8094
  -2739972.650 9  -2119511.13945  24404354.441    24404354.5074   24404369.5554
 -21855771.881 9 -17016082.81548  21682688.990    21682689.1574   21682696.9724
 -20381946.128 9 -15870917.44948  20848902.908    20848902.5654   20848910.2414
 -13637183.311 9 -10603965.03446  23127668.943    23127668.5494   23127678.5824
 -17647178.172 9 -13724386.05047  22481889.585    22481889.4824   22481898.9794
 00  7 15  1 26 30.0000000  0  8  1 22 19 25 29 20 16 11              .000000004
 -14627597.021 9 -11385841.24747  22604423.210    22604423.0244   22604432.4614
 -21300967.665 9 -14373661.93347  21937619.035    21937618.5034   21937629.0034
  -2832650.197 9  -2191727.14745  24386718.296    24386718.4174   24386733.3244
 -21789597.619 9 -16964518.48948  21695281.596    21695281.7394   21695289.5364
   -565246.213 8   -454867.24244          .000            .0004   25298374.4884
 -20436589.579 9 -15913496.75648  20838504.631    20838504.2944   20838511.9284
 -13729740.282 9 -10676087.29746  23110055.859    23110055.4524   23110065.5114
 -17569782.188 9 -13664077.59947  22496617.601    22496617.5154   22496627.0394
 00  7 15  1 27  0.0000000  0  8  1 22 19 25 29 20 16 11              .000000003
 -14682058.684 9 -11428278.86447  22594059.491    22594059.3084   22594068.6604
 -21379754.876 9 -14435054.46747  21922626.262    21922625.7424   21922636.1954
  -2925170.986 8  -2263820.99645  24369111.949    24369112.0954   24369126.8964
 -21723174.273 9 -16912760.07348  21707921.531    21707921.6794   21707929.5104
   -495688.069 8   -400666.08445  25311597.962    25311598.4054   25311611.8874
 -20490843.907 9 -15955772.84448  20828180.327    20828179.9814   20828187.6314
 -13822166.921 9 -10748108.00646  23092467.563    23092467.1084   23092477.3214
 -17492137.317 9 -13603575.21447  22511393.048    22511392.9974   22511402.5354
 00  7 15  1 27 30.0000000  0  8  1 22 19 25 29 20 16 11              .000000003
 -14736435.687 9 -11470650.50147  22583711.861    22583711.6724   22583721.0034
 -21458181.133 9 -14496165.74747  21907702.180    21907701.6044   21907712.0614
  -3017533.846 9  -2335791.79345  24351535.721    24351535.8534   24351550.6574
 -21656503.890 9 -16860809.15748  21720608.512    21720608.6764   21720616.5154
   -426110.613 8   -346449.91145  25324838.448    25324840.6884   25324851.5034
 -20544706.714 9 -15997743.85248  20817930.577    20817930.2374   20817937.8934
 -13914460.462 9 -10820024.99146  23074904.641    23074904.1564   23074914.3954
 -17414246.476 9 -13542881.15747  22526215.244    22526215.1354   22526224.7594
 00  7 15  1 28  0.0000000  0  8  1 22 19 25 29 20 16 11              .000000003
 -14790728.291 9 -11512956.37247  22573380.289    22573380.0944   22573389.4204
 -21536242.943 9 -14556993.03847  21892847.461    21892846.8884   21892857.3084
  -3109737.861 8  -2407638.82545  24333989.694    24333989.7204   24334004.4764
 -21589588.493 9 -16808667.32248  21733342.094    21733342.2404   21733350.1164
   -356513.944 7   -292218.70145  25338082.407    25338082.8104   25338094.8454
 -20598176.030 9 -16039408.24748  20807755.709    20807755.3714   20807763.0074
 -14006619.175 9 -10891836.94246  23057367.395    23057366.8774   23057377.0654
 -17336112.917 9 -13481997.97447  22541083.678    22541083.5534   22541093.1454
 00  7 15  1 28 30.0000000  0  8  1 22 19 25 29 20 16 11              .000000003
 -14844936.886 9 -11555196.78347  22563064.691    22563064.4964   22563073.8264
 -21613937.269 9 -14617533.98647  21878062.659    21878062.0934   21878072.4494
  -3201782.010 8  -2479361.27745  24316474.081    24316474.1054   24316488.8714
 -21522430.630 9 -16756336.55348  21746121.859    21746122.0034   21746129.8934
   -286897.780 7   -237972.37745  25351329.923    25351330.2514   25351342.0104
 -20651249.872 9 -16080764.48248  20797656.107    20797655.7434   20797663.3794
 -14098640.708 9 -10963542.00446  23039856.306    23039855.7804   23039865.9234
 -17257739.679 9 -13420928.03347  22555997.708    22555997.5584   22556007.2164
 00  7 15  1 29  0.0000000  0  8  1 22 19 25 29 20 16 11              .000000002
 -14899061.158 9 -11597371.49147  22552765.153    22552764.9364   22552774.2594
 -21691260.983 9 -14677786.14447  21863348.381    21863347.8004   21863358.1444
  -3293664.659 8  -2550957.88345  24298989.123    24298989.0814   24299003.9574
 -21455032.240 9 -16703818.36048  21758947.361    21758947.5144   21758955.4164
   -217261.526 8   -183710.35745  25364581.213    25364581.2654   25364593.5294
 -20703925.465 9 -16121810.39048  20787632.241    20787631.8824   20787639.5424
 -14190522.742 9 -11035138.35346  23022371.697    23022371.2044   23022381.3074
 -17179129.562 9 -13359673.51747  22570956.806    22570956.6824   22570966.3834
 00  7 15  1 29 30.0000000  0  8  1 22 19 25 29 20 16 11              .000000002
 -14953101.576 9 -11639480.86447  22542481.595    22542481.3654   22542490.6604
 -21768211.303 9 -14737747.34547  21848705.182    21848704.6164   21848714.8994
  -3385384.928 8  -2622427.97645  24281535.135    24281535.0434   24281549.9504
 -21387395.315 9 -16651114.30048  21771818.265    21771818.4144   21771826.3354
   -147605.117 8   -129432.65944  25377836.267    25377836.2624   25377849.6204
 -20756200.824 9 -16162544.42648  20777684.547    20777684.1994   20777691.8694
 -14282263.171 9 -11106624.36446  23004914.079    23004913.5794   23004923.6724
 -17100285.688 9 -13298236.83847  22585960.391    22585960.2754   22585969.9784
 00  7 15  1 30  0.0000000  0  8  1 22 19 25 29 20 16 11              .000000001
 -15007057.950 9 -11681524.74447  22532214.016    22532213.7934   22532223.0814
 -21844784.585 9 -14797414.76147  21834133.714    21834133.1344   21834143.3704
  -3476941.175 8  -2693770.24345  24264112.241    24264112.2554   24264127.1124
 -21319521.526 9 -16598225.66948  21784734.242    21784734.4024   21784742.2924
    -77927.606 7    -75138.48544  25391095.515    25391094.9514   25391109.1944
 -20808073.273 9 -16202964.50548  20767813.554    20767813.2024   20767820.8604
 -14373859.448 9 -11177998.04747  22987483.901    22987483.4274   22987493.4134
 -17021210.789 9 -13236620.14847  22601007.956    22601007.8384   22601017.5284
 00  7 15  1 30 30.0000000  0  8  1 22 19 25 29 20 16 11              .000000001
 -15060930.353 9 -11723503.20147  22521962.411    22521962.2204   22521971.4664
 -21920977.392 9 -14856785.69547  21819634.636    21819634.0624   21819644.2884
  -3568332.462 8  -2764983.95345  24246720.771    24246720.8454   24246735.6284
 -21251413.228 9 -16545154.30848  21797694.843    21797694.9904   21797702.8904
     -8228.844 7    -20827.74754  25404358.731    25404358.3044           .0005
 -20859540.885 9 -16243069.12748  20758019.599    20758019.2624   20758026.9094
 -14465309.422 9 -11249257.74247  22970081.557    22970081.0844   22970090.9984
 -16941908.185 9 -13174826.03646  22616098.797    22616098.6714   22616108.4574
 00  7 15  1 31  0.0000000  0  8  1 22 19 25 29 20 16 11              .000000000
 -15114719.083 9 -11765416.45247  22511726.705    22511726.5164   22511735.7444
 -21996786.712 9 -14915857.81347  21805208.477    21805207.9294   21805218.1494
  -3659557.876 8  -2836068.42545  24229360.874    24229360.8524   24229375.6484
 -21183072.385 9 -16491901.74748  21810699.683    21810699.8374   21810707.7614
     61491.28517     33499.70753          .000            .0005           .0005
 -20910601.352 9 -16282856.49748  20748303.101    20748302.7594   20748310.4094
 -14556611.199 9 -11320401.93847  22952707.341    22952706.8824   22952716.8074
 -16862380.687 9 -13112856.67046  22631232.441    22631232.3134   22631242.1624
 00  7 15  1 31 30.0000000  0  7  1 22 19 25 20 16 11                 .000000000
 -15168423.947 9 -11807264.36447  22501506.966    22501506.7814   22501516.0114
 -22072209.395 9 -14974628.65947  21790855.943    21790855.3954   21790865.5944
  -3750616.109 8  -2907022.66345  24212032.876    24212032.8094   24212047.5124
 -21114500.896 9 -16438469.45548  21823748.404    21823748.5634   21823756.5324
 -20961252.363 9 -16322324.80649  20738664.519    20738664.1824   20738671.8014
 -14647762.161 9 -11391428.61546  22935361.813    22935361.3994   22935371.3344
 -16782631.249 9 -13050714.37646  22646408.334    22646408.2084   22646418.1374
 00  7 15  1 32  0.0000000  0  7  1 22 19 25 20 16 11                 .000000000
 -15222045.098 9 -11849047.03247  22491303.151    22491302.9754   22491312.2294
 -22147242.593 9 -15033096.00447  21776577.513    21776576.9504   21776587.1624
  -3841505.891 8  -2977845.62845  24194736.991    24194736.9734   24194751.3164
 -21045701.134 9 -16384859.28648  21836840.566    21836840.7304   21836848.7204
 -21011491.571 9 -16361472.22749  20729104.314    20729103.9604   20729111.5984
 -14738759.646 9 -11462335.70647  22918045.531    22918045.1574   22918055.0514
 -16702662.887 9 -12988401.49446  22661625.858    22661625.7334   22661635.6774
 00  7 15  1 32 30.0000000  0  7  1 22 19 25 20 16 11                 .000000000
 -15275583.000 9 -11890764.84247  22481115.213    22481115.0084   22481124.3194
 -22221883.240 9 -15091257.47347  21762373.823    21762373.2634   21762383.4374
  -3932226.566 8  -3048536.82945  24177473.319    24177473.2034   24177487.4334
 -20976675.122 9 -16331072.82448  21849975.834    21849975.9864   21849983.9704
 -21061317.259 9 -16400297.42749  20719622.788    20719622.4544   20719630.0874
 -14829602.138 9 -11533122.01447  22900758.713    22900758.3554   22900768.2624
 -16622478.924 9 -12925920.60446  22676884.466    22676884.3104   22676894.3064
 00  7 15  1 33  0.0000000  0  7  1 22 19 25 20 16 11                 .000000000
 -15329037.558 9 -11932417.71547  22470943.057    22470942.8804   22470952.1804
 -22296127.808 9 -15149110.31447  21748245.474    21748244.9334   21748255.0684
  -4022777.019 9  -3119095.39145  24160242.072    24160242.0234   24160256.0584
 -20907425.101 9 -16277111.80448  21863153.737    21863153.8834   21863161.8424
 -21110727.118 9 -16438798.61149  20710220.382    20710220.0334   20710227.6744
 -14920287.164 9 -11603785.61546  22883501.892    22883501.5324   22883511.4324
 -16542082.257 9 -12863273.98446  22692183.535    22692183.3884   22692193.3994
 00  7 15  1 33 30.0000000  0  7  1 22 19 25 20 16 11                -.000000001
 -15382409.143 9 -11974005.92647  22460786.722    22460786.5514   22460795.8664
 -22369973.407 9 -15206652.26747  21734193.077    21734192.5224   21734202.6464
  -4113156.006 9  -3189520.35745  24143043.390    24143043.2894   24143057.2404
 -20837953.046 9 -16222977.77148  21876373.890    21876374.0314   21876381.9574
 -21159718.977 9 -16476974.08049  20700897.565    20700897.2174   20700904.8324
 -15010812.490 9 -11674324.77646  22866275.460    22866275.0874   22866284.9534
 -16461476.029 9 -12800464.07046  22707522.466    22707522.3194   22707532.3934
 00  7 15  1 34  0.0000000  0  7  1 22 19 25 20 16 11                -.000000001
 -15435697.484 9 -12015529.27647  22450646.290    22450646.1414   22450655.3854
 -22443416.938 9 -15263880.92047  21720217.143    21720216.6074   21720226.7324
  -4203362.194 9  -3259810.66645  24125877.557    24125877.4924   24125891.3264
 -20768260.644 9 -16168672.03648  21889635.933    21889636.0904   21889643.9874
 -21208290.260 9 -16514821.82049  20691654.741    20691654.3864   20691662.0184
 -15101175.533 9 -11744737.48546  22849079.896    22849079.4814   22849089.3214
 -16380662.888 9 -12737492.90446  22722900.769    22722900.6634   22722910.7334
 00  7 15  1 34 30.0000000  0  7  1 22 19 25 20 16 11                -.000000002
 -15488902.827 9 -12056987.95947  22440521.642    22440521.4604   22440530.6914
 -22516455.739 9 -15320794.21647  21706318.274    21706317.7294   21706327.8434
  -4293394.705 9  -3329965.64845  24108744.797    24108744.7244   24108758.4964
 -20698350.133 9 -16114196.35348  21902939.498    21902939.6404   21902947.5434
 -21256439.173 9 -16552340.43849  20682492.285    20682491.9494   20682499.5624
 -15191374.466 9 -11815022.31646  22831915.635    22831915.1844   22831925.0024
 -16299646.218 9 -12674363.15746  22738317.848    22738317.7304   22738327.7594
 00  7 15  1 35  0.0000000  0  7  1 22 19 25 20 16 11                -.000000002
 -15542025.148 9 -12098381.94547  22430412.757    22430412.5794   22430421.8424
 -22589086.093 9 -15377389.22547  21692497.154    21692496.6274   21692506.7154
  -4383252.275 9  -3399984.31145  24091645.338    24091645.1414   24091659.0604
 -20628223.543 9 -16059552.29248  21916284.145    21916284.3024   21916292.2154
 -21304163.163 9 -16589527.95049  20673410.712    20673410.3664   20673417.9544
 -15281406.420 9 -11885177.02346  22814783.022    22814782.5554   22814792.4104
 -16218429.159 9 -12611077.26146  22753773.020    22753772.9514   22753782.9724
 00  7 15  1 35 30.0000000  0  7  1 22 19 25 20 16 11                -.000000003
 -15595064.052 9 -12139710.93847  22420319.755    22420319.5964   22420328.8674
 -22661304.334 9 -15433663.10247  21678754.460    21678753.9114   21678763.9614
  -4472933.758 9  -3469865.75746  24074579.369    24074579.2564   24074593.0394
 -20557882.488 9 -16004741.11448  21929669.650    21929669.8054   21929677.7174
 -21351459.896 9 -16626382.53149  20664410.455    20664410.1074   20664417.6874
 -15371268.888 9 -11955199.66547  22797682.707    22797682.2234   22797692.1504
 -16137013.898 9 -12547636.94046  22769265.909    22769265.8254   22769275.9104
 00  7 15  1 36  0.0000000  0  7  1 22 19 25 20 16 11                -.000000003
 -15648019.652 9 -12180975.01847  22410242.666    22410242.4624   22410251.7084
 -22733107.933 9 -15489613.89247  21665090.591    21665090.0314   21665100.0904
  -4562438.254 9  -3539609.30046  24057547.048    24057546.9084   24057560.6804
 -20487329.291 9 -15949764.63648  21943095.484    21943095.6414   21943103.5924
 -21398327.489 9 -16662902.71749  20655491.821    20655491.4614   20655499.0734
 -15460959.850 9 -12025088.65847  22780615.071    22780614.5484   22780624.4714
 -16055403.805 9 -12484044.78346  22784795.866    22784795.7544   22784805.8794
 00  7 15  1 36 30.0000000  0  7  1 22 19 25 20 16 11                -.000000004
 -15700892.661 9 -12222174.73947  22400181.254    22400181.0574   22400190.2764
 -22804494.464 9 -15545239.68547  21651506.128    21651505.5944   21651515.6444
  -4651764.941 9  -3609214.28346  24040548.573    24040548.4554   24040562.2364
 -20416566.072 9 -15894624.50048  21956561.295    21956561.4594   21956569.4494
 -21444763.869 9 -16699086.89449  20646655.267    20646654.9184   20646662.4994
 -15550477.411 9 -12094842.53347  22763580.443    22763579.9024   22763589.8094
 -15973602.335 9 -12420303.49946  22800362.233    22800362.1384   22800372.2694
 00  7 15  1 37  0.0000000  0  7  1 22 19 25 20 16 11                -.000000005
 -15753682.456 9 -12263309.61847  22390135.642    22390135.4724   22390144.6364
 -22875460.122 9 -15600537.53047  21638001.796    21638001.2444   21638011.2824
  -4740912.263 9  -3678679.51045  24023584.234    24023584.0894   24023597.8644
 -20345594.555 9 -15839322.05848  21970066.734    21970066.8894   21970074.8984
 -21490766.447 9 -16734933.04649  20637901.269    20637900.9094   20637908.4804
 -15639818.256 9 -12164458.71247  22746579.356    22746578.8514   22746588.7904
 -15891611.966 9 -12356415.02246  22815964.587    22815964.4664   22815974.6384
 00  7 15  1 37 30.0000000  0  7  1 22 19 25 20 16 11                -.000000006
 -15806389.557 9 -12304380.05747  22380105.767    22380105.5954   22380114.7464
 -22946002.260 9 -15655505.35647  21624578.022    21624577.4874   21624587.5104
  -4829879.424 8  -3748004.35345  24006654.122    24006653.9904   24006667.7304
 -20274417.187 9 -15783859.20548  21983611.367    21983611.5224   21983619.5464
 -21536333.565 9 -16770439.87949  20629230.130    20629229.7814   20629237.3394
 -15728980.827 9 -12233935.97347  22729612.258    22729611.7974   22729621.6754
 -15809436.223 9 -12292382.11246  22831602.195    22831602.0414   22831612.2814
 00  7 15  1 38  0.0000000  0  7  1 22 19 25 20 16 11                -.000000006
 -15859013.457 9 -12345385.66847  22370091.768    22370091.6184   22370100.7504
 -23016117.095 9 -15710140.22247  21611235.570    21611235.0234   21611245.0424
  -4918664.810 8  -3817187.55345  23989758.556    23989758.4974   23989772.1874
 -20203035.335 9 -15728237.02348  21997194.906    21997195.0794   21997203.0874
 -21581462.471 9 -16805605.24949  20620642.367    20620642.0274   20620649.5904
 -15817962.095 9 -12303271.96747  22712679.638    22712679.1904   22712689.0224
 -15727077.507 9 -12228206.61446  22847274.650    22847274.4914   22847284.7444
 00  7 15  1 38 30.0000000  0  7  1 22 19 25 20 16 11                -.000000007
 -15911554.805 9 -12386326.96147  22360093.479    22360093.3104   22360102.4214
 -23085802.381 9 -15764440.37448  21597974.859    21597974.2944   21597984.3224
  -5007268.040 8  -3886228.81145  23972897.593    23972897.5094   23972911.4444
 -20131451.341 9 -15672457.32348  22010816.955    22010817.1284   22010825.1254
 -21626151.725 9 -16840428.03049  20612138.289    20612137.9444   20612145.4944
 -15906760.654 9 -12372465.58747  22695781.836    22695781.4084   22695791.1504
 -15644539.622 9 -12163891.51146  22862981.167    22862980.9584   22862991.3534
 00  7 15  1 39  0.0000000  0  7  1 22 19 25 20 16 11                -.000000008
 -15964013.505 9 -12427203.83947  22350110.899    22350110.7204   22350119.8154
 -23155055.345 9 -15818403.65448  21584796.438    21584795.8574   21584805.8514
  -5095688.100 8  -3955127.32045  23956071.604    23956071.6474   23956085.3344
 -20059667.518 9 -15616521.91748  22024477.038    22024477.1814   22024485.1794
 -21670399.208 9 -16874906.57149  20603718.269    20603717.9134   20603725.4554
 -15995373.618 9 -12441514.58647  22678919.281    22678918.8314   22678928.6244
 -15561825.237 9 -12099438.87546  22878721.258    22878721.0614   22878731.5154
 00  7 15  1 39 30.0000000  0  7  1 22 19 25 20 16 11                -.000000008
 -16016389.264 9 -12468016.08747  22340144.105    22340143.9404   22340153.0164
 -23223872.630 9 -15872027.44248  21571700.888    21571700.3034   21571710.2734
  -5183923.537 8  -4023882.00245  23939280.801    23939280.8014   23939294.5164
 -19987685.229 9 -15560431.85748  22038174.855    22038174.9794   22038182.9974
 -21714202.319 9 -16909038.85049  20595382.781    20595382.4344   20595389.9754
 -16083798.489 9 -12510417.02047  22662092.507    22662092.0614   22662101.9414
 -15478936.976 9 -12034850.75746  22894494.496    22894494.2914   22894504.7134
 00  7 15  1 40  0.0000000  0  7  1 22 19 25 20 16 11                -.000000009
 -16068682.645 9 -12508764.15047  22330193.002    22330192.8294   22330201.9144
 -23292251.372 9 -15925309.51248  21558688.803    21558688.2014   21558698.1554
  -5271974.004 8  -4092492.53245  23922525.205    23922525.2414   23922538.7884
 -19915507.223 9 -15504189.29248  22051909.872    22051910.0004   22051918.0884
 -21757559.577 9 -16942823.70949  20587132.143    20587131.8054   20587139.3434
 -16172033.129 9 -12579171.23247  22645302.003    22645301.5544   22645311.3534
 -15395878.432 9 -11970129.95046  22910300.173    22910299.9594   22910310.3564
 00  7 15  1 40 30.0000000  0  7  1 22 19 25 20 16 11                -.000000009
 -16120893.315 9 -12549447.76547  22320257.592    22320257.4174   22320266.5064
 -23360188.123 9 -15978247.17448  21545760.823    21545760.2304   21545770.1364
  -5359838.007 9  -4160957.79445  23905805.083    23905805.1664   23905818.6004
 -19843135.150 9 -15447795.50448  22065681.788    22065681.9264   22065690.0544
 -21800468.609 9 -16976259.30449  20578966.828    20578966.4784   20578974.0064
 -16260075.315 9 -12647775.48447  22628548.062    22628547.5734   22628557.3944
 -15312652.453 9 -11905278.68046  22926137.654    22926137.4554   22926147.9034
 00  7 15  1 41  0.0000000  0  7  1 22 19 25 20 16 11                -.000000010
 -16173021.220 9 -12590066.89247  22310337.968    22310337.8044   22310346.8404
 -23427680.188 9 -16030838.32548  21532917.473    21532916.8724   21532926.7864
  -5447514.388 9  -4229276.85545  23889120.728    23889120.8964   23889134.0874
 -19770570.659 9 -15391251.77948  22079490.344    22079490.5174   22079498.6264
 -21842927.251 9 -17009343.94749  20570887.201    20570886.8414   20570894.3864
 -16347922.318 9 -12716227.63747  22611831.319    22611830.8064   22611840.6174
 -15229261.936 9 -11840299.19046  22942006.481    22942006.3094   22942016.7574
 00  7 15  1 41 30.0000000  0  7  1 22 19 25 20 16 11                -.000000010
 -16225066.261 9 -12630621.44747  22300434.136    22300433.9414   22300442.9284
 -23494724.936 9 -16083080.92948  21520159.197    21520158.6044   21520168.5054
  -5535002.429 9  -4297449.17845  23872472.233    23872472.3124   23872485.4834
 -19697815.824 9 -15334559.74448  22093335.125    22093335.3224   22093343.4374
 -21884933.315 9 -17042075.93849  20562893.677    20562893.3454   20562900.8574
 -16435571.883 9 -12784525.95247  22595152.104    22595151.6124   22595161.3994
 -15145709.918 9 -11775193.87346  22957905.985    22957905.8534   22957916.3934
 00  7 15  1 42  0.0000000  0  7  1 22 19 25 20 16 11                -.000000011
 -16277028.970 9 -12671111.84247  22290545.932    22290545.7274   22290554.7394
 -23561319.745 9 -16134972.92748  21507486.573    21507485.9984   21507495.8744
  -5622301.503 9  -4365474.25445  23855859.712    23855859.7824   23855872.7894
 -19624873.128 9 -15277721.31948  22107215.672    22107215.8734   22107223.9914
 -21926485.200 9 -17074454.01849  20554986.631    20554986.2794   20554993.7874
 -16523021.669 9 -12852668.60447  22578510.925    22578510.4734   22578520.1804
 -15061999.722 9 -11709965.29346  22973835.605    22973835.5144   22973846.0764
 00  7 15  1 42 30.0000000  0  7  1 22 19 25 20 16 11                -.000000011
 -16328908.716 9 -12711537.59147  22280673.495    22280673.3114   22280682.3454
 -23627460.786 9 -16186511.34548  21494900.241    21494899.7114   21494909.5504
  -5709409.972 9  -4433350.78845  23839283.370    23839283.4284   23839296.4044
 -19551743.883 9 -15220737.52748  22121131.762    22121131.9294   22121140.0904
 -21967580.034 9 -17106475.95349  20547166.548    20547166.1934   20547173.7084
 -16610268.894 9 -12920653.40347  22561908.256    22561907.8164   22561917.5194
 -14978133.735 9 -11644615.31646  22989794.903    22989794.7864   22989805.3604
 00  7 15  1 43  0.0000000  0  7  1 22 19 25 20 16 11                -.000000012
 -16380705.717 9 -12751898.87647  22270816.856    22270816.6644   22270825.6904
 -23693145.249 9 -16237693.98248  21482400.863    21482400.3344   21482410.1564
  -5796327.168 9  -4501078.28745  23822743.450    23822743.3794   23822756.3764
 -19478430.193 9 -15163610.01848  22135082.936    22135083.1114   22135091.2694
 -22008216.497 9 -17138140.72149  20539433.665    20539433.3264   20539440.8414
 -16697311.781 9 -12988478.99347  22545344.567    22545344.1034   22545353.7744
 -14894115.518 9 -11579146.72546  23005783.136    23005783.0784   23005793.6134
 00  7 15  1 43 30.0000000  0  7  1 22 19 25 20 16 11                -.000000012
 -16432419.776 9 -12792195.52347  22260975.977    22260975.8074   22260984.8144
 -23758370.818 9 -16288519.04748  21469988.805    21469988.2574   21469998.0674
  -5883052.139 9  -4568656.00245  23806240.083    23806239.9834   23806252.9124
 -19404934.314 9 -15106340.53648  22149068.803    22149068.9594   22149077.1014
 -22048392.554 9 -17169446.73249  20531788.391    20531788.0394   20531795.5554
 -16784147.528 9 -13056143.16947  22528820.241    22528819.7634   22528829.4124
 -14809947.851 9 -11513561.68346  23021799.786    23021799.7204   23021810.3104
 00  7 15  1 44  0.0000000  0  7  1 22 19 25 20 16 11                -.000000013
 -16484050.941 9 -12832427.57847  22251150.870    22251150.6994   22251159.7274
 -23823134.694 9 -16338984.35048  21457664.569    21457664.0284   21457673.8254
  -5969583.917 9  -4636083.17045  23789773.463    23789773.3234   23789786.3344
 -19331258.066 9 -15048930.51747  22163088.961    22163089.1234   22163097.2864
 -22088106.056 9 -17200392.31549  20524231.154    20524230.8014   20524238.3114
 -16870773.683 9 -13123644.02647  22512335.762    22512335.2954   22512344.9374
 -14725633.877 9 -11447862.63246  23037844.297    23037844.2424   23037854.8114
 00  7 15  1 44 30.0000000  0  7  1 22 19 25 20 16 11                -.000000014
 -16535599.342 9 -12872595.14047  22241341.495    22241341.3104   22241350.3474
 -23887433.790 9 -16389087.49548  21445428.835    21445428.2894   21445438.0724
  -6055921.423 9  -4703358.97046  23773343.857    23773343.7574   23773356.6224
 -19257403.493 9 -14991381.54747  22177143.032    22177143.1934   22177151.3724
 -22127354.798 9 -17230975.74949  20516762.366    20516762.0214   20516769.5404
 -16957188.115 9 -13190979.91147  22495891.590    22495891.1294   22495900.7284
 -14641176.687 9 -11382052.00646  23053916.038    23053916.0054   23053926.6864
 00  7 15  1 45  0.0000000  0  7  1 22 19 25 20 16 11                -.000000014
 -16587064.432 9 -12912697.78047  22231547.987    22231547.8004   22231556.8384
 -23951264.518 9 -16438825.67548  21433282.196    21433281.6684   21433291.4454
  -6142063.268 9  -4770482.29546  23756951.506    23756951.5054   23756964.1584
 -19183371.905 9 -14933694.63147  22191230.831    22191230.9614   22191239.1714
 -22166136.593 9 -17261195.32949  20509382.432    20509382.0904   20509389.6014
 -17043387.594 9 -13258148.30747  22479488.362    22479487.8744   22479497.4434
 -14556578.761 9 -11316131.71646  23070014.589    23070014.5604   23070025.3234
 00  7 15  1 45 30.0000000  0  7  1 22 19 25 20 16 11                -.000000015
 -16638446.714 9 -12952735.89647  22221770.275    22221770.0694   22221779.0934
 -24014624.662 9 -16488197.16648  21421225.093    21421224.5954   21421234.3454
  -6228009.105 9  -4837452.87746  23740596.415    23740596.4674   23740609.0944
 -19109165.737 9 -14875871.68847  22205351.767    22205351.9254   22205360.1554
 -22204449.953 9 -17291049.89449  20502091.634    20502091.2984   20502098.7944
 -17129370.360 9 -13325147.81647  22463126.352    22463125.8824   22463135.4854
 -14471843.433 9 -11250104.33846  23086139.276    23086139.2684   23086150.1174
 00  7 15  1 46  0.0000000  0  7  1 22 19 25 20 16 11                -.000000015
 -16689746.153 9 -12992709.46047  22212008.270    22212008.0774   22212017.1194
 -24077511.688 9 -16537200.00448  21409258.070    21409257.5594   21409267.3164
  -6313758.166 9  -4904270.11546  23724278.750    23724278.8844   23724291.4784
 -19034786.903 9 -14817914.19347  22219505.619    22219505.7964   22219514.0144
 -22242292.939 9 -17320537.93349  20494890.340    20494890.0034   20494897.5004
 -17215134.326 9 -13391976.85247  22446805.968    22446805.5104   22446815.0834
 -14386974.057 9 -11183972.52346  23102289.475    23102289.3984   23102300.2904
 00  7 15  1 46 30.0000000  0  7  1 22 19 25 20 16 11                -.000000016
 -16740962.573 9 -13032618.33447  22202262.096    22202261.9044   22202270.9484
 -24139922.850 9 -16585832.03848  21397381.580    21397381.0714   21397390.7984
  -6399309.281 9  -4970933.13446  23707998.704    23707998.8244   23708011.4714
 -18960237.497 9 -14759823.78147  22233691.929    22233692.1254   22233700.3064
 -22279663.462 9 -17349657.82249  20487778.980    20487778.6464   20487786.1274
 -17300676.126 9 -13458632.75947  22430527.908    22430527.4494   22430536.9894
 -14301973.225 9 -11117738.25946  23118464.725    23118464.6504   23118475.4034
 00  7 15  1 47  0.0000000  0  7  1 22 19 25 20 16 11                -.000000016
 -16792095.945 9 -13072462.48947  22192531.705    22192531.5204   22192540.5344
 -24201855.074 9 -16634090.86448  21385596.221    21385595.7204   21385605.4214
  -6484661.384 9  -5037441.06546  23691756.549    23691756.6194   23691769.3934
 -18885519.370 9 -14701601.91347  22247910.353    22247910.5324   22247918.7214
 -22316559.611 9 -17378408.06949  20480757.859    20480757.5174   20480765.0054
 -17385994.113 9 -13525114.25647  22414292.384    22414291.9184   22414301.4904
 -14216844.049 9 -11051403.99446  23134664.441    23134664.3354   23134675.1064
 00  7 15  1 47 30.0000000  0  7  1 22 19 25 20 16 11                -.000000017
 -16843146.015 9 -13112241.73447  22182817.160    22182816.9864   22182826.0384
 -24263305.370 9 -16681974.15948  21373902.596    21373902.0754   21373911.7554
  -6569813.461 9  -5103793.14346  23675552.496    23675552.5574   23675565.3584
 -18810634.142 9 -14643249.82647  22262160.576    22262160.7474   22262168.8964
 -22352979.283 9 -17406787.03449  20473827.441    20473827.1044   20473834.6054
 -17471085.232 9 -13591418.98547  22398100.029    22398099.5994   22398109.1784
 -14131589.425 9 -10984971.99146  23150887.973    23150887.8344   23150898.7274
 00  7 15  1 48  0.0000000  0  7  1 22 19 25 20 16 11                -.000000017
 -16894113.098 9 -13151956.31247  22173118.443    22173118.2704   22173127.3184
 -24324271.295 9 -16729480.02748  21362301.150    21362300.6074   21362310.2914
  -6654765.205 9  -5169989.11046  23659386.518    23659386.5884   23659399.3104
 -18735584.054 9 -14584769.28647  22276442.210    22276442.4004   22276450.4964
 -22388920.872 9 -17434793.47249  20466987.974    20466987.6194   20466995.1184
 -17555947.766 9 -13657545.59547  22381951.187    22381950.7384   22381960.3214
 -14046212.916 9 -10918444.99446  23167134.721    23167134.5964   23167145.4714
 00  7 15  1 48 30.0000000  0  7  1 22 19 25 20 16 11                -.000000017
 -16944996.510 9 -13191605.70147  22163435.641    22163435.4534   22163444.5104
 -24384750.057 9 -16776606.28848  21350792.408    21350791.8454   21350801.5154
  -6739515.211 9  -5236027.87646  23643258.960    23643259.0234   23643271.7024
 -18660370.701 9 -14526161.52347  22290754.855    22290755.0414   22290763.1474
 -22424382.278 9 -17462425.74049  20460239.877    20460239.5314   20460247.0384
 -17640578.615 9 -13723491.66347  22365846.425    22365845.9874   22365855.6084
 -13960716.770 9 -10851824.77146  23183404.282    23183404.1424   23183414.9254
 00  7 15  1 49  0.0000000  0  7  1 22 19 25 20 16 11                -.000000018
 -16995796.293 9 -13231189.91747  22153768.746    22153768.5554   22153777.5874
 -24444739.270 9 -16823351.08348  21339376.804    21339376.2474   21339385.8744
  -6824062.912 9  -5301909.00946  23627169.896    23627169.9214   23627182.6414
 -18584996.403 9 -14467428.34847  22305098.150    22305098.3424   22305106.4374
 -22459361.659 9 -17489682.40749  20453583.552    20453583.2194   20453590.7144
 -17724975.379 9 -13789255.33247  22349786.222    22349785.8054   22349795.3384
 -13875104.337 9 -10785113.93946  23199695.916    23199695.8054   23199706.5874
 00  7 15  1 49 30.0000000  0  7  1 22 19 25 20 16 11                -.000000018
 -17046512.484 9 -13270708.99747  22144117.762    22144117.5574   22144126.6044
 -24504235.702 9 -16869711.88648  21328054.989    21328054.4254   21328064.0644
  -6908407.045 9  -5367631.52046  23611119.648    23611119.6534   23611132.3394
 -18509462.710 9 -14408570.96447  22319471.782    22319471.9414   22319480.0744
 -22493856.950 9 -17516561.86149  20447019.309    20447018.9834   20447026.4904
 -17809135.615 9 -13854834.69847  22333771.071    22333770.6224   22333780.1904
 -13789378.264 9 -10718314.58046  23216009.166    23216009.0214   23216019.9154
 00  7 15  1 50  0.0000000  0  7  1 22 19 25 20 16 11                -.000000019
 -17097144.920 9 -13310162.81447  22134482.681    22134482.4874   22134491.5334
 -24563236.787 9 -16915686.70548  21316827.435    21316826.8684   21316836.4904
  -6992547.242 9  -5433195.11446  23595108.144    23595108.1374   23595120.7294
 -18433771.727 9 -14349591.01547  22333875.280    22333875.4704   22333883.6484
 -22527866.604 9 -17543062.89949  20440547.480    20440547.1544   20440554.6544
 -17893056.977 9 -13920227.92247  22317801.320    22317800.8484   22317810.4154
 -13703541.962 9 -10651429.31646  23232343.394    23232343.2634   23232354.2334
 00  7 15  1 50 30.0000000  0  7  1 22 19 25 20 16 11                -.000000019
 -17147693.424 9 -13349551.22847  22124863.648    22124863.4364   22124872.4754
 -24621739.596 9 -16961273.25948  21305694.691    21305694.1154   21305703.7314
  -7076482.246 9  -5498598.84046  23579135.752    23579135.7744   23579148.1734
 -18357924.694 9 -14290489.47047  22348308.475    22348308.6884   22348316.9004
 -22561388.392 9 -17569183.78049  20434168.492    20434168.1704   20434175.6844
 -17976737.124 9 -13985433.19947  22301877.497    22301877.0324   22301886.5664
 -13617598.272 9 -10584460.37146  23248698.031    23248697.9014   23248708.9634
 00  7 15  1 51  0.0000000  0  7  1 22 19 25 20 16 11                -.000000020
 -17198158.142 9 -13388874.35447  22115260.485    22115260.2744   22115269.3164
 -24679742.272 9 -17006470.09448  21294657.083    21294656.5264   21294666.1234
  -7160211.435 9  -5563842.17546  23563202.486    23563202.4954   23563214.8454
 -18281923.880 9 -14231268.10247  22362770.994    22362771.1764   22362779.4534
 -22594420.786 9 -17594923.31549  20427882.653    20427882.3314   20427889.8544
 -18060173.506 9 -14050448.52447  22286000.074    22285999.5844   22286009.1314
 -13531550.419 9 -10517410.27146  23265072.543    23265072.4454   23265083.5114
 00  7 15  1 51 30.0000000  0  7  1 22 19 25 20 16 11                -.000000020
 -17248538.917 9 -13428132.07547  22105673.318    22105673.1214   22105682.1334
 -24737241.977 9 -17051275.00548  21283715.182    21283714.6514   21283724.2484
  -7243733.827 9  -5628924.38546  23547308.572    23547308.5784   23547320.8664
 -18205771.681 9 -14171928.76947  22377262.324    22377262.5034   22377270.7394
 -22626961.996 9 -17620280.10449  20421690.242    20421689.9184   20421697.4684
 -18143363.385 9 -14115271.76347  22270169.514    22270169.0234   22270178.6294
 -13445401.063 9 -10450281.07246  23281466.321    23281466.2564   23281477.2974
 00  7 15  1 52  0.0000000  0  7  1 22 19 25 20 16 11                -.000000020
 -17298835.679 9 -13467324.33247  22096102.156    22096101.9774   22096110.9444
 -24794235.846 9 -17095685.76348  21272869.569    21272869.0394   21272878.6164
  -7327048.668 9  -5693844.87046  23531454.123    23531454.1034   23531466.3604
 -18129469.411 9 -14112472.49847  22391782.239    22391782.4124   22391790.6114
 -22659010.114 9 -17645252.66949  20415591.684    20415591.3604   20415598.9174
 -18226304.731 9 -14179901.34347  22254386.273    22254385.7694   22254395.3344
 -13359153.160 9 -10383075.09246  23297878.908    23297878.8334   23297889.9454
 00  7 15  1 52 30.0000000  0  7  1 22 19 25 20 16 11                -.000000021
 -17349048.290 9 -13506451.01447  22086546.968    22086546.7824   22086555.7404
 -24850721.065 9 -17139700.15948  21262120.750    21262120.2414   21262129.8194
  -7410155.019 9  -5758602.90346  23515639.383    23515639.3934   23515651.4654
 -18053018.921 9 -14052900.72447  22406330.336    22406330.5204   22406338.7244
 -22690563.372 9 -17669839.62249  20409587.303    20409586.9774   20409594.5364
 -18308994.646 9 -14244335.01347  22238650.898    22238650.3834   22238659.9224
 -13272809.841 9 -10315794.75946  23314309.561    23314309.4394   23314320.7154
 00  7 15  1 53  0.0000000  0  7  1 22 19 25 20 16 11                -.000000021
 -17399176.383 9 -13545511.84447  22077007.899    22077007.7354   22077016.6544
 -24906695.125 9 -17183316.25848  21251469.211    21251468.7054   21251478.2614
  -7493051.974 9  -5823197.77646  23499864.468    23499864.5624   23499876.5144
 -17976422.006 9 -13993214.85547  22420906.261    22420906.4204   22420914.6684
 -22721619.883 9 -17694039.50349  20403677.472    20403677.1484   20403684.6984
 -18391430.990 9 -14308571.09147  22222963.707    22222963.2334   22222972.7464
 -13186374.188 9 -10248442.48946  23330757.815    23330757.6934   23330769.0284
 00  7 15  1 53 30.0000000  0  7  1 22 19 25 20 16 11                -.000000022
 -17449219.756 9 -13584506.65447  22067484.952    22067484.7684   22067493.7054
 -24962155.892 9 -17226532.38648  21240915.342    21240914.8314   21240924.3424
  -7575738.731 9  -5887628.85446  23484129.601    23484129.6264   23484141.5804
 -17899680.823 9 -13933416.57647  22435509.637    22435509.8204   22435518.0884
 -22752177.837 9 -17717850.89649  20397862.479    20397862.1444   20397869.7074
 -18473610.742 9 -14372607.22847  22207325.388    22207324.9094   22207334.4204
 -13099848.765 9 -10181020.26846  23347223.185    23347223.0844   23347234.4694
 00  7 15  1 54  0.0000000  0  7  1 22 19 25 20 16 11                -.000000022
 -17499178.119 9 -13623435.22347  22057978.152    22057977.9804   22057986.9324
 -25017100.639 9 -17269346.42048  21230459.683    21230459.1494   21230468.6624
  -7658214.190 9  -5951895.28346  23468434.949    23468434.9614   23468446.8664
 -17822796.888 9 -13873507.05447  22450140.197    22450140.3814   22450148.6644
 -22782235.219 9 -17741272.22949  20392142.734    20392142.4044   20392149.9584
 -18555531.561 9 -14436441.60247  22191736.353    22191735.8814   22191745.3564
 -13013236.509 9 -10113530.39346  23363705.068    23363704.8944   23363716.4154
 00  7 15  1 54 30.0000000  0  7  1 22 19 25 20 16 11                -.000000022
 -17549051.843 9 -13662297.83647  22048487.468    22048487.3004   22048496.2484
 -25071526.938 9 -17311756.46848  21220102.669    21220102.1394   21220111.6114
  -7740478.111 9  -6015996.89346  23452780.520    23452780.5184   23452792.4384
 -17745772.135 9 -13813487.80547  22464797.525    22464797.7144   22464806.0194
 -22811791.106 9 -17764302.78549  20386518.449    20386518.1174   20386525.6694
 -18637191.384 9 -14500072.60347  22176196.955    22176196.4994   22176205.9344
 -12926540.773 9 -10045975.46546  23380202.767    23380202.6814   23380214.2444
 00  7 15  1 55  0.0000000  0  7  1 22 19 25 20 16 11                -.000000023
 -17598840.429 9 -13701094.10948  22039013.022    22039012.8594   22039021.7564
 -25125431.812 9 -17353760.21048  21209844.871    21209844.3204   21209853.8144
  -7822529.488 9  -6079932.88746  23437166.537    23437166.5584   23437178.4184
 -17668608.427 9 -13753360.28847  22479481.274    22479481.4794   22479489.8504
 -22840843.315 9 -17786940.86549  20380990.011    20380989.6744   20380997.2264
 -18718587.495 9 -14563498.11247  22160707.773    22160707.3414   22160716.7644
 -12839764.476 9  -9978357.76746  23396715.820    23396715.6904   23396727.4664
 00  7 15  1 55 30.0000000  0  7  1 22 19 25 20 16 11                -.000000023
 -17648543.970 9 -13739824.11148  22029554.738    22029554.5774   22029563.4694
 -25178813.218 9 -17395356.04148  21199686.667    21199686.1134   21199695.5904
  -7904367.752 9  -6143702.81746  23421593.149    23421593.1794   23421604.9274
 -17591307.770 9 -13693126.04547  22494191.077    22494191.2864   22494199.7104
 -22869390.304 9 -17809185.26249  20375557.700    20375557.3454   20375564.9264
 -18799717.585 9 -14626716.33447  22145269.229    22145268.7804   22145278.1714
 -12752910.579 9  -9910679.59546  23413243.744    23413243.7084   23413255.4344
 00  7 15  1 56  0.0000000  0  7  1 22 19 25 20 16 11                -.000000023
 -17698162.010 9 -13778487.48948  22020112.689    22020112.5234   22020121.4284
 -25231668.898 9 -17436542.23148  21189628.538    21189627.9964   21189637.4544
  -7985991.637 9  -6207305.70846  23406060.464    23406060.5124   23406072.2154
 -17513871.630 9 -13632786.23747  22508926.705    22508926.9044   22508935.4014
 -22897430.190 9 -17831034.51649  20370221.859    20370221.5194   20370229.0894
 -18880578.769 9 -14689725.01547  22129881.829    22129881.3924   22129890.7534
 -12665981.799 9  -9842943.06546  23429785.945    23429785.8464   23429797.6074
 00  7 15  1 56 30.0000000  0  7  1 22 19 25 20 16 11                -.000000023
 -17747694.767 9 -13817084.41648  22010686.915    22010686.7494   22010695.6374
 -25283996.514 9 -17477316.94048  21179670.884    21179670.3294   21179679.7874
  -8067401.156 9  -6270741.56146  23390568.626    23390568.6964   23390580.3624
 -17436302.218 9 -13572342.58047  22523687.750    22523687.9354   22523696.4384
 -22924961.691 9 -17852487.62649  20364982.774    20364982.4464   20364989.9964
 -18961168.902 9 -14752522.48447  22114546.001    22114545.5594   22114554.9114
 -12578981.570 9  -9775150.85146  23446341.683    23446341.5564   23446353.2984
 00  7 15  1 57  0.0000000  0  7  1 22 19 25 20 16 11                -.000000023
 -17797141.850 9 -13855614.58448  22001277.421    22001277.2434   22001286.1364
 -25335793.139 9 -17517677.89648  21169814.286    21169813.7234   21169823.1784
  -8148595.071 9  -6334009.40846  23375117.816    23375117.8834   23375129.5604
 -17358601.214 9 -13511796.38647  22538473.835    22538474.0094   22538482.4634
 -22951982.955 9 -17873543.14849  20359840.817    20359840.4664   20359848.0444
 -19041485.154 9 -14815106.54647  22099262.305    22099261.8704   22099271.2314
 -12491912.520 9  -9707305.02646  23462910.495    23462910.4044   23462922.2104
 00  7 15  1 57 30.0000000  0  7  1 22 19 25 20 16 11                -.000000023
 -17846503.142 9 -13894077.90048  21991884.226    21991884.0664   21991892.9304
 -25387056.359 9 -17557623.21248  21160059.126    21160058.5764   21160068.0344
  -8229573.009 9  -6397108.96046  23359708.102    23359708.1414   23359719.8414
 -17280770.146 9 -13451148.84147  22553284.639    22553284.7964   22553293.2614
 -22978492.234 9 -17894199.71849  20354796.245    20354795.9084   20354803.4734
 -19121525.396 9 -14877475.54047  22084031.155    22084030.7144   22084040.0794
 -12404777.455 9  -9639407.75746  23479491.954    23479491.7564   23479503.6424
 00  7 15  1 58  0.0000000  0  7  1 22 19 25 20 16 11                -.000000024
 -17895778.244 9 -13932474.05248  21982507.465    21982507.2874   21982516.1684
 -25437783.837 9 -17597151.06148  21150405.999    21150405.4394   21150414.8804
  -8310333.783 9  -6460039.30346  23344339.718    23344339.7804   23344351.4534
 -17202810.947 9 -13390401.44847  22568119.854    22568120.0054   22568128.4064
 -23004487.733 9 -17914455.94149  20349849.457    20349849.1334   20349856.6994
 -19201287.119 9 -14939627.50447  22068852.970    22068852.5414   22068861.9154
 -12317579.278 9  -9571461.28146  23496085.419    23496085.2294   23496096.9984
 00  7 15  1 58 30.0000000  0  7  1 22 19 25 20 16 11                -.000000024
 -17944966.859 9 -13970802.81648  21973147.151    21973146.9874   21973155.8934
 -25487973.613 9 -17636259.92748  21140855.142    21140854.6014   21140863.9964
  -8390876.662 9  -6522799.85646  23329012.804    23329012.8514   23329024.5454
 -17124725.542 9 -13329555.72147  22582979.034    22582979.1694   22582987.5944
 -23029968.019 9 -17934310.69949  20345000.719    20345000.3794   20345007.9504
 -19280766.981 9 -15001559.82547  22053728.400    22053727.9724   22053737.3474
 -12230321.017 9  -9503468.01146  23512690.302    23512690.1534   23512701.8684
 00  7 15  1 59  0.0000000  0  7  1 22 19 25 20 16 11                -.000000024
 -17994068.685 9 -14009063.93948  21963803.356    21963803.1864   21963812.1184
 -25537622.894 9 -17674947.61948  21131407.166    21131406.6024   21131415.9994
  -8471200.569 9  -6585389.79246  23313727.580    23313727.6834   23313739.2784
 -17046515.315 9 -13268612.72947  22597861.916    22597862.0764   22597870.5204
 -23054931.405 9 -17953762.67849  20340250.360    20340250.0284   20340257.5784
 -19359963.163 9 -15063271.10347  22038657.852    22038657.4254   22038666.7894
 -12143005.314 9  -9435429.95746  23529306.039    23529305.8904   23529317.5754
 00  7 15  1 59 30.0000000  0  7  1 22 19 25 20 16 11                -.000000024
 -18043083.646 9 -14047257.39848  21954476.094    21954475.9434   21954484.8234
 -25586729.345 9 -17713212.32648  21122062.488    21122061.9214   21122071.2854
  -8551305.184 9  -6647808.84446  23298484.042    23298484.1054   23298495.7614
 -16968182.085 9 -13207573.88447  22612768.251    22612768.4264   22612776.8444
 -23079376.378 9 -17972810.69749  20335598.629    20335598.2984   20335605.8294
 -19438872.706 9 -15124759.01747  22023641.835    22023641.3904   22023650.7534
 -12055635.471 9  -9367349.74345  23545932.139    23545931.8704   23545943.6384
 00  7 15  2  0  0.0000000  0  7  1 22 19 25 20 16 11                -.000000025
 -18092011.646 9 -14085383.08448  21945165.379    21945165.2184   21945174.1014
 -25635290.554 9 -17751052.17748  21112821.528    21112820.9684   21112830.3274
  -8631189.800 9  -6710056.47746  23283282.407    23283282.4604   23283294.1314
 -16889727.964 9 -13146440.83847  22627697.563    22627697.7414   22627706.1904
 -23103301.451 9 -17991453.60349  20331045.827    20331045.4804   20331053.0074
 -19517493.571 9 -15186021.99247  22008680.776    22008680.3284   22008689.6754
 -11968214.392 9  -9299229.59445  23562567.972    23562567.7434   23562579.4884
 00  7 15  2  0 30.0000000  0  7  1 22 19 25 20 16 11                -.000000025
 -18140852.279 9 -14123440.68948  21935871.323    21935871.1424   21935880.0404
 -25683304.598 9 -17788465.65948  21103684.713    21103684.1644   21103693.5124
  -8710853.722 9  -6772132.12946  23268122.721    23268122.7644   23268134.4564
 -16811154.457 9 -13085214.76447  22642649.677    22642649.8394   22642658.2904
 -23126704.782 9 -18009689.95849  20326592.314    20326591.9734   20326599.4924
 -19595823.106 9 -15247057.95547  21993775.159    21993774.7074   21993784.0774
 -11880744.767 9  -9231071.63445  23579213.049    23579212.8204   23579224.6474
 00  7 15  2  1  0.0000000  0  7  1 22 19 25 20 16 11                -.000000025
 -18189605.012 9 -14161429.80248  21926593.944    21926593.7754   21926602.6664
 -25730769.199 9 -17825451.00648  21094652.434    21094651.8964   21094661.2354
  -8790296.252 9  -6834035.28546  23253005.217    23253005.2794   23253016.9254
 -16732463.084 9 -13023896.86147  22657624.230    22657624.3634   22657632.7774
 -23149585.020 9 -18027518.71049  20322238.373    20322238.0374   20322245.5264
 -19673858.337 9 -15307864.59147  21978925.525    21978925.0574   21978934.4544
 -11793229.310 9  -9162877.96145  23595866.790    23595866.6514   23595878.4094
 00  7 15  2  1 30.0000000  0  7  1 22 19 25 20 16 11                -.000000025
 -18238269.879 9 -14199350.44448  21917333.345    21917333.1564   21917342.0064
 -25777682.161 9 -17862006.50748  21085725.172    21085724.6174   21085733.9514
  -8869516.796 9  -6895765.45046  23237929.952    23237930.0464   23237941.6594
 -16653655.907 9 -12962488.71047  22672620.801    22672620.9214   22672629.3324
 -23171940.692 9 -18044938.71049  20317984.244    20317983.8924   20317991.3764
 -19751597.240 9 -15368440.32347  21964132.250    21964131.7984   21964141.1684
 -11705671.187 8  -9094651.03745  23612528.607    23612528.3974   23612540.4334
 00  7 15  2  2  0.0000000  0  8  1 22 19 25 20 16  4 11             -.000000025
 -18286846.707 9 -14237202.49548  21908089.494    21908089.2854   21908098.1064
 -25824040.937 9 -17898130.17948  21076903.365    21076902.8144   21076912.1094
  -8948514.505 9  -6957321.98046  23222897.139    23222897.2334   23222908.7564
 -16574734.372 9 -12900991.45447  22687639.068    22687639.2044   22687647.6474
 -23193770.470 9 -18061948.92449  20313830.167    20313829.8184   20313837.2934
 -19829037.337 9 -15428783.21147  21949395.891    21949395.4304   21949404.8014
   -254537.753 9   -185902.88344          .000            .0004   25663488.2624
 -11618073.357 8  -9026393.20345  23629198.022    23629197.7364   23629209.9914
 00  7 15  2  2 30.0000000  0  8  1 22 19 25 20 16  4 11             -.000000026
 -18335335.258 9 -14274985.75748  21898862.389    21898862.1734   21898870.9734
 -25869843.314 9 -17933820.29048  21068187.432    21068186.8584   21068196.1384
  -9027288.630 9  -7018704.29746  23207906.816    23207906.9004   23207918.3784
 -16495700.702 9 -12839406.81647  22702678.662    22702678.8224   22702687.3114
 -23215072.944 9 -18078548.25349  20309776.431    20309776.0854   20309783.5494
 -19906175.865 9 -15488891.11947  21934716.846    21934716.3824   21934725.7504
   -313337.053 8   -231720.38945  25652289.182    25652289.0604   25652298.8794
 -11530438.652 8  -8958106.61745  23645874.516    23645874.2914   23645886.3814
 00  7 15  2  3  0.0000000  0  8  1 22 19 25 20 16  4 11             -.000000026
 -18383735.366 9 -14312700.09948  21889652.129    21889651.9194   21889660.7064
 -25915087.705 9 -17969075.60748  21059577.686    21059577.0984   21059586.3654
  -9105838.635 9  -7079911.97446  23192959.186    23192959.2194   23192970.6494
 -16416556.068 9 -12777735.71847  22717739.390    22717739.5464   22717748.1084
 -23235846.593 9 -18094735.51249  20305823.344    20305823.0114   20305830.4604
 -19983010.824 9 -15548762.47148  21920095.607    21920095.1744   21920104.5134
   -371728.127 8   -277219.88745  25641177.303    25641175.7534   25641189.0244
 -11442770.199 8  -8889793.73545  23662557.369    23662557.2124   23662569.4244
 00  7 15  2  3 30.0000000  0  8  1 22 19 25 20 16  4 11             -.000000026
 -18432047.006 9 -14350345.50748  21880458.699    21880458.4944   21880467.2554
 -25959772.483 9 -18003894.86148  21051074.396    21051073.8254   21051083.0884
  -9184164.386 9  -7140944.90146  23178054.257    23178054.2874   23178065.6064
 -16337303.033 9 -12715980.14947  22732820.773    22732820.9454   22732829.5284
 -23256090.232 9 -18110509.77749  20301971.108    20301970.7584   20301978.2194
 -20059539.601 9 -15608395.24548  21905532.647    21905532.1964   21905541.5314
   -429709.421 8   -322400.14945  25630143.550    25630143.9214   25630154.8744
 -11355071.066 9  -8821456.95045  23679246.095    23679245.9194   23679258.2454
 00  7 15  2  4  0.0000000  0  8  1 22 19 25 20 16  4 11             -.000000026
 -18480269.051 9 -14387921.09748  21871282.328    21871282.1174   21871290.8994
 -26003894.173 9 -18038275.34748  21042678.248    21042677.7174   21042686.9834
  -9262264.329 9  -7201801.89546  23163192.230    23163192.2854   23163203.4974
 -16257942.108 9 -12654140.51647  22747922.733    22747922.8904   22747931.4354
 -23275801.711 9 -18125869.37249  20298220.140    20298219.8054   20298227.2594
 -20135759.192 9 -15667787.09048  21891028.507    21891028.0774   21891037.3744
   -487278.657 8   -367259.27345  25619188.438    25619188.2064   25619199.5024
 -11267343.259 9  -8753097.82345  23695940.271    23695940.1114   23695952.5254
 00  7 15  2  4 30.0000000  0  8  1 22 19 25 20 16  4 11             -.000000026
 -18528401.890 9 -14425427.17348  21862122.915    21862122.7174   21862131.5174
 -26047451.278 9 -18072215.89048  21034389.561    21034389.0254   21034398.2734
  -9340138.405 9  -7262482.87646  23148373.204    23148373.2154   23148384.4424
 -16178476.040 9 -12592218.95047  22763044.733    22763044.8424   22763053.4214
 -23294980.379 9 -18140813.79949  20294570.555    20294570.2114   20294577.6654
 -20211667.384 9 -15726936.28848  21876583.609    21876583.1664   21876592.4814
   -544434.748 8   -411796.45745  25608311.920    25608311.8444   25608322.9674
 -11179590.403 9  -8684719.17945  23712639.310    23712639.1714   23712651.5364
 00  7 15  2  5  0.0000000  0  8  1 22 19 25 20 16  4 11             -.000000026
 -18576445.076 9 -14462863.39148  21852980.613    21852980.4164   21852989.2234
 -26090441.562 9 -18105714.75848  21026208.767    21026208.2194   21026217.4654
  -9417785.753 9  -7322987.19346  23133597.324    23133597.3544   23133608.5144
 -16098905.883 9 -12530216.27747  22778186.480    22778186.5794   22778195.1374
 -23313624.460 9 -18155341.65949  20291022.702    20291022.3584   20291029.7994
 -20287261.701 9 -15785840.90748  21862198.459    21862198.0254   21862207.3514
   -601176.136 8   -456010.47945  25597514.324    25597514.4184   25597525.2644
 -11091814.926 9  -8616322.90945  23729342.544    23729342.4574   23729354.9154
 00  7 15  2  5 30.0000000  0  8  1 22 19 25 20 16  4 11             -.000000026
 -18624398.181 9 -14500229.42548  21843855.414    21843855.2044   21843864.0294
 -26132862.997 9 -18138770.37248  21018136.211    21018135.6684   21018144.8784
  -9495205.590 9  -7383314.22946  23118864.691    23118864.7534   23118875.8924
 -16019233.118 9 -12468133.64247  22793347.701    22793347.8244   22793356.3864
 -23331732.565 9 -18169451.88049  20287576.844    20287576.4834   20287583.9454
 -20362539.157 9 -15844498.63048  21847873.590    21847873.1824   21847882.4884
   -657500.642 8   -499899.68145  25586796.079    25586796.2804   25586806.9434
 -11004019.622 9  -8547911.18246  23746049.594    23746049.5224   23746062.0354
 00  7 15  2  6  0.0000000  0  8  1 22 19 25 20 16  4 11             -.000000026
 -18672260.749 9 -14537524.91848  21834747.459    21834747.2494   21834756.0394
 -26174714.028 9 -18171381.51648  21010172.193    21010171.6514   21010180.8344
  -9572397.459 9  -7443463.61846  23104175.495    23104175.5324   23104186.6414
 -15939459.907 9 -12405972.74447  22808528.027    22808528.1954   22808536.7944
 -23349303.548 9 -18183143.56549  20284233.225    20284232.8684   20284240.3324
 -20437497.676 9 -15902907.82748  21833609.430    21833609.0174   21833618.2854
   -713407.083 8   -543463.14145  25576157.478    25576157.9344   25576168.2564
 -10916207.440 9  -8479486.31446  23762759.870    23762759.8634   23762772.4374
 00  7 15  2  6 30.0000000  0  8  1 22 19 25 20 16  4 11             -.000000026
 -18720032.560 9 -14574749.69048  21825656.769    21825656.5924   21825665.3334
 -26215991.987 9 -18203546.11348  21002317.227    21002316.6694   21002325.8564
  -9649360.507 9  -7503434.70046  23089529.811    23089529.8714   23089540.9974
 -15859587.795 9 -12343734.77847  22823727.163    22823727.3724   22823735.9664
 -23366335.848 9 -18196415.49749  20280992.049    20280991.7024   20280999.1664
 -20512134.795 9 -15961066.57948  21819406.433    21819406.0004   21819415.2924
   -768893.679 8   -586699.39245  25565598.738    25565599.0644   25565609.7344
 -10828381.286 9  -8411050.55546  23779472.850    23779472.8334   23779485.3484
 00  7 15  2  7  0.0000000  0  8  1 22 19 25 20 16  4 11             -.000000027
 -18767713.675 9 -14611903.78348  21816583.350    21816583.1644   21816591.9134
 -26256695.198 9 -18235262.85548  20994571.610    20994571.0714   20994580.2524
  -9726094.618 9  -7563227.40146  23074927.677    23074927.7704   23074938.8694
 -15779618.500 9 -12281421.09147  22838944.866    22838945.0484   22838953.6934
 -23382828.659 9 -18209267.05049  20277853.591    20277853.2544   20277860.7134
 -20586447.778 9 -16018972.76848  21805265.128    21805264.7004   21805273.9684
   -823959.267 8   -629607.59645  25555120.099    25555120.5884   25555131.0304
 -10740544.392 9  -8342606.43045  23796187.841    23796187.7124   23796200.3624
 00  7 15  2  7 30.0000000  0  8  1 22 19 25 20 16  4 11             -.000000027
 -18815303.411 9 -14648986.68048  21807527.287    21807527.0934   21807535.8584
 -26296821.555 9 -18266530.10248  20986935.751    20986935.2474   20986944.4124
  -9802599.148 9  -7622841.19546  23060369.257    23060369.3394   23060380.4564
 -15699553.550 9 -12219032.86547  22854180.774    22854180.9194   22854189.5364
 -23398780.392 9 -18221696.98149  20274818.064    20274817.7364   20274825.1884
 -20660434.299 9 -16076624.56748  21791185.906    21791185.4864   21791194.7434
   -878601.922 8   -672186.27745  25544721.916    25544722.6584   25544732.2074
 -10652698.993 9  -8274155.65545  23812904.361    23812904.1894   23812916.8694
 00  7 15  2  8  0.0000000  0  8  1 22 19 25 20 16  4 11             -.000000026
 -18862801.378 9 -14685998.06348  21798488.719    21798488.5314   21798497.2724
 -26336369.506 9 -18297346.64048  20979409.966    20979409.4574   20979418.6294
  -9878873.188 9  -7682275.40646  23045854.740    23045854.8174   23045865.8624
 -15619394.624 9 -12156571.40947  22869434.614    22869434.7604   22869443.3304
 -23414189.730 9 -18233704.26849  20271885.811    20271885.4664   20271892.9244
 -20734091.854 9 -16134020.03748  21777169.317    21777168.9104   21777178.1494
   -932820.045 7   -714434.19144  25534404.271    25534404.6204   25534414.5924
 -10564848.343 9  -8205700.77945  23829621.999    23829621.8854   23829634.4954
 00  7 15  2  8 30.0000000  0  8  1 22 19 25 20 16  4 11             -.000000027
 -18910207.238 9 -14722937.68248  21789467.650    21789467.4664   21789476.1844
 -26375337.177 9 -18327711.01748  20971994.661    20971994.1414   20972003.2794
  -9954916.278 9  -7741529.65346  23031384.151    23031384.2454   23031395.1914
 -15539143.417 9 -12094038.05747  22884705.975    22884706.1084   22884714.6444
 -23429055.475 9 -18245287.97449  20269056.968    20269056.6144   20269064.0734
 -20807417.767 9 -16191157.07548  21763215.866    21763215.4394   21763224.6864
   -986612.250 8   -756350.12544  25524167.753    25524167.9084   25524178.2934
 -10476995.016 9  -8137243.83545  23846340.090    23846339.9224   23846352.5344
 00  7 15  2  9  0.0000000  0  8  1 22 19 25 20 16  4 11             -.000000027
 -18957520.639 9 -14759805.25148  21780464.229    21780464.0294   21780472.7504
 -26413722.148 9 -18357621.34048  20964690.208    20964689.6974   20964698.8094
 -10030727.812 9  -7800603.46646  23016957.639    23016957.6724   23016968.5914
 -15458801.487 9 -12031434.00047  22899994.527    22899994.6644   22900003.2524
 -23443376.339 9 -18256447.09849  20266331.778    20266331.4414   20266338.8834
 -20880409.605 9 -16248033.79548  21749325.932    21749325.5254   21749334.7444
  -1039977.068 8   -797933.06644  25514012.939    25514013.0464   25514023.8164
 -10389141.722 9  -8068786.90845  23863058.047    23863057.9984   23863070.5474
 00  7 15  2  9 30.0000000  0  8  1 22 19 25 20 16  4 11             -.000000027
 -19004741.128 9 -14796600.42848  21771478.452    21771478.2794   21771486.9694
 -26451522.444 9 -18387076.07448  20957497.019    20957496.4874   20957505.5984
 -10106307.074 9  -7859496.29646  23002575.240    23002575.3084   23002586.1724
 -15378370.295 9 -11968760.39447  22915300.093    22915300.2784   22915308.8524
 -23457150.931 9 -18267180.55649  20263710.594    20263710.2454   20263717.6934
 -20953064.534 9 -16304648.00148  21735500.167    21735499.7274   21735508.9514
  -1092912.755 7   -839181.64044  25503939.677    25503940.1674   25503950.6034
 -10301291.352 9  -8000332.26545  23879775.567    23879775.4554   23879787.9294
 00  7 15  2 10  0.0000000  0  8  1 22 19 25 20 16  4 11             -.000000028
 -19051868.341 9 -14833322.92048  21762510.456    21762510.2784   21762518.9754
 -26488736.456 9 -18416073.96648  20950415.405    20950414.8504   20950423.9394
 -10181653.818 9  -7918207.92946  22988237.122    22988237.1954   22988247.9894
 -15297851.351 9 -11906018.40247  22930622.339    22930622.5604   22930631.1594
 -23470378.292 9 -18277487.59649  20261193.524    20261193.1684   20261200.6174
 -21025380.218 9 -16360997.85648  21721738.927    21721738.4734   21721747.6894
  -1145417.951 8   -880094.75044  25493948.372    25493948.9864   25493958.8924
 -10213446.609 8  -7931882.03645  23896492.002    23896491.7534   23896504.3434
 00  7 15  2 10 30.0000000  0  8  1 22 19 25 20 16  4 11             -.000000028
 -19098901.885 9 -14869972.42248  21753560.233    21753560.0444   21753568.7744
 -26525362.744 9 -18444613.89348  20943445.648    20943445.0954   20943454.1394
 -10256767.431 9  -7976737.92246  22973943.385    22973943.4504   22973954.2864
 -15217246.333 9 -11843209.33847  22945961.053    22945961.2414   22945969.8574
 -23483057.190 9 -18287367.26949  20258780.816    20258780.4484   20258787.9264
 -21097354.613 9 -16417081.77448  21708042.639    21708042.1954   21708051.3884
  -1197490.946 8   -920671.11644  25484039.160    25484039.8084   25484049.8504
 -10125610.509 8  -7863438.49145  23913206.747    23913206.4514   23913219.3364
 00  7 15  2 11  0.0000000  0  8  1 22 19 25 20 16  4 11             -.000000028
 -19145841.798 9 -14906548.95748  21744627.835    21744627.6484   21744636.4014
 -26561399.693 9 -18472694.58248  20936588.006    20936587.4524   20936596.5044
 -10331647.429 9  -8035085.87046  22959694.110    22959694.1744   22959705.0214
 -15136557.057 9 -11780334.62947  22961315.755    22961315.8724   22961324.5634
 -23495186.730 9 -18296818.86149  20256472.638    20256472.2964   20256479.7664
 -21168984.765 9 -16472897.45748  21694411.816    21694411.3824   21694420.5824
  -1249130.815 7   -960909.93944  25474212.229    25474212.8074   25474223.3394
 -10037785.731 8  -7795003.82145  23929919.290    23929918.9914   23929932.1074
 00  7 15  2 11 30.0000000  0  8  1 22 19 25 20 16  4 11             -.000000028
 -19192687.411 9 -14943052.01748  21735713.415    21735713.2294   21735721.9294
 -26596844.679 9 -18500314.00848  20929843.008    20929842.4624   20929851.5124
 -10406292.954 9  -8093251.10546  22945489.481    22945489.5394   22945500.3644
 -15055785.072 9 -11717395.46647  22976686.155    22976686.3114   22976694.9604
 -23506765.406 9 -18305841.21449  20254269.291    20254268.9514   20254276.4114
 -21240268.224 9 -16528442.98648  21680847.028    21680846.5924   21680855.8004
  -1300335.515 8  -1000809.70844  25464468.256    25464469.1854   25464479.0884
  -9949974.941 8  -7726580.03545  23946629.284    23946628.9944   23946642.1904
 00  7 15  2 12  0.0000000  0  8  1 22 19 25 20 16  4 11             -.000000028
 -19239438.608 9 -14979481.50548  21726816.949    21726816.7684   21726825.4444
 -26631696.432 9 -18527471.16848  20923210.880    20923210.3534   20923219.4214
 -10480704.041 9  -8151233.66646  22931329.481    22931329.5014   22931340.3624
 -14974932.229 9 -11654393.29347  22992071.967    22992072.1104   22992080.7884
 -23517792.552 9 -18314433.80049  20252170.900    20252170.5744   20252178.0344
 -21311202.674 9 -16583716.56448  21667348.611    21667348.1674   21667357.3704
  -1351104.373 8  -1040369.88844  25454807.477    25454808.0734   25454818.6254
  -9862181.152 8  -7658169.50745  23963336.080    23963335.7884   23963349.2574
 00  7 15  2 12 30.0000000  0  8  1 22 19 25 20 16  4 11             -.000000028
 -19286094.494 9 -15015836.71748  21717938.645    21717938.4644   21717947.1204
 -26665953.151 9 -18554164.66248  20916692.013    20916691.4864   20916700.5434
 -10554880.083 9  -8209033.07646  22917214.187    22917214.1934   22917224.9884
 -14893999.380 9 -11591328.78447  23007472.978    23007473.1684   23007481.8204
 -23528266.732 9 -18322595.51049  20250177.718    20250177.3644   20250184.8544
 -21381785.405 9 -16638716.06648  21653917.122    21653916.6864   21653925.9134
  -1401435.335 8  -1079588.82644  25445229.742    25445230.1654   25445241.2644
  -9774406.974 8  -7589774.24245  23980039.130    23980038.9144   23980052.2314
 00  7 15  2 13  0.0000000  0  8  1 22 19 25 20 16  4 11             -.000000028
 -19332654.725 9 -15052117.39748  21709078.465    21709078.2984   21709087.0124
 -26699613.499 9 -18580393.45748  20910286.623    20910286.0904   20910295.1274
 -10628820.313 9  -8266648.73846  22903143.780    22903143.8144   22903154.5174
 -14812988.127 9 -11528203.18147  23022888.918    23022889.1064   23022897.7854
 -23538186.960 9 -18330325.56449  20248289.977    20248289.6314   20248297.1124
 -21452014.167 9 -16693439.75248  21640553.023    21640552.5874   21640561.7814
  -1451327.243 8  -1118465.64344  25435735.747    25435735.8364   25435747.0924
  -9686655.278 9  -7521396.48945  23996737.897    23996737.6344   23996750.8434
 00  7 15  2 13 30.0000000  0  8  1 22 19 25 20 16  4 11             -.000000028
 -19379119.163 9 -15088323.43348  21700236.563    21700236.3894   21700245.1174
 -26732675.891 9 -18606156.31148  20903995.042    20903994.5064   20904003.5144
 -10702524.249 9  -8324080.28546  22889118.320    22889118.3134   22889129.0324
 -14731900.421 9 -11465017.99847  23038319.404    23038319.6434   23038328.2624
 -23547552.486 9 -18337623.38149  20246507.795    20246507.4554   20246514.9514
 -21521886.471 9 -16747885.68148  21627256.769    21627256.3424   21627265.5084
  -1500779.034 8  -1156999.51844  25426325.337    25426325.3134   25426336.6724
  -9598928.932 8  -7453038.49345  24013431.866    24013431.6674   24013444.8974
 00  7 15  2 14  0.0000000  0  8  1 22 19 25 20 16  4 11             -.000000028
 -19425487.325 9 -15124454.44748  21691412.988    21691412.7974   21691421.5094
 -26765138.333 9 -18631451.67648  20897817.630    20897817.0724   20897826.0764
 -10775991.425 9  -8381327.33846  22875137.872    22875137.9124   22875148.6214
 -14650738.130 9 -11401774.70647  23053764.178    23053764.3914   23053773.0684
 -23556362.138 9 -18344488.05049  20244831.377    20244831.0354   20244838.5194
 -21591399.587 9 -16802051.72248  21614028.804    21614028.3894   21614037.5514
  -1549788.966 8  -1195189.03144  25416999.003    25416998.7894   25417010.5164
  -9511230.473 8  -7384702.23345  24030120.471    24030120.1944   24030133.6394
 00  7 15  2 14 30.0000000  0  8  1 22 19 25 20 16  4 11             -.000000028
 -19471758.640 9 -15160510.00548  21682607.859    21682607.6734   21682616.3624
 -26796998.965 9 -18656278.10248  20891754.699    20891754.1604   20891763.1474
 -10849221.568 9  -8438389.69546  22861202.559    22861202.5894   22861213.2944
 -14569502.765 9 -11338474.46647  23069222.840    23069223.0294   23069231.6694
 -23564615.027 9 -18350918.87649  20243260.901    20243260.5824   20243268.0514
 -21660551.359 9 -16855936.19148  21600869.643    21600869.2294   21600878.4124
  -1598355.841 8  -1233033.37044  25407757.141    25407756.8564   25407768.2674
  -9423562.609 8  -7316389.81945  24046803.205    24046803.1044   24046816.4954
 00  7 15  2 15  0.0000000  0  8  1 22 19 25 20 16  4 11             -.000000028
 -19517932.682 9 -15196489.75748  21673821.203    21673820.9964   21673829.7024
 -26828256.556 9 -18680634.63148  20885806.535    20885805.9974   20885814.9804
 -10922214.041 9  -8495266.85046  22847312.500    22847312.5254   22847323.1884
 -14488195.356 9 -11275118.08847  23084695.177    23084695.3484   23084703.9664
 -23572309.953 9 -18356914.92749  20241796.593    20241796.2664   20241803.7444
 -21729338.951 9 -16909536.88548  21587779.775    21587779.3514   21587788.5374
  -1646478.071 8  -1270531.22444  25398599.581    25398599.3754   25398610.3304
  -9335928.237 9  -7248103.48545  24063479.678    24063479.5594   24063492.9674
 00  7 15  2 15 30.0000000  0  8  1 22 19 25 20 16  4 11             -.000000028
 -19564008.903 9 -15232393.28448  21665053.180    21665052.9764   21665061.6804
 -26858909.841 9 -18704520.25948  20879973.361    20879972.8364   20879981.8134
 -10994968.221 9  -8551958.32346  22833467.764    22833467.7594   22833478.4414
 -14406817.367 9 -11211706.71247  23100180.883    23100181.1074   23100189.7194
 -23579445.892 9 -18362475.40249  20240438.679    20240438.3464   20240445.8484
 -21797760.124 9 -16962852.05448  21574759.654    21574759.2254   21574768.3984
  -1694154.708 8  -1307681.79945  25389527.089    25389527.0364   25389538.0124
  -9248329.920 9  -7179845.25945  24080149.311    24080149.0794   24080162.5984
 00  7 15  2 16  0.0000000  0  8  1 22 19 25 20 16  4 11             -.000000028
 -19609986.919 9 -15268220.28948  21656303.815    21656303.6334   21656312.2914
 -26888956.826 9 -18727933.44448  20874255.590    20874255.0644   20874264.0494
 -11067483.782 9  -8608463.85446  22819668.432    22819668.4324   22819679.1214
 -14325370.284 9 -11148241.49947  23115679.772    23115679.9984   23115688.6454
 -23586021.861 9 -18367599.53749  20239187.315    20239186.9624   20239194.4684
 -21865812.369 9 -17015879.74748  21561809.728    21561809.3004   21561818.4714
  -1741384.330 8  -1344484.13544  25380539.624    25380539.7184   25380550.4634
  -9160770.264 9  -7111617.13745  24096811.573    24096811.4344   24096824.8724
 00  7 15  2 16 30.0000000  0  8  1 22 19 25 20 16  4 11             -.000000028
 -19655866.347 9 -15303970.46648  21647573.218    21647573.0374   21647581.7104
 -26918396.152 9 -18750873.13548  20868653.454    20868652.9224   20868661.8934
 -11139760.379 9  -8664783.18546  22805914.583    22805914.5744   22805925.2984
 -14243856.068 9 -11084723.97747  23131191.428    23131191.6194   23131200.3804
 -23592037.390 9 -18372286.96849  20238042.614    20238042.2754   20238049.7694
 -21933493.030 9 -17068617.89148  21548930.518    21548930.0764   21548939.2364
  -1788165.492 8  -1380936.92144  25371637.462    25371637.5484   25371648.2194
  -9073252.371 8  -7043421.57745  24113465.769    24113465.5454   24113479.3174
 00  7 15  2 17  0.0000000  0  8  1 22 19 25 20 16  4 11             -.000000028
 -19701646.547 9 -15339643.32848  21638861.557    21638861.3684   21638870.0214
 -26947225.930 9 -18773337.85348  20863167.305    20863166.7404   20863175.7404
 -11211797.253 9  -8720915.71146  22792206.360    22792206.3444   22792217.0304
 -14162275.880 9 -11021155.04947  23146715.688    23146715.8324   23146724.6254
 -23597491.095 9 -18376536.61349  20237004.802    20237004.4734   20237011.9604
 -22000799.717 9 -17121064.62248  21536122.439    21536122.0134   21536131.1544
  -1834496.898 8  -1417039.19045  25362820.871    25362821.1944   25362831.5104
  -8985778.579 8  -6975260.39745  24130111.639    24130111.5214   24130125.1764
 00  7 15  2 17 30.0000000  0  8  1 22 19 25 20 16  4 11             -.000000028
 -19747327.382 9 -15375238.75448  21630168.773    21630168.5664   21630177.2594
 -26975445.348 9 -18795326.96848  20857797.303    20857796.7384   20857805.7104
 -11283594.347 9  -8776861.40646  22778543.699    22778543.6834   22778554.3954
 -14080631.205 9 -10957535.86846  23162252.217    23162252.3364   23162261.1554
 -23602382.418 9 -18380348.03549  20236074.008    20236073.6684   20236081.1644
 -22067730.045 9 -17173218.09248  21523386.042    21523385.6004   21523394.7354
  -1880377.773 8  -1452790.48145  25354089.868    25354089.9424   25354100.8894
  -8898351.866 8  -6907135.88745  24146748.514    24146748.4034   24146762.1654
 00  7 15  2 18  0.0000000  0  8  1 22 19 25 20 16  4 11             -.000000028
 -19792907.968 9 -15410756.06348  21621495.030    21621494.8314   21621503.5314
 -27003053.039 9 -18816839.41048  20852543.703    20852543.1454   20852552.0854
 -11355151.101 9  -8832619.82546  22764926.829    22764926.8594   22764937.5164
 -13998923.327 9 -10893867.44746  23177800.804    23177800.8924   23177809.7394
 -23606710.400 9 -18383720.49449  20235250.432    20235250.1084   20235257.5964
 -22134281.451 9 -17225076.29048  21510721.675    21510721.2284   21510730.3804
  -1925806.502 8  -1488189.50245  25345445.159    25345444.8534   25345456.0214
  -8810974.543 8  -6839049.86045  24163375.986    24163375.9134   24163389.7564
 00  7 15  2 18 30.0000000  0  8  1 22 19 25 20 16  4 11             -.000000028
 -19838387.988 9 -15446195.01248  21612840.448    21612840.2524   21612848.9294
 -27030047.440 9 -18837873.96848  20847406.798    20847406.2314   20847415.1674
 -11426467.146 9  -8888190.68147  22751355.819    22751355.8344   22751366.4524
 -13917154.108 9 -10830151.22146  23193360.994    23193361.0604   23193369.9194
 -23610474.221 9 -18386653.34749  20234534.215    20234533.8944   20234541.3664
 -22200451.848 9 -17276637.60148  21498129.839    21498129.3954   21498138.5354
  -1970782.098 8  -1523235.38645  25336886.569    25336886.4584   25336897.6414
  -8723649.536 8  -6771004.60145  24179993.474    24179993.5084   24180007.2454
 00  7 15  2 19  0.0000000  0  8  1 22 19 25 20 16  4 11             -.000000028
 -19883766.839 9 -15481555.12848  21604205.150    21604204.9704   21604213.5874
 -27056426.822 9 -18858429.28048  20842386.905    20842386.3564   20842395.2954
 -11497541.804 9  -8943573.44746  22737830.707    22737830.7574   22737841.2614
 -13835325.009 9 -10766388.33546  23208932.528    23208932.6404   23208941.5344
 -23613673.064 9 -18389145.95449  20233925.494    20233925.1654   20233932.6434
 -22266238.600 9 -17327899.96648  21485611.049    21485610.6014   21485619.7384
  -2015303.222 8  -1557927.13945  25328414.514    25328414.5824   25328425.4384
  -8636379.470 8  -6703002.13745  24196600.647    24196600.5214   24196614.2654
 00  7 15  2 19 30.0000000  0  8  1 22 19 25 20 16  4 11             -.000000028
 -19929044.185 9 -15516836.14448  21595589.122    21595588.9354   21595597.5644
 -27082190.090 9 -18878504.50448  20837484.290    20837483.7404   20837492.6444
 -11568374.917 9  -8998767.97746  22724351.514    22724351.5594   22724361.9524
 -13753437.740 9 -10702580.12846  23224515.192    23224515.3334   23224524.2414
 -23616306.435 9 -18391197.94049  20233424.385    20233424.0524   20233431.5424
 -22331638.989 9 -17378861.26948  21473165.736    21473165.3074   21473174.3984
  -2059368.999 8  -1592264.11645  25320028.922    25320029.2684   25320039.9514
  -8549167.171 8  -6635044.69645  24213196.758    24213196.7524   24213210.3824
 00  7 15  2 20  0.0000000  0  8  1 22 19 25 20 16  4 11             -.000000028
 -19974219.153 9 -15552037.38848  21586992.592    21586992.4064   21587001.0584
 -27107335.988 9 -18898098.65848  20832699.168    20832698.6234   20832707.5204
 -11638965.908 9  -9053773.84346  22710918.440    22710918.4984   22710928.7974
 -13671493.226 9 -10638727.31346  23240108.763    23240108.8774   23240117.7834
 -23618373.192 9 -18392808.40549  20233031.089    20233030.7544   20233038.2664
 -22396651.042 9 -17429519.97648  21460794.338    21460793.9024   21460802.9644
  -2102977.705 8  -1626244.85945  25311730.471    25311730.6544   25311741.3464
  -8462015.019 8  -6567134.10945  24229781.358    24229781.4504   24229794.9994
 00  7 15  2 20 30.0000000  0  8  1 22 19 25 20 16  4 11             -.000000028
 -20019291.381 9 -15587158.58348  21578415.612    21578415.4444   21578424.0534
 -27131863.692 9 -18917211.10948  20828031.671    20828031.1244   20828040.0274
 -11709314.471 9  -9108590.80447  22697531.496    22697531.5664   22697541.8114
 -13589492.848 9 -10574830.97346  23255712.950    23255713.0754   23255721.9674
 -23619872.842 9 -18393976.97049  20232745.711    20232745.3824   20232752.8804
 -22461271.951 9 -17479873.89248  21448497.356    21448496.9054   21448505.9504
  -2146128.879 8  -1659869.12145  25303519.175    25303519.4384   25303529.6774
  -8374925.944 8  -6499272.68445  24246354.071    24246354.0374   24246367.7184
 00  7 15  2 21  0.0000000  0  8  1 22 19 25 20 16  4 11             -.000000028
 -20064260.600 9 -15622199.50848  21569858.249    21569858.0784   21569866.6804
 -27155771.609 9 -18935840.60748  20823482.105    20823481.5644   20823490.4524
 -11779420.526 9  -9163218.79847  22684190.712    22684190.7524   22684200.9784
 -13507438.505 9 -10510892.57746  23271327.424    23271327.5554   23271336.4644
 -23620804.782 9 -18394703.16349  20232568.375    20232568.0454   20232575.5524
 -22525499.784 9 -17529921.52048  21436275.219    21436274.7564   21436283.7934
  -2188821.215 8  -1693135.85945  25295395.128    25295395.4424   25295405.6264
  -8287902.596 8  -6431462.46145  24262914.191    24262914.2254   24262927.9484
 00  7 15  2 21 30.0000000  0  8  1 22 19 25 20 16  4 11             -.000000028
 -20109125.973 9 -15657159.51248  21561320.619    21561320.4584   21561329.0604
 -27179058.077 9 -18953985.86748  20819050.780    20819050.2324   20819059.1144
 -11849283.282 9  -9217657.22647  22670896.205    22670896.2154   22670906.3974
 -13425331.264 9 -10446912.94546  23286951.903    23286952.0784   23286960.9854
 -23621168.051 9 -18394986.23649  20232499.254    20232498.9224   20232506.4334
 -22589331.738 9 -17579660.66948  21424128.362    21424127.9054   21424136.9554
  -2231053.391 8  -1726044.01345  25287358.538    25287358.8464   25287369.2944
  -8200947.378 8  -6363705.36045  24279461.277    24279461.0394   24279475.0194
 00  7 15  2 22  0.0000000  0  8  1 22 19 25 20 16  4 11             -.000000028
 -20153887.001 9 -15692038.21948  21552802.877    21552802.6954   21552811.2934
 -27201722.030 9 -18971646.05248  20814737.929    20814737.3874   20814746.2714
 -11918902.284 9  -9271905.71647  22657648.092    22657648.1064   22657658.2924
 -13343172.279 9 -10382893.01146  23302586.270    23302586.4064   23302595.3584
 -23620961.960 9 -18394825.65449  20232538.475    20232538.1454   20232545.6604
 -22652765.578 9 -17629089.60648  21412057.277    21412056.8024   21412065.8444
  -2272824.376 8  -1758592.81345  25279409.680    25279410.0684   25279420.4754
  -8114062.808 8  -6296003.29045  24295994.916    24295994.7834   24296008.5864
 00  7 15  2 22 30.0000000  0  8  1 22 19 25 20 16  4 11             -.000000028
 -20198543.416 9 -15726835.40148  21544305.049    21544304.8784   21544313.4664
 -27223762.874 9 -18988820.70948  20810543.677    20810543.1414   20810552.0014
 -11988277.689 9  -9325964.38547  22644446.336    22644446.3564   22644456.5354
 -13260963.384 9 -10318834.18546  23318230.147    23318230.3254   23318239.2374
 -23620186.031 9 -18394221.04549  20232686.153    20232685.8234   20232693.3464
 -22715798.635 9 -17678206.24448  21400062.462    21400062.0154   21400071.0144
  -2314133.220 8  -1790781.50545  25271548.817    25271549.1814   25271559.6744
  -8027251.879 8  -6228358.58145  24312514.605    24312514.2774   24312528.2784
 00  7 15  2 23  0.0000000  0  8  1 22 19 25 20 16  4 11             -.000000028
 -20243094.280 9 -15761550.33348  21535827.242    21535827.0874   21535835.6684
 -27245179.352 9 -19005508.84248  20806468.229    20806467.7024   20806476.5234
 -12057408.916 9  -9379832.78947  22631290.982    22631291.0344   22631301.2634
 -13178705.909 9 -10254737.50946  23333883.256    23333883.4194   23333892.3364
 -23618839.433 9 -18393171.75549  20232942.384    20232942.0564   20232949.5654
 -22778428.925 9 -17727009.03948  21388144.320    21388143.8564   21388152.8624
  -2354978.871 8  -1822609.24645  25263776.213    25263776.5414   25263787.0504
  -7940516.942 8  -6160773.11845  24329019.888    24329019.3704   24329033.4114
 00  7 15  2 23 30.0000000  0  8  1 22 19 25 20 16  4 11             -.000000028
 -20287539.310 9 -15796182.80148  21527369.640    21527369.4724   21527378.0414
 -27265970.098 9 -19021709.38448  20802511.848    20802511.3114   20802520.1514
 -12126295.670 9  -9433510.68747  22618182.196    22618182.2294   22618192.4574
 -13096401.235 9 -10190604.04946  23349545.352    23349545.5364   23349554.4034
 -23616921.953 9 -18391677.62249  20233307.283    20233306.9434   20233314.4674
 -22840653.811 9 -17775495.93848  21376303.286    21376302.8344   21376311.8414
  -2395360.480 8  -1854075.40845  25256091.776    25256092.1514   25256102.8544
  -7853860.822 8  -6093249.04845  24345510.211    24345510.0224   24345523.8044
 00  7 15  2 24  0.0000000  0  8  1 22 19 25 20 16  4 11             -.000000028
 -20331878.040 9 -15830732.44348  21518932.260    21518932.0934   21518940.6224
 -27286133.876 9 -19037421.38248  20798674.789    20798674.2484   20798683.0884
 -12194937.584 9  -9486997.79147  22605120.000    22605120.0214   22605130.2694
 -13014050.948 9 -10126435.04546  23365216.156    23365216.3174   23365225.2064
 -23614432.887 9 -18389738.10049  20233780.948    20233780.6254   20233788.1554
 -22902471.054 9 -17823665.19748  21364539.807    21364539.3674   21364548.3554
  -2435277.126 8  -1885179.27045  25248495.883    25248496.2404   25248507.1724
  -7767286.102 8  -6025788.41345  24361984.968    24361984.8284   24361998.7924
 00  7 15  2 24 30.0000000  0  8  1 22 19 25 20 16  4 11             -.000000028
 -20376109.403 9 -15865198.41348  21510515.252    21510515.0804   21510523.6194
 -27305669.705 9 -19052644.06748  20794957.199    20794956.6514   20794965.4904
 -12263334.422 9  -9540293.92747  22592104.402    22592104.4614   22592114.6554
 -12931656.024 9 -10062231.26646  23380895.442    23380895.5834   23380904.4574
 -23611371.411 9 -18387352.54149  20234363.520    20234363.1924   20234370.7174
 -22963878.236 9 -17871514.92748  21352854.415    21352853.9874   21352862.9354
  -2474727.339 8  -1915919.66745  25240988.632    25240988.8974   25240999.9284
  -7680795.273 8  -5958393.13445  24378443.822    24378443.6044   24378457.6664
 00  7 15  2 25  0.0000000  0  8  1 22 19 25 20 16  4 11             -.000000028
 -20420232.966 9 -15899580.39548  21502118.800    21502118.6134   21502127.1574
 -27324577.157 9 -19067377.10348  20791359.207    20791358.6524   20791367.4734
 -12331485.949 9  -9593398.92347  22579135.538    22579135.6104   22579145.7384
 -12849217.712 9  -9997993.69046  23396582.960    23396583.0834   23396591.9054
 -23607737.422 9 -18384520.87549  20235055.054    20235054.7234   20235062.2404
 -23024872.851 9 -17919043.18148  21341247.524    21341247.0624   21341256.0124
  -2513710.553 8  -1946296.18145  25233570.425    25233570.8834   25233581.5794
  -7594390.821 8  -5891065.18645  24394886.260    24394886.0814   24394900.2154
 00  7 15  2 25 30.0000000  0  8  1 22 19 25 20 16  4 11             -.000000028
 -20464248.234 9 -15933877.99148  21493742.977    21493742.7914   21493751.2844
 -27342855.024 9 -19081619.56348  20787881.030    20787880.5004   20787889.2924
 -12399391.611 9  -9646312.33247  22566213.432    22566213.5064   22566223.6064
 -12766737.745 9  -9933723.63346  23412278.463    23412278.5474   23412287.5284
 -23603530.242 9 -18381242.56249  20235855.654    20235855.3194   20235862.8384
 -23085452.627 9 -17966248.18148  21329719.552    21329719.1034   21329728.0424
  -2552225.668 8  -1976307.92345  25226241.222    25226241.4964   25226252.3234
  -7508075.395 8  -5823806.60045  24411311.692    24411311.6104   24411325.6754
 00  7 15  2 26  0.0000000  0  8  1 22 19 25 20 16  4 11             -.000000028
 -20508154.761 9 -15968090.84648  21485387.829    21485387.6564   21485396.1424
 -27360502.229 9 -19095370.58548  20784522.856    20784522.3254   20784531.1004
 -12467051.284 9  -9699034.04147  22553338.133    22553338.2094   22553348.3834
 -12684217.812 9  -9869422.44146  23427981.526    23427981.6564   23427990.6414
 -23598749.625 9 -18377517.41649  20236765.407    20236765.0694   20236772.5974
 -23145615.308 9 -18013128.17248  21318270.934    21318270.4984   21318279.4514
  -2590271.995 8  -2005954.42545  25219001.234    25219001.6294   25219012.3234
  -7421851.906 8  -5756619.65645  24427719.642    24427719.5514   24427733.7294
 00  7 15  2 26 30.0000000  0  8  1 22 19 25 20 16  4 11             -.000000028
 -20551951.521 9 -16002218.18148  21477053.574    21477053.3854   21477061.8684
 -27377517.170 9 -19108628.93748  20781285.000    20781284.4664   20781293.2124
 -12534464.526 9  -9751563.74147  22540509.737    22540509.8004   22540520.0104
 -12601658.668 9  -9805090.69146  23443692.073    23443692.2094   23443701.1404
 -23593394.579 9 -18373344.66549  20237784.441    20237784.1134   20237791.6394
 -23205358.279 9 -18059681.12248  21306902.171    21306901.7494   21306910.6914
  -2627848.368 8  -2035234.69245  25211850.562    25211851.0594   25211861.8434
  -7335722.325 9  -5689505.90845  24444109.694    24444109.7944   24444123.7564
 00  7 15  2 27  0.0000000  0  8  1 22 19 25 20 16  4 11             -.000000028
 -20595638.166 9 -16036259.71148  21468740.274    21468740.0904   21468748.5754
 -27393899.425 9 -19121394.28248  20778167.512    20778166.9844   20778175.7094
 -12601631.064 9  -9803901.22047  22527728.307    22527728.3384   22527738.5824
 -12519061.405 9  -9740729.23346  23459409.843    23459409.9094   23459418.9714
 -23587464.870 9 -18368724.12249  20238912.847    20238912.5124   20238920.0394
 -23264679.438 9 -18105905.38348  21295613.738    21295613.3144   21295622.2424
  -2664954.027 8  -2064148.17545  25204789.590    25204790.0974   25204800.7524
  -7249689.330 8  -5622467.41845  24460481.455    24460481.4314   24460495.5874
 00  7 15  2 27 30.0000000  0  8  1 22 19 25 20 16  4 11             -.000000028
 -20639214.200 9 -16070215.05248  21460448.029    21460447.8314   21460456.3174
 -27409648.845 9 -19133666.51448  20775170.471    20775169.9494   20775178.6734
 -12668550.694 9  -9856046.30047  22514993.881    22514993.8744   22515004.0994
 -12436427.954 9  -9676339.58146  23475134.502    23475134.5924   23475143.6404
 -23580960.348 9 -18363655.67449  20240150.615    20240150.2864   20240157.8024
 -23323576.635 9 -18151799.28748  21284405.951    21284405.5134   21284414.4504
  -2701588.143 8  -2092694.21145  25197818.361    25197818.8444   25197829.2864
  -7163755.724 8  -5555506.37245  24476834.241    24476834.1604   24476848.2854
 00  7 15  2 28  0.0000000  0  8  1 22 19 25 20 16  4 11             -.000000028
 -20682678.759 9 -16104083.52748  21452176.980    21452176.7874   21452185.2734
 -27424763.967 9 -19145444.49148  20772294.121    20772293.5914   20772302.3004
 -12735223.046 9  -9907998.68047  22502306.496    22502306.4874   22502316.7064
 -12353759.151 9  -9611922.39846  23490865.878    23490865.9524   23490875.0254
 -23573880.399 9 -18358138.84349  20241497.914    20241497.5734   20241505.0774
 -23382047.210 9 -18197360.76448  21273279.351    21273278.9164   21273287.8574
  -2737749.739 8  -2120872.06445  25190937.016    25190937.3084   25190947.8904
  -7077923.881 8  -5488624.63145  24493167.717    24493167.4724   24493181.9004
 00  7 15  2 28 30.0000000  0  8  1 22 19 25 20 16  4 11             -.000000036
 -20726029.615 9 -16137863.39948  21443927.562    21443927.3784   21443935.8544
 -27439242.334 9 -19156726.30148  20769538.935    20769538.4084   20769547.1234
 -12801646.566 9  -9959757.17047  22489666.439    22489666.4384   22489676.5674
 -12271054.870 9  -9547477.54346  23506603.992    23506604.0974   23506613.2714
 -23566223.303 9 -18352172.28349  20242955.030    20242954.6744   20242962.1974
 -23440087.256 9 -18242586.76248  21262234.667    21262234.2324   21262243.1844
  -2773436.516 7  -2148679.94745  25184145.883    25184145.9784   25184156.6654
  -6992194.756 8  -5421822.93645  24509481.586    24509481.3394   24509495.8294
 00  7 15  2 29  0.0000000  0  8  1 22 19 25 20 16  4 11             -.000000035
 -20769267.062 9 -16171554.90448  21435699.740    21435699.5544   21435708.0234
 -27453083.734 9 -19167511.77348  20766905.005    20766904.4614   20766913.1814
 -12867821.730 9 -10011322.13747  22477073.630    22477073.6264   22477083.7114
 -12188317.501 9  -9483006.92246  23522348.416    23522348.4774   23522357.7274
 -23557989.477 9 -18345756.32849  20244521.894    20244521.5494   20244529.0594
 -23497695.854 9 -18287476.56548  21251272.075    21251271.6514   21251280.6194
  -2808648.472 7  -2176117.83745  25177445.225    25177445.1884   25177455.9454
  -6906571.874 8  -5355104.03845  24525775.189    24525775.0994   24525789.4844
 00  7 15  2 29 30.0000000  0  8  1 22 19 25 20 16  4 11             -.000000035
 -20812391.957 9 -16205158.70148  21427493.344    21427493.1454   21427501.6024
 -27466289.530 9 -19177801.97048  20764391.967    20764391.4414   20764400.1494
 -12933749.846 9 -10062694.60247  22464527.873    22464527.8524   22464537.9454
 -12105549.729 9  -9418512.60146  23538098.605    23538098.7134   23538107.9704
 -23549180.091 9 -18338891.88349  20246198.286    20246197.9394   20246205.4454
 -23554871.558 9 -18332029.05148  21240391.894    21240391.4434   21240400.4144
  -2843386.484 7  -2203186.39345  25170834.911    25170835.0834   25170845.7974
  -6821059.032 8  -5288470.89545  24542047.802    24542047.6834   24542062.1644
 00  7 15  2 30  0.0000000  0  9  1 27 22 19 25 20 16  4 11          -.000000035
 -20855403.102 9 -16238673.86548  21419308.561    21419308.3914   21419316.8504
  -1367346.585 7  -1056141.99645  25522897.399    25522893.5984   25522914.2474
 -27478858.613 9 -19187596.02848  20762000.159    20761999.6374   20762008.2984
 -12999430.003 9 -10113873.85747  22452029.282    22452029.2344   22452039.3404
 -12022752.362 9  -9353995.22546  23553854.435    23553854.4864   23553863.8154
 -23539794.326 9 -18331578.31349  20247984.322    20247983.9724   20247991.4864
 -23611612.262 9 -18376242.57448  21229594.501    21229594.0484   21229603.0194
  -2877649.172 8  -2229884.54645  25164314.981    25164315.0784   25164325.8934
  -6735658.275 8  -5221925.08045  24558299.182    24558299.0734   24558313.8584
 00  7 15  2 30 30.0000000  0  9  1 27 22 19 25 20 16  4 11          -.000000035
 -20898299.683 9 -16272099.75148  21411145.607    21411145.4424   21411153.9064
  -1448961.454 7  -1119737.72445  25507365.487    25507365.4584   25507382.3114
 -27490789.833 9 -19196893.04548  20759729.701    20759729.1494   20759737.7944
 -13064861.997 9 -10164859.72847  22439577.899    22439577.8534   22439587.9484
 -11939926.694 9  -9289455.77346  23569615.670    23569615.7054   23569625.0784
 -23529831.991 9 -18323815.46349  20249880.117    20249879.7704   20249887.2954
 -23667915.187 9 -18420114.96948  21218880.391    21218879.9354   21218888.9164
  -2911435.797 7  -2256211.78345  25157885.685    25157885.5274   25157896.6144
  -6650372.029 8  -5155468.51745  24574528.658    24574528.6374   24574543.1664
 00  7 15  2 31  0.0000000  0  9  1 27 22 19 25 20 16  4 11          -.000000035
 -20941080.781 9 -16305435.65548  21403004.649    21403004.4584   21403012.9244
  -1530466.480 7  -1183247.80045  25491855.290    25491854.2574   25491872.5974
 -27502082.077 9 -19205692.16348  20757580.847    20757580.2964   20757588.9194
 -13130045.448 9 -10215651.94547  22427173.879    22427173.8504   22427183.9104
 -11857073.620 9  -9224894.97346  23585382.111    23585382.2094   23585391.4714
 -23519292.502 9 -18315602.88749  20251885.737    20251885.3624   20251892.8964
 -23723777.596 9 -18463644.10648  21208250.112    21208249.6544   21208258.6314
  -2944745.365 8  -2282167.27545  25151546.944    25151547.0764   25151557.8554
  -6565202.450 7  -5089102.86845  24590735.961    24590736.0174   24590750.2264
 00  7 15  2 31 30.0000000  0  9  1 27 22 19 25 20 16  4 11          -.000000035
 -20983746.356 9 -16338681.55348  21394885.621    21394885.4294   21394893.8904
  -1611862.046 7  -1246672.55045  25476365.954    25476365.7004   25476382.4814
 -27512735.312 9 -19213993.35148  20755553.539    20755553.0004   20755561.6424
 -13194980.681 9 -10266250.75547  22414817.063    22414817.0054   22414827.0274
 -11774194.773 9  -9160314.09746  23601153.527    23601153.5714   23601162.8804
 -23508176.402 9 -18306941.00549  20254001.031    20254000.6674   20254008.1994
 -23779198.313 9 -18506829.06548  21197703.899    21197703.4454   21197712.4324
  -2977577.737 8  -2307750.93145  25145299.218    25145299.5224   25145310.4364
  -6480152.834 8  -5022830.69145  24606920.566    24606920.7934   24606935.0404
 00  7 15  2 32  0.0000000  0  9  1 27 22 19 25 20 16  4 11          -.000000035
 -21026295.516 9 -16371836.73148  21386788.783    21386788.5954   21386797.0524
  -1693147.128 7  -1310011.21345  25460897.588    25460897.4774   25460914.6284
 -27522749.085 9 -19221796.25848  20753647.906    20753647.3794   20753656.0394
 -13259667.207 9 -10316655.75447  22402507.585    22402507.5074   22402517.5394
 -11691291.268 9  -9095714.00846  23616929.586    23616929.5704   23616939.0044
 -23496482.975 9 -18297829.25649  20256226.228    20256225.8674   20256233.4044
 -23834174.763 9 -18549667.84548  21187242.226    21187241.7684   21187250.7404
  -3009931.882 8  -2332961.94745  25139142.299    25139142.5744   25139153.0944
  -6395225.209 8  -4956653.55645  24623081.970    24623082.0054   24623096.7844
 00  7 15  2 32 30.0000000  0  9  1 27 22 19 25 20 16  4 11          -.000000036
 -21068726.972 9 -16404900.19348  21378714.357    21378714.1644   21378722.6144
  -1774320.632 8  -1373263.00145  25445450.502    25445450.6324   25445467.7454
 -27532122.525 9 -19229100.19948  20751864.199    20751863.6844   20751872.3304
 -13324104.330 9 -10366866.42047  22390245.507    22390245.4864   22390255.4184
 -11608363.784 9  -9031095.21346  23632710.209    23632710.2054   23632719.6144
 -23484211.622 9 -18288267.17049  20258561.373    20258561.0304   20258568.5774
 -23888704.093 9 -18592158.21448  21176865.646    21176865.1914   21176874.1364
  -3041806.835 8  -2357799.54445  25133076.702    25133076.7934   25133087.4644
  -6310421.790 8  -4890573.18545  24639219.675    24639219.5934   24639234.2614
 00  7 15  2 33  0.0000000  0  9  1 27 22 19 25 20 16  4 11          -.000000036
 -21111039.625 9 -16437871.08148  21370662.510    21370662.2984   21370670.7684
  -1855381.982 8  -1436427.38845  25430024.931    25430024.6704   25430042.3324
 -27540854.221 9 -19235904.08748  20750202.622    20750202.0744   20750210.7254
 -13388291.585 9 -10416882.38447  22378031.030    22378031.0424   22378040.8814
 -11525413.564 9  -8966458.71746  23648495.116    23648495.1374   23648504.5864
 -23471361.970 9 -18278254.46449  20261006.594    20261006.2474   20261013.8064
 -23942783.535 9 -18634298.02548  21166574.656    21166574.2064   21166583.1644
  -3073201.538 8  -2382262.97645  25127102.635    25127102.6284   25127113.3684
  -6225744.406 8  -4824591.04845  24655333.553    24655333.3974   24655347.8254
 00  7 15  2 33 30.0000000  0  8  1 22 19 25 20 16  4 11             -.000000037
 -21153233.583 9 -16470749.47848  21362633.226    21362633.0374   21362641.4994
 -27548944.374 9 -19242208.06548  20748663.092    20748662.5404   20748671.1584
 -13452229.488 9 -10466704.03447  22365864.000    22365864.0354   22365873.8044
 -11442441.906 9  -8901805.52146  23664284.085    23664284.1664   23664293.5644
 -23457934.642 9 -18267791.61849  20263561.748    20263561.3984   20263568.9644
 -23996412.286 9 -18676086.63948  21156369.430    21156368.9904   21156377.9414
  -3104116.070 8  -2406352.21745  25121219.777    25121219.9214   25121230.5524
  -6141196.191 8  -4758709.56645  24671422.788    24671422.3584   24671436.9604
 00  7 15  2 34  0.0000000  0  8  1 22 19 25 20 16  4 11             -.000000037
 -21195307.960 9 -16503534.70548  21354626.728    21354626.5404   21354634.9964
 -27556392.322 9 -19248011.62448  20747245.776    20747245.2214   20747253.8224
 -13515917.600 9 -10516331.05647  22353744.445    22353744.5054   22353754.2394
 -11359450.609 9  -8837137.01146  23680076.854    23680076.9244   23680086.2314
 -23443929.379 9 -18256878.43749  20266226.872    20266226.5134   20266234.0854
 -24049587.260 9 -18717521.66648  21146250.554    21146250.1164   21146259.0384
  -3134549.836 8  -2430066.84845  25115428.436    25115428.6904   25115439.1624
  -6056779.511 8  -4692930.54045  24687486.827    24687486.6784   24687501.3624
 00  7 15  2 34 30.0000000  0  8  1 22 19 25 20 16  4 11             -.000000037
 -21237261.784 9 -16536225.98248  21346643.193    21346643.0074   21346651.4374
 -27563197.904 9 -19253314.64248  20745950.664    20745950.1184   20745958.7104
 -13579355.626 9 -10565763.19647  22341672.519    22341672.5724   22341682.3314
 -11276440.466 9  -8772453.81946  23695873.247    23695873.3284   23695882.5674
 -23429346.014 9 -18245514.78749  20269002.008    20269001.6624   20269009.2214
 -24102306.591 9 -18758601.64848  21136218.401    21136217.9714   21136226.8474
  -3164501.918 8  -2453406.08945  25109728.733    25109729.1764   25109739.4394
  -5972496.474 8  -4627255.68245  24703525.497    24703525.4644   24703540.4564
 00  7 15  2 35  0.0000000  0  8  1 22 19 25 20 16  4 11             -.000000038
 -21279094.145 9 -16568822.61248  21338682.739    21338682.5474   21338690.9804
 -27569360.490 9 -19258116.62648  20744777.936    20744777.4004   20744785.9854
 -13642543.384 9 -10615000.32347  22329648.195    22329648.2474   22329658.0024
 -11193412.368 9  -8707756.62946  23711672.976    23711673.0614   23711682.2594
 -23414184.065 9 -18233700.29149  20271887.233    20271886.8854   20271894.4494
 -24154567.460 9 -18799324.38348  21126273.499    21126273.0654   21126281.9304
  -3193971.655 8  -2476369.52545  25104120.973    25104121.1684   25104131.4394
  -5888349.224 8  -4561686.63445  24719538.442    24719538.4004   24719553.1194
 00  7 15  2 35 30.0000000  0  8  1 22 19 25 20 16  4 11             -.000000038
 -21320804.637 9 -16601324.27548  21330745.501    21330745.3224   21330753.7604
 -27574879.848 9 -19262417.38948  20743727.596    20743727.0674   20743735.6414
 -13705481.279 9 -10664042.75047  22317671.428    22317671.4584   22317681.2394
 -11110367.648 9  -8643046.49846  23727475.905    23727475.9894   23727485.1614
 -23398443.924 9 -18221435.25649  20274882.491    20274882.1314   20274889.7044
 -24206368.266 9 -18839688.62748  21116416.099    21116415.6604   21116424.5264
  -3222958.833 8  -2498956.93945  25098604.937    25098605.0374   25098615.2464
  -5804340.411 8  -4496225.44945  24735525.020    24735524.8324   24735539.6754
 00  7 15  2 36  0.0000000  0  8  1 22 19 25 20 16  4 11             -.000000039
 -21362392.047 9 -16633730.03348  21322831.662    21322831.4714   21322839.9174
 -27579754.616 9 -19266215.87448  20742799.948    20742799.4194   20742807.9794
 -13768168.347 9 -10712889.73147  22305742.410    22305742.4464   22305752.1714
 -11027307.032 9  -8578323.96746  23743281.848    23743281.9674   23743291.1774
 -23382125.166 9 -18208719.35449  20277987.848    20277987.5014   20277995.0494
 -24257706.403 9 -18879692.35248  21106646.761    21106646.3234   21106655.1994
  -3251462.099 8  -2521167.27745  25093180.828    25093180.9524   25093191.3114
  -5720472.216 8  -4430873.81945  24751484.783    24751484.5744   24751499.4604
 00  7 15  2 36 30.0000000  0  8  1 22 19 25 20 16  4 11             -.000000039
 -21403856.441 9 -16666039.92748  21314941.249    21314941.0544   21314949.5064
 -27583985.485 9 -19269512.62048  20741994.809    20741994.2664   20742002.8334
 -13830605.394 9 -10761541.90747  22293860.998    22293861.0314   22293870.7154
 -10944232.588 9  -8513590.66646  23759090.456    23759090.5944   23759099.7424
 -23365228.734 9 -18195553.31149  20281203.136    20281202.7854   20281210.3464
 -24308580.501 9 -18919334.49348  21096965.743    21096965.3054   21096974.1374
  -3279482.339 8  -2543001.24045  25087848.758    25087848.8844   25087859.3244
  -5636748.107 8  -4365634.47245  24767417.173    24767416.9634   24767431.9134
 00  7 15  2 37  0.0000000  0  8  1 22 19 25 20 16  4 11             -.000000040
 -21445196.447 9 -16698252.90448  21307074.504    21307074.3194   21307082.7534
 -27587572.108 9 -19272307.36548  20741312.294    20741311.7594   20741320.3084
 -13892791.671 9 -10809998.66947  22282027.272    22282027.3034   22282037.0014
 -10861145.000 9  -8448847.11446  23774901.509    23774901.6584   23774910.7574
 -23347754.064 9 -18181936.69849  20284528.471    20284528.1234   20284535.6524
 -24358987.812 9 -18958612.90348  21087373.569    21087373.1254   21087381.9274
  -3307018.173 8  -2564457.74245  25082608.971    25082608.9514   25082619.6134
  -5553169.459 8  -4300508.47945  24783321.890    24783321.8834   24783336.4494
 00  7 15  2 37 30.0000000  0  8  1 22 19 25 20 16  4 11             -.000000040
 -21486411.036 9 -16730368.14848  21299231.595    21299231.4094   21299239.8634
 -27590514.128 9 -19274599.82148  20740752.412    20740751.8664   20740760.4194
 -13954727.002 9 -10858259.89647  22270241.338    22270241.3634   22270251.0504
 -10778044.938 9  -8384093.85546  23790714.968    23790715.1214   23790724.1414
 -23329701.133 9 -18167869.49049  20287963.869    20287963.5154   20287971.0444
 -24408926.408 9 -18997526.07848  21077870.535    21077870.1144   21077878.9074
  -3334069.284 8  -2585536.50445  25077461.304    25077461.5054   25077471.9974
  -5469738.760 8  -4235497.78145  24799198.386    24799198.2824   24799213.2564
 00  7 15  2 38  0.0000000  0  8  1 22 19 25 20 16  4 11             -.000000040
 -21527500.090 9 -16762385.57348  21291412.596    21291412.4224   21291420.8444
 -27592811.427 9 -19276389.89148  20740315.243    20740314.6894   20740323.2564
 -14016411.750 9 -10906325.86847  22258503.070    22258503.0894   22258512.7304
 -10694934.443 9  -8319332.46246  23806530.403    23806530.5424   23806539.5594
 -23311070.810 9 -18153352.36549  20291509.095    20291508.7414   20291516.2544
 -24458394.486 9 -19036072.60948  21068457.065    21068456.6314   21068465.4244
  -3360635.660 8  -2606237.56745  25072405.887    25072405.9544   25072416.5054
  -5386458.833 8  -4170604.57045  24815046.208    24815046.3114   24815061.1174
 00  7 15  2 38 30.0000000  0  9  1 22 19 25 27 20 16  4 11          -.000000040
 -21568462.334 9 -16794304.19248  21283617.713    21283617.5284   21283625.9504
 -27594463.038 9 -19277676.83948  20740000.913    20740000.3574   20740008.9104
 -14077845.257 9 -10954196.08047  22246812.618    22246812.6524   22246822.2304
 -10611814.206 9  -8254563.48746  23822347.690    23822347.8224   23822356.8734
   -971263.446 8   -747140.27542          .000            .0004           .0004
 -23291862.240 9 -18138384.66049  20295164.397    20295164.0404   20295171.5624
 -24507389.416 9 -19074250.46248  21059133.620    21059133.1864   21059141.9664
  -3386716.286 8  -2626560.13445  25067442.918    25067442.8714   25067453.7314
  -5303331.618 8  -4105830.36145  24830864.942    24830864.9904   24830880.0304
 00  7 15  2 39  0.0000000  0  9  1 22 19 25 27 20 16  4 11          -.000000040
 -21609297.492 9 -16826123.77148  21275847.053    21275846.8684   21275855.2754
 -27595469.603 9 -19278461.14948  20739809.349    20739808.8094   20739817.3274
 -14139027.858 9 -11001870.75347  22235169.881    22235169.9034   22235179.4804
 -10528685.767 9  -8189788.10846  23838166.513    23838166.7004   23838175.7814
  -1050943.45518   -809228.38544          .000            .0005   25246625.7224
 -23272076.444 9 -18122967.16149  20298929.505    20298929.1444   20298936.6534
 -24555909.456 9 -19112058.25848  21049900.566    21049900.1274   21049908.9284
  -3412311.345 8  -2646504.36045  25062572.356    25062572.4724   25062583.1034
  -5220359.730 8  -4041177.18645  24846654.210    24846654.2094   24846669.6684
 00  7 15  2 39 30.0000000  0  9  1 22 19 25 27 20 16  4 11          -.000000041
 -21650004.018 9 -16857843.12148  21268100.840    21268100.6504   21268109.0594
 -27595830.629 9 -19278742.44848  20739740.622    20739740.0674   20739748.5614
 -14199958.886 9 -11049349.41047  22223575.060    22223575.0294   22223584.6314
 -10445549.883 9  -8125006.92946  23853986.759    23853986.9384   23853996.0714
  -1130504.894 8   -871223.92845  25231470.804    25231471.3164   25231486.5584
 -23251712.863 9 -18107099.44849  20302804.584    20302804.2114   20302811.7424
 -24603952.287 9 -19149494.21048  21040758.277    21040757.8464   21040766.6394
  -3437419.926 9  -2666069.49945  25057794.391    25057794.5394   25057804.9734
  -5137544.821 8  -3976646.33645  24862413.494    24862413.3794   24862428.8964
 00  7 15  2 40  0.0000000  0 10  1  3 22 19 25 27 20 16  4 11       -.000000041
 -21690581.766 9 -16889462.12648  21260379.138    21260378.9564   21260387.3344
  -1196038.690 8   -742874.17644          .000            .0004   25616394.8514
 -27595546.384 9 -19278520.93348  20739794.707    20739794.1494   20739802.6414
 -14260638.876 9 -11096632.46147  22212027.987    22212027.9834   22212037.5704
 -10362407.802 9  -8060220.93046  23869808.205    23869808.2864   23869817.6104
  -1209947.850 8   -933127.24045  25216353.045    25216353.8314   25216369.4564
 -23230772.100 9 -18090781.97949  20306789.454    20306789.0934   20306796.6394
 -24651515.804 9 -19186556.67748  21031707.218    21031706.7924   21031715.5984
  -3462042.046 9  -2685255.55545  25053108.947    25053109.3034   25053119.4674
  -5054889.836 8  -3912240.11845  24878142.303    24878142.2394   24878157.7444
 00  7 15  2 40 30.0000000  0 10  1  3 22 19 25 27 20 16  4 11       -.000000041
 -21731029.280 9 -16920979.65348  21252682.208    21252682.0344   21252690.3994
  -1261743.766 9   -794072.90545  25603871.319    25603871.9784   25603889.4324
 -27594615.920 9 -19277795.86248  20739971.748    20739971.1974   20739979.6704
 -14321067.329 9 -11143719.50147  22200528.817    22200528.8044   22200538.3654
 -10279260.341 9  -7995430.75346  23885630.628    23885630.6724   23885640.0704
  -1289271.592 8   -994937.66745  25201258.534    25201258.6534   25201274.3964
 -23209253.924 9 -18074014.57849  20310884.219    20310883.8684   20310891.4444
 -24698598.170 9 -19223244.21448  21022747.723    21022747.2854   21022756.0614
  -3486177.090 8  -2704062.10045  25048516.141    25048516.6124   25048526.7724
  -4972396.622 8  -3847959.97045  24893840.379    24893840.5724   24893856.0424
 00  7 15  2 41  0.0000000  0 10  1  3 22 19 25 27 20 16  4 11       -.000000042
 -21771346.155 9 -16952395.38248  21245010.147    21245009.9564   21245018.3614
  -1327583.921 8   -845376.89845  25591342.495    25591342.9324   25591359.3274
 -27593039.609 9 -19276567.54048  20740271.702    20740271.1494   20740279.6264
 -14381244.564 9 -11190610.79947  22189077.436    22189077.4324   22189086.9624
 -10196108.690 9  -7930637.31746  23901453.858    23901453.9184   23901463.4304
  -1368476.292 8  -1056655.31745  25186186.309    25186185.8364   25186202.1384
 -23187159.240 9 -18056797.95149  20315088.717    20315088.3774   20315095.9564
 -24745197.330 9 -19259555.23248  21013880.196    21013879.7544   21013888.5284
  -3509825.119 9  -2722489.13345  25044016.097    25044016.6784   25044026.6514
  -4890068.012 8  -3783808.09745  24909507.200    24909507.1774   24909523.0174
 00  7 15  2 41 30.0000000  0 10  1  3 22 19 25 27 20 16  4 11       -.000000043
 -21811530.979 9 -16983708.21248  21237363.222    21237363.0304   21237371.4264
  -1393555.661 8   -896783.41745  25578788.663    25578788.2934   25578805.6964
 -27590817.229 9 -19274835.78948  20740694.549    20740693.9964   20740702.4844
 -14441169.962 9 -11237305.85847  22177673.926    22177673.9564   22177683.4754
 -10112953.603 9  -7865841.18246  23917277.710    23917277.8634   23917287.3664
  -1447560.754 8  -1118279.27945  25171136.889    25171136.3054   25171152.7244
 -23164487.624 9 -18039131.76749  20319402.987    20319402.6404   20319410.2214
 -24791310.854 9 -19295487.83548  21005105.082    21005104.6394   21005113.4184
  -3532985.285 9  -2740535.99945  25039608.871    25039609.2204   25039619.3014
  -4807905.481 8  -3719785.65845  24925142.365    24925142.4404   24925158.6574
 00  7 15  2 42  0.0000000  0 10  1  3 22 19 25 27 20 16  4 11       -.000000043
 -21851582.994 9 -17014917.55548  21229741.541    21229741.3664   21229749.7544
  -1459656.547 8   -948290.56145  25566210.238    25566210.3614   25566227.3314
 -27587949.040 9 -19272600.81348  20741240.342    20741239.7894   20741248.2824
 -14500843.450 9 -11283804.62347  22166318.406    22166318.4084   22166327.9394
 -10029796.270 9  -7801043.30546  23933102.055    23933102.2584   23933111.6814
  -1526524.604 8  -1179809.26245  25156110.367    25156110.2084   25156126.1314
 -23141239.545 9 -18021016.39049  20323826.944    20323826.5984   20323834.1894
 -24836936.846 9 -19331040.54048  20996422.720    20996422.2794   20996431.0744
  -3555657.422 9  -2758202.60745  25035294.486    25035294.9354   25035304.9124
  -4725911.514 8  -3655894.58145  24940745.624    24940745.8694   24940761.5524
 00  7 15  2 42 30.0000000  0 10  1  3 22 19 25 27 20 16  4 11       -.000000043
 -21891501.903 9 -17046023.17948  21222145.220    21222145.0354   21222153.4144
  -1525884.634 8   -999896.79745  25553607.579    25553607.4964   25553624.5714
 -27584435.356 9 -19269862.84648  20741908.945    20741908.3964   20741916.8794
 -14560265.416 9 -11330107.39247  22155010.694    22155010.6954   22155020.2394
  -9946638.066 9  -7736244.74246  23948926.540    23948926.7534   23948936.2654
  -1605367.854 8  -1241245.22545  25141106.866    25141106.8134   25141122.5534
 -23117415.772 9 -18002452.42049  20328360.476    20328360.1394   20328367.7294
 -24882073.940 9 -19366212.28648  20987833.418    20987832.9764   20987841.7614
  -3577841.637 9  -2775489.02945  25031072.954    25031073.2884   25031083.7344
  -4644088.955 7  -3592137.05145  24956315.870    24956316.1724   24956331.9254
 00  7 15  2 43  0.0000000  0 10  1  3 22 19 25 27 20 16  4 11       -.000000044
 -21931286.859 9 -17077024.42448  21214574.373    21214574.1764   21214582.5694
  -1592237.627 8  -1051600.34545  25540980.955    25540980.8574   25540998.0274
 -27580275.940 9 -19266621.71648  20742700.454    20742699.8984   20742708.3774
 -14619436.038 9 -11376214.31847  22143750.870    22143750.8704   22143760.3904
  -9863480.412 9  -7671446.60946  23964750.933    23964751.1884   23964760.6794
  -1684090.002 8  -1302586.86945  25126126.299    25126126.0954   25126142.1144
 -23093016.586 9 -17983440.07449  20333003.499    20333003.1654   20333010.7514
 -24926719.997 9 -19401001.40748  20979337.515    20979337.0774   20979345.8854
  -3599537.942 9  -2792395.25545  25026944.302    25026944.4074   25026955.0854
  -4562439.974 8  -3528514.79645  24971853.430    24971853.5934   24971869.5344
 00  7 15  2 43 30.0000000  0 10  1  3 22 19 25 27 20 16  4 11       -.000000044
 -21970936.981 9 -17107920.60748  21207029.170    21207028.9894   21207037.3834
  -1658713.023 8  -1103399.28145  25528331.063    25528330.9554   25528348.1334
 -27575470.604 9 -19262877.27548  20743614.870    20743614.2954   20743622.7674
 -14678355.087 9 -11422125.21247  22132538.902    22132538.8824   22132548.4054
  -9780323.740 9  -7606649.23146  23980575.195    23980575.4134   23980584.9644
  -1762690.631 8  -1363833.82745  25111168.952    25111168.5994   25111184.6214
 -23068042.379 9 -17963979.66549  20337755.947    20337755.5954   20337763.1884
 -24970872.747 9 -19435406.13348  20970935.488    20970935.0544   20970943.8524
  -3620745.884 9  -2808920.91645  25022908.595    25022908.6714   25022919.1134
  -4480966.788 8  -3465029.53845  24987357.679    24987358.0524   24987373.5834
 00  7 15  2 44  0.0000000  0 10  1  3 22 19 25 27 20 16  4 11       -.000000045
 -22010450.837 9 -17138710.60448  21199509.926    21199509.7454   21199518.1494
  -1725307.814 8  -1155291.22045  25515658.466    25515658.2074   25515675.5184
 -27570019.535 9 -19258629.66048  20744652.103    20744651.5574   20744660.0434
 -14737022.303 9 -11467839.87347  22121374.870    22121374.8714   22121384.3604
  -9697168.830 9  -7541853.21846  23996399.008    23996399.2584   23996408.8604
  -1841169.097 8  -1424985.60745  25096234.901    25096234.6894   25096250.4524
 -23042493.104 9 -17944071.14849  20342617.810    20342617.4594   20342625.0444
 -25014530.194 9 -19469424.90948  20962627.746    20962627.3154   20962636.1034
  -3641465.016 9  -2825065.69545  25018965.874    25018966.2204   25018976.2044
  -4399671.061 8  -3401682.56745  25002827.975    25002828.2634   25002844.2194
 00  7 15  2 44 30.0000000  0 10  1  3 22 19 25 27 20 16  4 11       -.000000045
 -22049828.184 9 -17169394.22548  21192016.670    21192016.4724   21192024.8814
  -1792020.033 8  -1207274.66745  25502963.480    25502963.2454   25502980.5204
 -27563923.528 9 -19253879.50248  20745812.069    20745811.5344   20745820.0184
 -14795437.819 9 -11513358.40247  22110258.707    22110258.7064   22110268.1684
  -9614017.298 9  -7477059.84746  24012222.359    24012222.5444   24012232.1084
  -1919525.282 8  -1486042.10745  25081324.115    25081323.8314   25081339.4804
 -23016369.556 9 -17923715.14649  20347588.962    20347588.6174   20347596.2064
 -25057690.749 9 -19503056.49748  20954414.573    20954414.1314   20954422.9114
  -3661695.388 9  -2840829.60945  25015116.142    25015116.3354   25015126.5294
  -4318555.360 8  -3338475.86445  25018263.845    25018264.1064   25018280.4694
 00  7 15  2 45  0.0000000  0 10  1  3 22 19 25 27 20 16  4 11       -.000000045
 -22089068.115 9 -17199970.78048  21184549.528    21184549.3424   21184557.7294
  -1858847.067 7  -1259347.52545  25490246.515    25490246.6304   25490263.5584
 -27557182.456 9 -19248626.69848  20747094.819    20747094.3054   20747102.7754
 -14853601.865 9 -11558680.99147  22099190.398    22099190.4094   22099199.8534
  -9530870.184 9  -7412269.93046  24028044.820    24028045.0504   24028054.5504
  -1997759.035 8  -1547003.21445  25066436.576    25066436.3584   25066451.9234
 -22989672.140 9 -17902911.97749  20352669.302    20352668.9604   20352676.5384
 -25100352.004 9 -19536299.01948  20946296.367    20946295.9414   20946304.7394
  -3681436.898 9  -2856212.58045  25011359.469    25011359.5174   25011369.8364
  -4237622.225 8  -3275411.45345  25033665.100    25033665.2754   25033681.8174
 00  7 15  2 45 30.0000000  0 10  1  3 22 19 25 27 20 16  4 11       -.000000045
 -22128168.968 9 -17230438.96048  21177108.868    21177108.6934   21177117.0384
  -1925785.708 8  -1311507.32645  25477508.371    25477508.3584   25477525.3734
 -27549795.764 9 -19242870.80548  20748500.453    20748499.9424   20748508.4094
 -14911513.760 9 -11603807.08647  22088170.101    22088170.1184   22088179.5424
  -9447727.810 9  -7347483.69646  24043866.296    24043866.5674   24043875.9784
  -2075869.329 8  -1607868.12345  25051572.573    25051572.4284   25051587.6924
 -22962401.006 9 -17881661.75349  20357858.816    20357858.4584   20357866.0544
 -25142512.433 9 -19569151.28048  20938273.491    20938273.0654   20938281.8644
  -3700689.158 9  -2871214.37145  25007695.901    25007695.9024   25007706.2854
  -4156873.200 8  -3212490.51245  25049031.570    25049031.6264   25049047.9334
 00  7 15  2 46  0.0000000  0 10  1  3 22 19 25 27 20 16  4 11       -.000000046
 -22167130.705 9 -17260798.73548  21169694.697    21169694.5064   21169702.8624
  -1992834.313 7  -1363752.81245  25464749.353    25464749.2024   25464766.5294
 -27541764.352 9 -19236612.53348  20750028.818    20750028.2744   20750036.7294
 -14969174.108 9 -11648737.16547  22077197.689    22077197.6944   22077207.1434
  -9364591.932 9  -7282702.50946  24059686.574    24059686.8254   24059696.2614
  -2153856.499 8  -1668637.10745  25036731.908    25036731.7924   25036746.9944
 -22934557.350 9 -17859965.41149  20363157.324    20363156.9704   20363164.5684
 -25184170.420 9 -19601612.03348  20930346.222    20930345.7834   20930354.6034
  -3719452.672 9  -2885835.28445  25004125.302    25004124.9964   25004135.6784
  -4076311.223 8  -3149715.30545  25064362.197    25064362.1244   25064379.0034
 00  7 15  2 46 30.0000000  0 10  1  3 22 19 25 27 20 16  4 11       -.000000046
 -22205951.950 9 -17291049.03648  21162307.220    21162307.0304   21162315.3904
  -2059990.263 7  -1416081.88744  25451969.875    25451969.2684   25451987.4244
 -27533088.468 9 -19229852.07448  20751679.785    20751679.2224   20751687.6664
 -15026582.444 9 -11693470.88047  22066273.222    22066273.2074   22066282.6934
  -9281463.122 9  -7217926.83846  24075505.465    24075505.7044   24075515.1254
  -2231719.712 8  -1729309.48245  25021914.839    25021914.7794   25021929.9204
 -22906141.214 9 -17837822.97949  20368564.724    20368564.3664   20368571.9894
 -25225323.164 9 -19633679.08748  20922515.115    20922514.6844   20922523.4944
  -3737726.856 9  -2900074.91845  25000647.851    25000647.4724   25000658.0194
  -3995937.840 8  -3087087.06445  25079656.970    25079656.7964   25079674.0704
 00  7 15  2 47  0.0000000  0 10  1  3 22 19 25 27 20 16  4 11       -.000000011
 -22244645.408 9 -17321199.76448  21154944.078    21154943.8874   21154952.2494
  -2127263.08717  -1468501.96954  25439168.424    25439167.9185           .0005
 -27523782.348 9 -19222600.52548  20753450.656    20753450.0864   20753458.5194
 -15083752.475 9 -11738018.90847  22055394.070    22055394.0684   22055403.5054
  -9198355.914 9  -7153168.01045  24091320.281    24091320.4564   24091329.8394
  -2309472.459 8  -1789895.78745  25007118.769    25007118.6824   25007133.8834
 -22877166.693 9 -17815245.44149  20374078.386    20374078.0494   20374085.6674
 -25265983.515 9 -19665362.46248  20914777.691    20914777.2514   20914786.0664
  -3755525.467 9  -2913943.93845  24997260.845    24997260.6874   24997270.6754
  -3915769.161 8  -3024618.35545  25094912.886    25094912.9424   25094929.7664
 00  7 15  2 47 30.0000000  0  9  1 22 19 25 27 20 16  4 11          -.000000016
 -22283190.881 9 -17351235.17948  21147609.126    21147608.9354   21147617.2914
 -27513826.567 9 -19214842.76048  20755345.169    20755344.5944   20755353.0214
 -15140665.055 9 -11782366.32247  22044563.942    22044563.9264   22044573.3174
  -9115252.195 9  -7088411.87845  24107134.507    24107134.6484   24107143.8724
  -2387094.971 9  -1850380.62745  24992347.543    24992347.4794   24992362.4634
 -22847615.153 9 -17792218.28449  20379701.882    20379701.5364   20379709.1524
 -25306129.621 9 -19696645.12848  20907138.116    20907137.6804   20907146.4914
  -3772829.114 9  -2927427.28045  24993968.049    24993968.3654   24993978.0324
  -3835787.998 8  -2962295.77245  25110133.126    25110133.1164   25110149.8614
 00  7 15  2 48  0.0000000  0  9  1 22 19 25 27 20 16  4 11          -.000000020
 -22321589.820 9 -17381156.41848  21140302.039    21140301.8444   21140310.2144
 -27503223.513 9 -19206580.61348  20757362.799    20757362.2374   20757370.6764
 -15197322.317 9 -11826514.79547  22033782.385    22033782.3704   22033791.7724
  -9032155.018 9  -7023660.87045  24122947.269    24122947.4914   24122956.6544
  -2464589.225 9  -1910765.54745  24977600.714    24977600.7874   24977615.5354
 -22817489.353 9 -17768743.64949  20385434.638    20385434.2884   20385441.9114
 -25345761.999 9 -19727527.48848  20899596.289    20899595.8614   20899604.6854
  -3789640.038 9  -2940526.68045  24990769.010    24990769.3324   24990778.8374
  -3755998.773 8  -2900122.70645  25125316.853    25125316.7054   25125333.6664
 00  7 15  2 48 30.0000000  0  9  1 22 19 25 27 20 16  4 11          -.000000022
 -22359842.347 9 -17410963.56848  21133022.831    21133022.6434   21133030.9904
 -27491974.942 9 -19197815.47548  20759503.284    20759502.7354   20759511.1744
 -15253725.809 9 -11870465.52347  22023049.114    22023049.1004   22023058.4574
  -8949066.695 8  -6958916.75645  24138758.366    24138758.7154   24138767.8814
  -2541956.131 9  -1971051.23945  24962878.150    24962878.0604   24962892.9574
 -22786791.444 9 -17744823.21849  20391276.300    20391275.9434   20391283.5694
 -25384880.396 9 -19758009.34448  20892152.294    20892151.8644   20892160.7034
  -3805959.675 9  -2953243.28045  24987663.475    24987663.6494   24987673.2574
  -3676404.737 8  -2838101.79145  25140463.338    25140463.3484   25140480.4964
 00  7 15  2 49  0.0000000  0  9  1 22 19 25 27 20 16  4 11          -.000000023
 -22397948.796 9 -17440656.88548  21125771.361    21125771.1934   21125779.5294
 -27480082.913 9 -19188548.94448  20761766.251    20761765.6994   20761774.1254
 -15309876.770 9 -11914219.46847  22012363.896    22012363.8984   22012373.2224
  -8865989.843 8  -6894181.57145  24154567.431    24154567.7014   24154576.9314
  -2619196.752 8  -2031238.50545  24948179.529    24948179.3754   24948194.2144
 -22755523.118 9 -17720458.30449  20397226.431    20397226.0844   20397233.7244
 -25423483.859 9 -19788089.94948  20884806.288    20884805.8604   20884814.6884
  -3821789.203 9  -2965577.98745  24984651.195    24984651.6564   24984661.0884
  -3597009.447 8  -2776235.73745  25155572.108    25155572.2094   25155589.0274
 00  7 15  2 49 30.0000000  0  9  1 22 19 25 27 20 16  4 11          -.000000024
 -22435908.475 9 -17470235.83848  21118547.869    21118547.6944   21118556.0344
 -27467548.019 9 -19178781.48648  20764151.592    20764151.0274   20764159.4534
 -15365775.320 9 -11957776.72347  22001726.744    22001726.7514   22001736.0244
  -8782924.810 8  -6829455.62245  24170374.163    24170374.3084   24170383.6884
  -2696310.628 8  -2091327.03645  24933505.071    24933505.0034   24933519.6304
 -22723685.131 9 -17695649.50149  20403285.030    20403284.6904   20403292.3264
 -25461570.918 9 -19817768.16748  20877558.556    20877558.1274   20877566.9574
  -3837128.874 9  -2977531.00445  24981732.154    24981732.4464   24981741.7374
  -3517815.016 8  -2714526.22045  25170642.616    25170642.2874   25170659.7064
 00  7 15  2 50  0.0000000  0  9  1 22 19 25 27 20 16  4 11          -.000000025
 -22473721.173 9 -17499700.25548  21111352.307    21111352.1254   21111360.4724
 -27454371.218 9 -19168513.83348  20766659.028    20766658.4814   20766666.8854
 -15421422.342 9 -12001137.98747  21991137.410    21991137.4424   21991146.6884
  -8699873.463 8  -6764740.31445  24186178.439    24186178.4384   24186187.9944
  -2773298.237 8  -2151317.17145  24918854.616    24918854.5764   24918868.7834
 -22691279.136 9 -17670398.09349  20409451.654    20409451.3314   20409458.9644
 -25499140.736 9 -19847043.33048  20870409.247    20870408.8274   20870417.6244
  -3851979.405 9  -2989102.82145  24978906.179    24978906.5544   24978916.0764
  -3438824.279 8  -2652975.41544  25185674.233    25185673.9394   25185690.9064
 00  7 15  2 50 30.0000000  0  9  1 22 19 25 27 20 16  4 11          -.000000025
 -22511385.159 9 -17529048.79848  21104185.070    21104184.8874   21104193.2154
 -27440552.112 9 -19157745.68848  20769288.725    20769288.1714   20769296.5594
 -15476816.989 9 -12044302.60047  21980596.107    21980596.1204   21980605.4004
  -8616836.356 8  -6700036.13445  24201979.824    24201979.8584   24201989.4324
  -2850158.528 8  -2211208.08445  24904228.419    24904228.2924   24904242.7314
 -22658305.072 9 -17644704.03649  20415726.422    20415726.0774   20415733.7394
 -25536190.666 9 -19875913.39648  20863358.858    20863358.4384   20863367.2254
  -3866340.171 8  -3000293.03045  24976173.376    24976173.8444   24976183.4684
  -3360038.547 8  -2591584.39944  25200667.110    25200666.5894   25200683.9304
 00  7 15  2 51  0.0000000  0  9  1 22 19 25 27 20 16  4 11          -.000000026
 -22548900.188 9 -17558281.26448  21097046.196    21097046.0094   21097054.3494
 -27426091.971 9 -19146478.02048  20772040.376    20772039.8064   20772048.2174
 -15531960.382 9 -12087271.42847  21970102.633    21970102.6644   21970111.9444
  -8533814.981 8  -6635344.17545  24217778.148    24217778.2514   24217787.9364
  -2926892.104 8  -2271000.22645  24889626.312    24889626.1714   24889640.7244
 -22624764.337 9 -17618568.41549  20422109.044    20422108.6884   20422116.3744
 -25572719.672 9 -19904377.54548  20856407.621    20856407.1904   20856415.9794
  -3880212.337 8  -3011102.55045  24973533.565    24973534.0914   24973543.4224
  -3281460.950 8  -2530355.56144  25215620.241    25215619.7504   25215637.8724
 00  7 15  2 51 30.0000000  0 10  1  3 22 19 25 27 20 16  4 11       -.000000026
 -22586264.990 9 -17587396.67348  21089935.884    21089935.7014   21089944.0334
   -654269.716 8   -496017.64842          .000            .0004           .0004
 -27410991.848 9 -19134711.68048  20774913.813    20774913.2674   20774921.6544
 -15586852.179 9 -12130044.20747  21959657.023    21959657.0464   21959666.3094
  -8450810.157 9  -6570665.12245  24233573.488    24233573.6764   24233583.3074
  -3003498.428 8  -2330693.20645  24875048.316    24875048.3054   24875062.5024
 -22590657.707 9 -17591991.83849  20428599.330    20428598.9854   20428606.6674
 -25608725.982 9 -19932434.39648  20849555.854    20849555.4334   20849564.2204
  -3893595.726 8  -3021531.14345  24970986.822    24970987.1554   24970996.9734
  -3203093.422 8  -2469290.32844  25230533.284    25230532.4464   25230550.9774
 00  7 15  2 52  0.0000000  0 10  1  3 22 19 25 27 20 16  4 11       -.000000023
 -22623472.960 9 -17616389.87448  21082855.449    21082855.2634   21082863.5824
   -722429.294 8   -549123.54452          .000            .0004           .0005
 -27395246.277 9 -19122442.39448  20777910.076    20777909.5334   20777917.9274
 -15641486.739 9 -12172616.54947  21949260.381    21949260.4234   21949269.6074
  -8367816.689 9  -6505994.94145  24249366.731    24249366.8424   24249376.4804
  -3079971.400 8  -2390282.30245  24860495.798    24860495.7464   24860510.1234
 -22555980.028 9 -17564970.28949  20435198.282    20435197.9374   20435205.6084
 -25644202.207 9 -19960078.19848  20842804.938    20842804.5074   20842813.3024
  -3906484.566 8  -3031574.42045  24968534.184    24968534.5034   24968544.7054
  -3124931.861 8  -2408385.78444  25245407.300    25245406.6284   25245424.8704
 00  7 15  2 52 30.0000000  0 10  1  3 22 19 25 27 20 16  4 11       -.000000022
 -22660532.148 9 -17645267.13948  21075803.306    21075803.1254   21075811.4424
   -790668.066 8   -602287.99852          .000            .0004           .0005
 -27378864.490 9 -19109677.35848  20781027.376    20781026.8454   20781035.2504
 -15695873.014 9 -12214995.41747  21938911.009    21938910.9984   21938920.2014
  -8284844.587 9  -6441341.36646  24265155.949    24265156.0324   24265165.5484
  -3156319.842 8  -2449774.31745  24845966.903    24845966.8764   24845980.8584
 -22520741.115 9 -17537511.41349  20441904.020    20441903.6554   20441911.3634
 -25679155.664 9 -19987314.64748  20836153.496    20836153.0714   20836161.8564
  -3918888.129 8  -3041239.54745  24966173.882    24966174.0584   24966184.2834
  -3046987.607 8  -2347650.47354  25260239.944    25260238.8794           .0005
 00  7 15  2 53  0.0000000  0 10  1  3 22 19 25 27 20 16  4 11       -.000000022
 -22697440.010 9 -17674026.48548  21068779.939    21068779.7574   21068788.0824
   -858982.428 8   -467595.61642          .000            .0004           .0004
 -27361845.675 9 -19096415.92348  20784265.954    20784265.4124   20784273.8034
 -15750009.852 9 -12257179.92047  21928609.060    21928609.0504   21928618.2684
  -8201893.526 9  -6376704.18946  24280941.019    24280941.1344   24280950.7154
  -3232542.069 8  -2509168.01645  24831462.033    24831461.8974   24831476.1784
 -22484940.354 9 -17509614.73449  20448716.711    20448716.3584   20448724.0504
 -25713583.016 9 -20014141.14448  20829602.184    20829601.7674   20829610.5294
  -3930805.154 8  -3050525.56545  24963906.080    24963906.3174   24963916.2834
  -2969261.21617  -2287084.85954          .000            .0005           .0005
 00  7 15  2 53 30.0000000  0 10  1  3 22 19 25 27 20 16  4 11       -.000000022
 -22734194.694 9 -17702666.47548  21061785.768    21061785.5794   21061793.8764
   -927368.803 8   -520870.40652          .000            .0004           .0005
 -27344189.819 9 -19082658.10648  20787625.758    20787625.2074   20787633.5704
 -15803896.729 9 -12299169.65247  21918354.699    21918354.6994   21918363.8974
  -8118963.240 9  -6312083.20946  24296722.125    24296722.3794   24296731.8544
  -3308636.783 8  -2568462.34545  24816981.515    24816981.4624   24816995.6304
 -22448577.808 9 -17481280.30149  20455636.264    20455635.9184   20455643.6204
 -25747481.887 9 -20040555.83948  20823151.453    20823151.0234   20823159.7794
  -3942235.280 8  -3059432.19145  24961730.998    24961731.4024   24961741.5604
  -2891753.82217  -2226690.02654          .000            .0005           .0005
 00  7 15  2 54  0.0000000  0 10  1  3 22 19 25 27 20 16  4 11       -.000000021
 -22770795.038 9 -17731186.19748  21054820.905    21054820.7214   21054829.0194
   -995824.176 8   -574188.25752          .000            .0004           .0005
 -27325897.747 9 -19068404.52948  20791106.622    20791106.0674   20791114.4334
 -15857533.172 9 -12340964.24547  21908148.012    21908148.0154   21908157.1864
  -8036054.353 9  -6247478.90146  24312499.254    24312499.4674   24312508.8094
  -3384603.406 8  -2627656.88245  24802525.392    24802525.2304   24802539.5564
 -22411654.035 9 -17452508.54849  20462662.631    20462662.2744   20462670.0084
 -25780850.382 9 -20066557.25349  20816801.625    20816801.2084   20816809.9444
  -3953178.318 8  -3067959.24845  24959648.632    24959648.9454   24959659.1914
  -2814467.393 7   4514109.89542          .000            .0004           .0004
 00  7 15  2 54 30.0000000  0 10  1  3 22 19 25 27 20 16  4 11       -.000000022
 -22807239.941 9 -17759584.80148  21047885.680    21047885.4924   21047893.7804
  -1064345.776 8   -439172.89242          .000            .0004           .0004
 -27306970.098 9 -19053655.70548  20794708.445    20794707.9034   20794716.2604
 -15910919.221 9 -12382563.71547  21897988.921    21897988.9084   21897998.0824
  -7953168.077 9  -6182892.21346  24328272.111    24328272.2374   24328281.5994
  -3460441.655 8  -2686751.35145  24788093.633    24788093.7504   24788107.7274
 -22374170.055 9 -17423300.27049  20469795.583    20469795.2264   20469802.9554
 -25813686.981 9 -20092144.20149  20810553.018    20810552.5944   20810561.3324
  -3963634.544 8  -3076106.97245  24957658.906    24957659.0924   24957669.6004
  -2737403.35617   4574176.40852          .000            .0005           .0005
 00  7 15  2 55  0.0000000  0 10  1  3 22 19 25 27 20 16  4 11       -.000000022
 -22843528.001 9 -17787861.18348  21040980.259    21040980.0734   21040988.3484
  -1132930.360 8   -492615.09252          .000            .0004           .0005
 -27287406.793 9 -19038411.56248  20798431.196    20798430.6564   20798439.0114
 -15964054.732 9 -12423967.96647  21887877.550    21887877.5384   21887886.6904
  -7870304.379 9  -6118323.11646  24344040.563    24344040.7014   24344050.1004
  -3536150.913 8  -2745745.29945  24773686.474    24773686.5144   24773700.5914
 -22336126.308 9 -17393655.81249  20477035.078    20477034.7444   20477042.4754
 -25845989.620 9 -20117315.07549  20804406.018    20804405.5804   20804414.3294
  -3973603.808 8  -3083875.24345  24955761.830    24955761.8354   24955772.1524
  -2660563.564 7   4634073.20852          .000            .0004           .0005
 00  7 15  2 55 30.0000000  0 10  1  3 22 19 25 27 20 16  4 11       -.000000022
 -22879658.376 9 -17816014.69648  21034104.869    21034104.6824   21034112.9664
  -1201575.51518   -546104.39745          .000            .0005   25219017.8144
 -27267208.740 9 -19022672.80348  20802274.729    20802274.1954   20802282.5664
 -16016939.770 9 -12465177.04647  21877813.815    21877813.8054   21877822.9474
  -7787464.394 9  -6053772.50146  24359804.466    24359804.5784   24359814.0294
  -3611731.188 9  -2804638.74545  24759303.930    24759303.8414   24759317.9704
 -22297524.018 9 -17363576.12249  20484380.862    20484380.5094   20484388.2604
 -25877757.375 9 -20142069.15349  20798360.810    20798360.3754   20798369.1354
  -3983086.794 8  -3091264.58445  24953957.245    24953957.3654   24953967.4244
  -2583950.279 7   4532827.21342          .000            .0004           .0004
 00  7 15  2 56  0.0000000  0 10  1  3 22 19 25 27 20 16  4 11       -.000000023
 -22915629.745 9 -17844044.30848  21027259.741    21027259.5614   21027267.8304
  -1270278.419 8   -599638.80445  25205929.980    25205929.7484   25205948.1094
 -27246376.958 9 -19006440.24048  20806238.872    20806238.3514   20806246.7144
 -16069574.252 9 -12506190.88447  21867797.765    21867797.7394   21867806.8814
  -7704648.980 9  -5989241.04746  24375563.676    24375563.8184   24375573.4904
  -3687182.087 9  -2863431.37345  24744946.014    24744945.9514   24744959.9494
 -22258363.975 9 -17333061.82349  20491832.797    20491832.4504   20491840.2024
 -25908987.703 9 -20166404.45949  20792417.869    20792417.4394   20792426.1634
  -3992083.618 8  -3098275.10445  24952245.212    24952245.3584   24952255.7104
  -2507565.45617   4592327.16752          .000            .0005           .0005
 00  7 15  2 56 30.0000000  0 10  1  3 22 19 25 27 20 16  4 11       -.000000023
 -22951441.108 9 -17871949.23448  21020445.001    21020444.8294   21020453.1044
  -1339036.572 8   -653216.32145  25192845.541    25192844.7964   25192860.8694
 -27224912.625 9 -18989714.76948  20810323.425    20810322.8834   20810331.2274
 -16121958.453 9 -12547009.69747  21857829.318    21857829.3204   21857838.4674
  -7621858.641 9  -5924729.10446  24391318.221    24391318.2914   24391327.9194
  -3762503.308 9  -2922122.95845  24730612.714    24730612.6244   24730626.6404
 -22218647.135 9 -17302113.65249  20499390.655    20499390.3074   20499398.0714
 -25939679.618 9 -20190320.22049  20786577.379    20786576.9524   20786585.6724
  -4000594.536 8  -3104907.00045  24950625.612    24950625.8124   24950636.2244
  -2431410.973 7   4651638.08852          .000            .0004           .0005
 00  7 15  2 57  0.0000000  0 10  1  3 22 19 25 27 20 16  4 11       -.000000023
 -22987091.341 9 -17899728.61348  21013660.990    21013660.8254   21013669.0674
  -1407847.214 8   -706834.69145  25179751.182    25179750.9514   25179766.0574
 -27202816.087 9 -18972496.67848  20814528.245    20814527.7124   20814536.0454
 -16174092.721 9 -12587633.75947  21847908.463    21847908.4684   21847917.5964
  -7539094.413 9  -5860237.51645  24407067.817    24407067.9494   24407077.4594
  -3837694.465 8  -2980713.20245  24716304.082    24716304.0004   24716317.9524
 -22178374.258 9 -17270732.20749  20507054.359    20507054.0124   20507061.7704
 -25969831.462 9 -20213815.14949  20780839.672    20780839.2544   20780847.9584
  -4008619.755 8  -3111160.42145  24949098.468    24949098.7384   24949109.0804
  -2355488.725 7   4551610.33842          .000            .0004           .0004
 00  7 15  2 57 30.0000000  0 10  1  3 22 19 25 27 20 16  4 11       -.000000024
 -23022579.460 9 -17927381.66648  21006907.801    21006907.6304   21006915.8554
  -1476707.419 8   -760491.70645  25166647.344    25166647.1534   25166662.5714
 -27180088.036 9 -18954786.49248  20818853.234    20818852.6984   20818861.0264
 -16225977.045 9 -12628063.05447  21838035.192    21838035.1934   21838044.2964
  -7456357.066 8  -5795766.87945  24422812.173    24422812.3594   24422821.7944
  -3912755.435 9  -3039202.00845  24702020.249    24702020.2274   24702034.1284
 -22137546.646 9 -17238918.50649  20514823.601    20514823.2434   20514831.0234
 -25999441.456 9 -20236887.86149  20775205.080    20775204.6454   20775213.3614
  -4016159.935 8  -3117035.93545  24947663.610    24947664.1414   24947674.6214
  -2279800.455 7   4610601.56952          .000            .0004           .0005
 00  7 15  2 58  0.0000000  0 10  1  3 22 19 25 27 20 16  4 11       -.000000024
 -23057904.433 9 -17954907.59648  21000185.676    21000185.4944   21000193.7404
  -1545614.475 8   -814185.22545  25153534.494    25153534.2514   25153549.9894
 -27156729.229 9 -18936584.81748  20823298.262    20823297.7414   20823306.0434
 -16277611.556 9 -12668297.70547  21828209.425    21828209.4054   21828218.5464
  -7373646.906 8  -5731317.39745  24438551.374    24438551.6634   24438560.9324
  -3987685.903 8  -3097589.12545  24687761.287    24687761.2794   24687775.0184
 -22096165.231 9 -17206673.27149  20522698.243    20522697.8924   20522705.6794
 -26028508.078 9 -20259537.16349  20769673.874    20769673.4444   20769682.1624
  -4023215.087 9  -3122533.47345  24946320.980    24946321.6094   24946331.6444
  -2204348.357 7   4669417.64152          .000            .0004           .0005
 00  7 15  2 58 30.0000000  0 10  1  3 22 19 25 27 20 16  4 11       -.000000025
 -23093064.673 9 -17982305.16148  20993494.903    20993494.7164   20993502.9494
  -1614565.642 8   -867913.10145  25140413.271    25140413.0444   25140428.6544
 -27132740.914 9 -18917892.61248  20827863.064    20827862.5314   20827870.8454
 -16328996.011 9 -12708337.49247  21818431.251    21818431.2344   21818440.3934
  -7290965.123 8  -5666890.06445  24454285.063    24454285.3014   24454294.8294
  -4062485.627 8  -3155874.36945  24673527.156    24673527.1034   24673540.7494
 -22054230.709 9 -17173997.03749  20530678.102    20530677.7484   20530685.5434
 -26057030.119 9 -20281762.11549  20764246.307    20764245.8624   20764254.5594
  -4029785.856 8  -3127653.52945  24945070.724    24945071.3464   24945081.3244
  -2129133.957 7   4570492.42342          .000            .0004           .0004
 00  7 15  2 59  0.0000000  0 10  1  3 22 19 25 27 20 16  4 11       -.000000026
 -23128059.299 9 -18009573.68248  20986835.624    20986835.4464   20986843.6694
  -1683558.234 8   -921673.28345  25127284.122    25127284.0434   25127299.4864
 -27108124.269 9 -18898710.79748  20832547.476    20832546.9484   20832555.2694
 -16380130.698 9 -12748182.66247  21808700.587    21808700.5814   21808709.7144
  -7208312.175 8  -5602485.19745  24470013.273    24470013.5014   24470023.1494
  -4137154.328 8  -3214057.51045  24659317.955    24659317.9404   24659331.3924
 -22011744.474 9 -17140890.90449  20538762.984    20538762.6404   20538770.4364
 -26085005.901 9 -20303561.41949  20758922.673    20758922.2274   20758930.9284
  -4035872.579 8  -3132396.46145  24943912.504    24943913.0784   24943923.0654
  -2054159.063 7   4628918.71852          .000            .0004           .0005
 00  7 15  2 59 30.0000000  0 10  1  3 22 19 25 27 20 16  4 11       -.000000026
 -23162887.475 9 -18036712.49748  20980208.010    20980207.8344   20980216.0334
  -1752589.677 8   -975463.71545  25114147.628    25114147.3884   25114163.1684
 -27082880.358 9 -18879040.20448  20837351.221    20837350.6724   20837359.0094
 -16431016.010 9 -12787833.50947  21799017.412    21799017.4044   21799026.5184
  -7125689.184 8  -5538103.66745  24485735.820    24485736.0964   24485745.8544
  -4211692.054 8  -3272138.62345  24645133.684    24645133.6304   24645147.1464
 -21968707.966 9 -17107355.98349  20546952.571    20546952.2314   20546960.0104
 -26112434.367 9 -20324934.24149  20753703.195    20753702.7414   20753711.4394
  -4041476.060 8  -3136762.83145  24942846.152    24942846.7964   24942856.8144
  -1979425.625 8   4687161.01552          .000            .0004           .0005
 00  7 15  3  0  0.0000000  0 10  1  3 22 19 25 27 20 16  4 11       -.000000026
 -23197548.260 9 -18063720.87248  20973612.269    20973612.0814   20973620.2964
  -1821657.470 8  -1029282.43945  25101004.264    25101003.9874   25101019.9904
 -27057009.965 9 -18858881.43848  20842274.179    20842273.6244   20842281.9674
 -16481652.266 9 -12827290.28847  21789381.624    21789381.6154   21789390.7244
  -7043097.118 8  -5473746.24745  24501452.742    24501453.0584   24501462.5084
  -4286098.701 8  -3330117.59345  24630974.408    24630974.3714   24630987.8084
 -21925122.297 9 -17073393.14648  20555246.665    20555246.3394   20555254.1094
 -26139314.517 9 -20345879.80949  20748588.068    20748587.6224   20748596.3284
  -4046596.879 8  -3140753.06045  24941871.682    24941872.2324   24941882.3334
  -1904936.113 8   4589452.72342          .000            .0004           .0004
 00  7 15  3  0 30.0000000  0 10  1  3 22 19 25 27 20 16  4 11       -.000000027
 -23232040.560 9 -18090597.97148  20967048.592    20967048.4144   20967056.6034
  -1890758.833 7  -1083127.33645  25087854.423    25087854.5004   25087870.0724
 -27030514.220 9 -18838235.38548  20847316.138    20847315.5844   20847323.9164
 -16532039.655 9 -12866553.14647  21779793.212    21779793.2034   21779802.2694
  -6960536.670 8  -5409413.42345  24517163.464    24517163.5514   24517172.9764
  -4360374.293 8  -3387994.44245  24616840.030    24616839.8874   24616853.2784
 -21880989.072 9 -17039003.64448  20563644.962    20563644.6354   20563652.3934
 -26165644.336 9 -20366396.54549  20743577.678    20743577.2304   20743585.9364
  -4051235.625 8  -3144367.69445  24940988.963    24940989.3724   24940999.6294
  -1830692.775 8   4647303.66352          .000            .0004           .0005
 00  7 15  3  1  0.0000000  0 10  1  3 22 19 25 27 20 16  4 11       -.000000027
 -23266362.859 9 -18117342.60248  20960517.250    20960517.0864   20960525.2474
  -1959890.590 8  -1136995.93045  25074698.792    25074698.9174   25074714.2104
 -27003394.274 9 -18817102.94748  20852476.885    20852476.3414   20852484.6384
 -16582178.013 9 -12905621.94947  21770252.144    21770252.1684   21770261.2224
  -6878008.258 8  -5345105.54745  24532868.066    24532868.2494   24532877.7164
  -4434518.100 8  -3445768.63845  24602730.733    24602730.6144   24602744.0404
 -21836308.714 9 -17004187.81048  20572147.383    20572147.0494   20572154.8274
 -26191422.538 9 -20386483.45249  20738672.241    20738671.7864   20738680.4984
  -4055392.741 8  -3147607.01345  24940197.897    24940198.2804   24940208.6524
  -1756696.130 8   4704962.36452          .000            .0004           .0005
 00  7 15  3  1 30.0000000  0 10  1  3 22 19 25 27 20 16  4 11       -.000000028
 -23300514.163 9 -18143953.98848  20954018.494    20954018.3154   20954026.4814
  -2029050.228 7  -1190886.24045  25061537.903    25061537.9404   25061553.2084
 -26975651.482 9 -18795485.17548  20857756.130    20857755.5864   20857763.8734
 -16632067.807 9 -12944497.06847  21760758.404    21760758.4204   21760767.5044
  -6795512.855 8  -5280823.40445  24548566.481    24548566.8414   24548576.2744
  -4508529.940 8  -3503439.99645  24588646.521    24588646.3854   24588659.8624
 -21791082.565 9 -16968946.67848  20580753.645    20580753.3014   20580761.0974
 -26216647.979 9 -20406139.63549  20733871.986    20733871.5394   20733880.2534
  -4059068.399 8  -3150471.16945  24939498.429    24939498.7144   24939509.2254
  -1682948.384 8   4608500.14642          .000            .0004           .0004
 00  7 15  3  2  0.0000000  0 10  1  3 22 19 25 27 20 16  4 11       -.000000028
 -23334493.400 9 -18170431.30148  20947552.454    20947552.2714   20947560.4104
  -2098235.127 8  -1244796.23245  25048372.304    25048372.1924   25048387.6004
 -26947286.543 9 -18773382.61848  20863153.793    20863153.2794   20863161.5634
 -16681709.273 9 -12983178.68948  21751311.916    21751311.9304   21751320.9844
  -6713050.805 9  -5216567.27445  24564258.591    24564258.8074   24564268.2694
  -4582409.712 8  -3561008.43445  24574587.433    24574587.2474   24574600.6114
 -21745311.947 9 -16933281.29048  20589463.519    20589463.1814   20589470.9584
 -26241318.832 9 -20425363.67549  20729177.260    20729176.8204   20729185.5254
  -4062263.546 8  -3152960.90945  24938890.402    24938890.6254   24938901.3144
  -1609451.611 8   4665768.79852          .000            .0004           .0005
 00  7 15  3  2 30.0000000  0 10  1  3 22 19 25 27 20 16  4 11       -.000000023
 -23368290.379 9 -18196766.59248  20941121.087    20941120.9044   20941129.0384
  -2167433.564 8  -1298716.81645  25035204.095    25035204.2204   25035219.2024
 -26918291.727 9 -18750789.24048  20868671.304    20868670.7704   20868679.0534
 -16731093.760 9 -13021660.07248  21741914.333    21741914.3564   21741923.3924
  -6630614.115 9  -5152330.88545  24579945.815    24579945.9974   24579955.3724
  -4656148.569 8  -3618467.08845  24560555.176    24560555.0114   24560568.3414
 -21698989.453 9 -16897185.86948  20598278.409    20598278.0794   20598285.8644
 -26265425.506 9 -20444148.08949  20724589.921    20724589.4854   20724598.2044
  -4064969.976 8  -3155069.82745  24938375.463    24938375.7214   24938386.0914
  -1536199.080 8   4722844.38552          .000            .0004           .0005
 00  7 15  3  3  0.0000000  0 10  1  3 22 19 25 27 20 16  4 11       -.000000034
 -23401916.425 9 -18222968.68348  20934722.250    20934722.0544   20934730.2074
  -2236655.004 8  -1352655.31945  25022031.583    25022031.6184   25022046.6614
 -26888680.360 9 -18727715.43148  20874306.180    20874305.6294   20874313.9114
 -16780233.584 9 -13059950.79548  21732563.287    21732563.3004   21732572.3314
  -6548215.690 9  -5088124.33445  24595625.711    24595625.9134   24595635.3434
  -4729758.572 8  -3675825.35645  24546547.511    24546547.3704   24546560.5504
 -21652128.513 9 -16860670.87848  20607195.780    20607195.4454   20607203.2404
 -26288978.736 9 -20462501.25149  20720107.867    20720107.4484   20720116.1354
  -4067200.464 8  -3156807.89945  24937951.079    24937951.3364   24937961.8514
  -1463204.036 8   4627670.71942          .000            .0004           .0004
 00  7 15  3  3 30.0000000  0 10  1  3 22 19 25 27 20 16  4 11       -.000000032
 -23435369.381 9 -18249035.90548  20928356.348    20928356.1414   20928364.2844
  -2305895.310 8  -1406608.55545  25008855.384    25008855.5104   25008870.5624
 -26858453.124 9 -18704161.71948  20880058.217    20880057.6774   20880065.9734
 -16829127.955 9 -13098050.24648  21723258.963    21723258.9814   21723268.0254
  -6465855.370 9  -5023947.45845  24611298.281    24611298.5424   24611307.9844
  -4803238.440 8  -3733082.18645  24532564.659    24532564.4094   24532577.5424
 -21604729.392 9 -16823736.52348  20616215.570    20616215.2314   20616223.0174
 -26311975.995 9 -20480421.19049  20715731.660    20715731.2384   20715739.9174
  -4068954.642 8  -3158174.81445  24937617.334    24937617.4064   24937628.1574
  -1390467.504 8   4684350.86842          .000            .0004           .0004
 00  7 15  3  4  0.0000000  0 10  1  3 22 19 25 27 20 16  4 11       -.000000031
 -23468647.238 9 -18274966.68348  20922023.763    20922023.5654   20922031.6984
  -2375151.118 8  -1460573.88145  24995676.262    24995676.2344   24995691.2894
 -26827610.458 9 -18680128.44648  20885927.355    20885926.8144   20885935.1024
 -16877776.120 9 -13135957.86048  21714001.503    21714001.5294   21714010.5334
  -6383532.901 9  -4959800.07645  24626963.760    24626964.0174   24626973.4404
  -4876587.094 8  -3790236.81345  24518606.743    24518606.6414   24518619.4634
 -21556792.427 9 -16786383.06648  20625337.690    20625337.3564   20625345.1404
 -26334415.574 9 -20497906.56849  20711461.548    20711461.1144   20711469.7934
  -4070232.456 8  -3159170.53845  24937374.153    24937374.4744   24937384.9854
  -1317989.810 7   4740830.72952          .000            .0004           .0005
 00  7 15  3  4 30.0000000  0  9  1  3 22 19 25 27 20 16  4          -.000000031
 -23501748.409 9 -18300759.79149  20915724.821    20915724.6154   20915732.7544
  -2444419.012 8  -1514548.61845  24982494.918    24982494.8484   24982509.9914
 -26796152.781 9 -18655615.96248  20891913.547    20891913.0004   20891921.2834
 -16926177.762 9 -13173673.39148  21704790.957    21704790.9764   21704799.9774
  -6301248.600 8  -4895682.46545  24642621.987    24642622.1784   24642631.6584
  -4949803.867 8  -3847288.69045  24504673.952    24504673.8474   24504686.5924
 -21508318.690 9 -16748611.35248  20634561.973    20634561.6404   20634569.4004
 -26356295.857 9 -20514956.13949  20707297.881    20707297.4364   20707306.1264
  -4071033.924 8  -3159795.09245  24937221.637    24937222.1304   24937232.6054
 00  7 15  3  5  0.0000000  0  9  1  3 22 19 25 27 20 16  4          -.000000031
 -23534670.981 9 -18326413.71949  20909459.853    20909459.6524   20909467.7904
  -2513695.628 8  -1568530.16545  24969311.778    24969311.6954   24969326.7854
 -26764080.525 9 -18630624.57448  20898016.684    20898016.1444   20898024.4354
 -16974332.455 9 -13211196.47348  21695627.371    21695627.3904   21695636.3824
  -6219002.393 9  -4831594.52645  24658272.908    24658273.1234   24658282.6274
  -5022888.046 8  -3904237.22545  24490766.287    24490766.2264   24490779.0484
 -21459308.943 9 -16710421.96248  20643888.239    20643887.9044   20643895.6604
 -26377614.710 9 -20531568.23049  20703241.015    20703240.5754   20703249.2604
  -4071359.156 8  -3160048.57045  24937159.750    24937160.1534   24937170.9704
 00  7 15  3  5 30.0000000  0  9  1  3 22 19 25 27 20 16  4          -.000000030
 -23567414.062 9 -18351927.79748  20903229.025    20903228.8364   20903236.9614
  -2582978.436 8  -1622516.53545  24956127.578    24956127.5624   24956142.4824
 -26731395.420 9 -18605155.65548  20904236.447    20904235.9094   20904244.1804
 -17022240.611 9 -13248527.46048  21686510.733    21686510.7614   21686519.7244
  -6136794.785 8  -4767536.66045  24673916.520    24673916.7334   24673926.2544
  -5095839.509 8  -3961082.36545  24476883.989    24476883.9954   24476896.5904
 -21409764.489 9 -16671815.92448  20653316.264    20653315.9074   20653323.6634
 -26398371.089 9 -20547742.03049  20699291.196    20699290.7494   20699299.4454
  -4071209.132 8  -3159931.67545  24937188.375    24937188.8534   24937199.3414
 00  7 15  3  6  0.0000000  0  9  1  3 22 19 25 27 20 16  4          -.000000030
 -23599976.071 9 -18377300.76949  20897032.643    20897032.4564   20897040.5824
  -2652264.422 8  -1676505.39045  24942942.692    24942942.4714   24942957.3614
 -26698098.756 9 -18579210.19048  20910572.588    20910572.0524   20910580.3094
 -17069902.190 9 -13285666.30348  21677440.993    21677441.0304   21677449.9924
  -6054626.430 9  -4703509.38745  24689552.636    24689552.8584   24689562.4344
  -5168657.921 8  -4017823.82945  24463026.961    24463026.9894   24463039.4764
 -21359686.509 9 -16632794.14548  20662845.816    20662845.4804   20662853.2264
 -26418563.997 9 -20563476.76149  20695448.610    20695448.1794   20695456.8894
  -4070584.367 8  -3159444.86045  24937307.282    24937307.6924   24937318.1674
 00  7 15  3  6 30.0000000  0  9  1  3 22 19 25 27 20 16  4          -.000000030
 -23632355.812 9 -18402531.71949  20890870.978    20890870.8014   20890878.9284
  -2721550.518 8  -1730494.32245  24929757.669    24929757.4694   24929772.2244
 -26664191.991 9 -18552789.32448  20917024.823    20917024.2654   20917032.5174
 -17117317.215 9 -13322613.02648  21668418.156    21668418.1864   21668427.1424
  -5972498.178 8  -4639513.38445  24705181.175    24705181.3794   24705190.9064
  -5241343.138 9  -4074461.50645  24449195.276    24449195.1654   24449207.7804
 -21309076.490 9 -16593357.79648  20672476.593    20672476.2524   20672484.0234
 -26438191.585 9 -20578770.98149  20691713.593    20691713.1554   20691721.8674
  -4069485.556 8  -3158588.66145  24937516.411    24937516.6764   24937527.1704
