     2              OBSERVATION DATA                        RINEX VERSION / TYPE
ASHCAN V.  1.90     SOPAC / SCIGN       20000919 05:14:59UTCPGM / RUN BY / DATE
                                                            COMMENT
     SCIGN - Southern California Integrated GPS Network     COMMENT
                                                            COMMENT
      SOPAC - Scripps Orbit and Permanent Array Center      COMMENT
    IGPP - Institute of Geophysics and Planetary Physics    COMMENT
         SIO - Scripps Institution of Oceanography          COMMENT
        UCSD - University of California, San Diego          COMMENT
                                                            COMMENT
                email: archive@lox.ucsd.edu                 COMMENT
                    ftp://lox.ucsd.edu                      COMMENT
                    http://lox.ucsd.edu                     COMMENT
                                                            COMMENT
DHLG DURMID_HILL__                                          MARKER NAME
PFJ                 SOPAC / SCIGN                           OBSERVER / AGENCY
LP02767             ASHTECH Z-XII3      CC00      1D02      REC # / TYPE / VERS
CR519991761         ASH701945B_M    SCIS                    ANT # / TYPE
 -2319099.1500 -4799846.5500  3490090.4400                  APPROX POSITION XYZ
        0.1224        0.0000        0.0000                  ANTENNA: DELTA H/E/N
     1     1                                                WAVELENGTH FACT L1/2
     5    L1    L2    C1    P1    P2                        # / TYPES OF OBSERV
  2000     9    18     0     0   30.000000                  TIME OF FIRST OBS
  2000     9    18    23    59   30.000000                  TIME OF LAST OBS
    30                                                      INTERVAL
                                                            END OF HEADER
 00  9 18  0  0 30.0000000  0 10  1  8 13 28 31 22 20 27  3 19        .000000000
 -24530745.876 9 -19094450.11149  20507599.555    20507599.4044   20507613.5234
  -6191990.102 9  -4802448.86845  23693223.764    23693223.4734   23693251.4524
 -18967285.113 9 -14765022.52348  21569328.383    21569328.8154   21569343.9204
 -19229223.981 9 -14960014.56548  21076617.822    21076617.6714   21076630.8464
  -7851171.628 9  -5859414.27046  23387766.798    23387766.5174   23387789.0414
 -11663972.404 9  -7040878.92946  23341091.241    23341090.6294   23341108.6854
 -11965190.336 9  -9311080.95146  23084547.377    23084547.0504   23084569.3634
 -15298298.850 9 -11903769.59648  22133760.930    22133760.7974   22133778.7984
  -7760812.926 9  -6032654.41746  23190018.372    23190018.3054   23190037.5584
 -24166270.104 9 -18804022.94948  20756498.122    20756498.0954   20756513.3444
 00  9 18  0  1  0.0000000  0 10  1  8 13 28 31 22 20 27  3 19        .000000016
 -24517545.628 9 -19084164.22249  20510111.453    20510111.3154   20510125.3974
  -6265731.644 9  -4859909.48745  23679190.964    23679190.6884   23679218.4544
 -19029837.837 9 -14813764.71848  21557424.845    21557425.2654   21557440.3114
 -19183600.355 9 -14924463.84848  21085299.813    21085299.6514   21085312.8264
  -7936237.094 9  -5925698.72046  23371579.067    23371578.8234   23371601.2204
 -11559452.403 9  -6959434.87946  23360980.771    23360980.2804   23360998.1534
 -11859889.317 9  -9229028.55346  23104585.741    23104585.4184   23104607.8434
 -15344765.388 9 -11939977.14348  22124918.533    22124918.4084   22124936.3654
  -7792594.273 9  -6057418.97546  23183970.598    23183970.5014   23183989.6974
 -24178285.019 9 -18813385.14648  20754211.683    20754211.6784   20754226.9114
 00  9 18  0  1 30.0000000  0 10  1  8 13 28 31 22 20 27  3 19        .000000017
 -24503960.291 9 -19073578.28649  20512696.648    20512696.5064   20512710.5564
  -6339360.886 9  -4917282.58445  23665179.535    23665179.1884   23665206.9214
 -19092159.486 9 -14862326.87948  21545565.294    21545565.7164   21545580.7004
 -19137524.071 9 -14888560.39348  21094067.926    21094067.7704   21094080.9724
  -8021145.693 9  -5991860.93346  23355421.152    23355420.8894   23355443.2134
 -11454751.549 9  -6877849.46646  23380904.720    23380904.2374   23380922.0634
 -11754446.732 9  -9146865.83546  23124651.038    23124650.6974   23124673.2774
 -15391112.143 9 -11976091.35548  22116098.889    22116098.7644   22116116.6994
  -7823932.866 9  -6081838.52746  23178006.956    23178006.8704   23178026.0264
 -24190116.484 9 -18822604.40948  20751960.155    20751960.1674   20751975.3604
 00  9 18  0  2  0.0000000  0 10  1  8 13 28 31 22 20 27  3 19        .000000017
 -24489988.837 9 -19062691.49849  20515355.324    20515355.1854   20515369.2014
  -6412877.441 9  -4974567.87345  23651189.472    23651189.1634   23651216.6674
 -19154247.271 9 -14910706.80348  21533750.259    21533750.6654   21533765.6084
 -19090996.857 9 -14852305.56248  21102921.819    21102921.6714   21102934.9154
  -8105893.953 9  -6057898.22746  23339293.772    23339293.5244   23339315.7944
 -11349872.677 9  -6796125.36346  23400862.456    23400861.9104   23400879.8344
 -11648865.197 9  -9064594.84346  23144742.769    23144742.4574   23144765.0934
 -15437339.247 9 -12012112.33048  22107302.039    22107301.9134   22107319.8144
  -7854826.477 9  -6105911.33746  23172128.054    23172127.9204   23172147.1434
 -24201764.440 9 -18831680.68348  20749743.541    20749743.5524   20749758.7084
 00  9 18  0  2 30.0000000  0 10  1  8 13 28 31 22 20 27  3 19        .000000017
 -24475630.085 9 -19051502.92049  20518087.714    20518087.5734   20518101.5874
  -6486281.317 9  -5031765.34445  23637220.937    23637220.6944   23637247.9934
 -19216099.218 9 -14958902.96248  21521980.089    21521980.5034   21521995.3864
 -19044020.448 9 -14815700.69348  21111861.224    21111861.0834   21111874.3854
  -8190478.368 9  -6123807.86246  23323197.635    23323197.4064   23323219.5774
 -11244818.230 9  -6714264.51246  23420853.546    23420852.9814   23420870.9584
 -11543147.575 9  -8982217.83046  23164860.410    23164860.1404   23164882.8224
 -15483447.057 9 -12048040.35848  22098527.900    22098527.7884   22098545.6324
  -7885273.116 9  -6129635.85246  23166334.129    23166334.0514   23166353.1454
 -24213229.380 9 -18840614.33748  20747561.760    20747561.7724   20747576.9154
 00  9 18  0  3  0.0000000  0 10  1  8 13 28 31 22 20 27  3 19        .000000017
 -24460883.203 9 -19040011.87349  20520893.991    20520893.8414   20520907.8584
  -6559572.589 9  -5088875.04945  23623273.766    23623273.5494   23623300.7854
 -19277712.854 9 -15006913.47848  21510255.268    21510255.6804   21510270.4994
 -18996596.971 9 -14778747.44748  21120885.691    21120885.5554   21120898.9104
  -8274895.615 9  -6189587.22546  23307133.275    23307133.0884   23307155.2194
 -11139590.883 9  -6632268.96046  23440877.503    23440876.9994   23440894.8984
 -11437296.779 9  -8899737.02946  23185003.411    23185003.1854   23185025.9084
 -15529435.562 9 -12083875.42348  22089776.465    22089776.3564   22089794.1604
  -7915270.871 9  -6153010.60546  23160625.584    23160625.5324   23160644.6144
 -24224511.615 9 -18849405.61748  20745414.785    20745414.7884   20745429.8994
 00  9 18  0  3 30.0000000  0 10  1  8 13 28 31 22 20 27  3 19        .000000017
 -24445747.834 9 -19028218.14249  20523774.181    20523774.0474   20523788.0344
  -6632751.391 9  -5145897.11745  23609348.106    23609347.8394   23609374.9484
 -19339087.280 9 -15054737.55548  21498575.983    21498576.3964   21498591.1744
 -18948728.631 9 -14741447.42548  21129994.841    21129994.6894   21130008.1084
  -8359142.845 9  -6255234.12846  23291101.388    23291101.2274   23291123.2124
 -11034193.961 9  -6550141.26246  23460933.644    23460933.2144   23460951.1704
 -11331316.295 9  -8817155.19746  23205171.081    23205170.8344   23205193.5834
 -15575305.230 9 -12119617.89148  22081047.641    22081047.5394   22081065.3124
  -7944818.088 9  -6176034.30046  23155002.853    23155002.8154   23155021.8694
 -24235611.620 9 -18858054.92248  20743302.488    20743302.4914   20743317.5834
 00  9 18  0  4  0.0000000  0 10  1  8 13 28 31 22 20 27  3 19        .000000017
 -24430223.093 9 -19016121.00349  20526728.460    20526728.3224   20526742.3064
  -6705818.030 9  -5202831.76546  23595443.773    23595443.4954   23595470.5004
 -19400219.854 9 -15102373.20648  21486942.721    21486943.1394   21486957.8724
 -18900417.354 9 -14703802.25548  21139188.221    21139188.0644   21139201.5184
  -8443216.775 9  -6320745.99046  23275102.398    23275102.2534   23275124.1604
 -10928630.660 8  -6467884.01645  23481021.415    23481021.0384   23481038.9894
 -11225209.054 9  -8734474.59146  23225362.899    23225362.6264   23225385.4634
 -15621056.506 9 -12155268.10248  22072341.379    22072341.2764   22072359.0054
  -7973912.722 9  -6198705.35146  23149466.211    23149466.1094   23149485.1664
 -24246529.623 9 -18866562.45048  20741224.809    20741224.8094   20741239.8754
 00  9 18  0  4 30.0000000  0 10  1  8 13 28 31 22 20 27  3 19        .000000017
 -24414307.599 9 -19003719.37449  20529757.111    20529756.9654   20529770.9564
  -6778772.112 9  -5259678.69246  23581560.791    23581560.4964   23581587.3964
 -19461108.608 9 -15149818.87948  21475355.877    21475356.2904   21475370.9984
 -18851664.917 9 -14665813.33548  21148465.544    21148465.3824   21148478.8554
  -8527113.519 9  -6386119.77646  23259137.194    23259136.9954   23259158.9044
 -10822902.081 8  -6385497.78945  23501140.665    23501140.2404   23501158.4384
 -11118977.440 9  -8651697.08146  23245578.281    23245578.0214   23245600.9844
 -15666689.137 9 -12190825.86948  22063657.679    22063657.5784   22063675.2994
  -8002552.141 9  -6221021.69146  23144016.181    23144016.0914   23144035.2214
 -24257265.455 9 -18874928.03148  20739181.812    20739181.8234   20739196.8444
 00  9 18  0  5  0.0000000  0 10  1  8 13 28 31 22 20 27  3 19        .000000017
 -24398000.932 9 -18991012.94849  20532860.212    20532860.0674   20532874.0554
  -6851613.722 9  -5316437.96246  23567699.210    23567698.8834   23567725.7034
 -19521751.418 9 -15197072.93148  21463815.834    21463816.2494   21463830.9044
 -18802473.612 9 -14627482.42448  21157826.361    21157826.1924   21157839.7024
  -8610830.149 9  -6451353.21446  23243206.270    23243206.0144   23243227.9084
 -10717011.500 8  -6302985.39546  23521290.808    23521290.3404   23521308.5634
 -11012624.940 9  -8568825.38046  23265816.728    23265816.4204   23265839.5044
 -15712203.690 9 -12226291.62548  22054996.406    22054996.3044   22055014.0134
  -8030734.852 9  -6242982.15546  23138653.070    23138653.0544   23138672.0504
 -24267819.420 9 -18883151.90448  20737173.453    20737173.4444   20737188.4674
 00  9 18  0  5 30.0000000  0 10  1  8 13 28 31 22 20 27  3 19        .000000017
 -24381302.370 9 -18978001.14449  20536037.871    20536037.7374   20536051.7434
  -6924343.490 9  -5373110.06746  23553858.884    23553858.5444   23553885.2844
 -19582146.946 9 -15244134.31048  21452322.856    21452323.2664   21452337.9004
 -18752845.635 9 -14588811.22148  21167270.234    21167270.0844   21167283.5914
  -8694363.877 9  -6516444.13846  23227310.094    23227309.8984   23227331.6074
 -10610962.064 8  -6220349.17446  23541471.139    23541470.7394   23541489.0134
 -10906154.544 9  -8485861.84746  23286077.654    23286077.3134   23286100.5344
 -15757600.726 9 -12261665.81548  22046357.534    22046357.4354   22046375.1044
  -8058459.373 9  -6264585.60246  23133377.190    23133377.1174   23133396.1144
 -24278192.482 9 -18891234.81748  20735199.483    20735199.5004   20735214.5034
 00  9 18  0  6  0.0000000  0 10  1  8 13 28 31 22 20 27  3 19        .000000017
 -24364210.668 9 -18964682.98649  20539290.363    20539290.2254   20539304.2454
  -6996960.875 9  -5429694.61546  23540039.945    23540039.6204   23540066.2974
 -19642292.200 9 -15291000.68148  21440877.508    21440877.9194   21440892.5354
 -18702782.918 9 -14549801.28248  21176796.864    21176796.7094   21176810.2294
  -8777710.891 9  -6581389.57846  23211449.478    23211449.2894   23211470.8054
 -10504756.384 8  -6137591.22946  23561681.128    23561680.7194   23561699.0804
 -10799568.848 9  -8402808.46446  23306360.566    23306360.2824   23306383.5244
 -15802880.060 9 -12296948.28048  22037741.115    22037741.0094   22037758.6254
  -8085723.509 9  -6285830.29146  23128188.910    23128188.8574   23128207.8644
 -24288384.479 9 -18899176.67648  20733260.010    20733260.0134   20733275.0064
 00  9 18  0  6 30.0000000  0 10  1  8 13 28 31 22 20 27  3 19        .000000017
 -24346725.179 9 -18951057.98649  20542617.762    20542617.6224   20542631.6604
  -7069466.202 9  -5486191.84846  23526242.302    23526242.0224   23526268.5314
 -19702185.736 9 -15337670.89748  21429480.103    21429480.5204   21429495.1164
 -18652287.357 9 -14510454.02448  21186405.840    21186405.6774   21186419.2034
  -8860868.143 9  -6646187.13846  23195624.981    23195624.7144   23195646.2024
 -10398396.929 8  -6054713.28646  23581920.424    23581920.0374   23581938.3294
 -10692871.177 9  -8319667.84646  23326664.771    23326664.4164   23326687.8284
 -15848041.954 9 -12332139.22948  22029146.999    22029146.8794   22029164.4364
  -8112525.265 9  -6306714.67846  23123088.662    23123088.5794   23123107.5024
 -24298395.412 9 -18906977.42548  20731354.995    20731355.0014   20731370.0014
 00  9 18  0  7  0.0000000  0 10  1  8 13 28 31 22 20 27  3 19        .000000018
 -24328844.988 9 -18937125.41149  20546020.292    20546020.1464   20546034.2184
  -7141859.073 9  -5542601.45246  23512466.127    23512465.9004   23512492.2624
 -19761825.170 9 -15384143.08348  21418131.031    21418131.4464   21418145.9934
 -18601360.971 9 -14470771.08748  21196096.787    21196096.6284   21196110.1524
  -8943831.872 9  -6710833.92146  23179837.317    23179837.0834   23179858.3874
 -10291885.936 9  -5971717.36846  23602188.605    23602188.2354   23602206.4844
 -10586063.946 9  -8236441.84946  23346989.896    23346989.5444   23347012.9904
 -15893086.400 9 -12367238.64448  22020575.206    22020575.1034   22020592.6234
  -8138862.965 9  -6327237.44646  23118076.708    23118076.6494   23118095.5244
 -24308225.481 9 -18914637.24248  20729484.410    20729484.4074   20729499.4174
 00  9 18  0  7 30.0000000  0 10  1  8 13 28 31 22 20 27  3 19        .000000018
 -24310569.988 9 -18922885.18149  20549497.919    20549497.7794   20549511.8774
  -7214140.365 9  -5598924.11546  23498711.139    23498710.8124   23498737.1374
 -19821208.755 9 -15430415.91848  21406830.657    21406831.0594   21406845.5854
 -18550006.554 9 -14430754.62248  21205869.207    21205869.0524   21205882.5604
  -9026599.376 9  -6775327.78646  23164086.981    23164086.7174   23164107.9644
 -10185227.023 9  -5888606.28646  23622484.923    23622484.5354   23622502.7034
 -10479150.772 9  -8153133.30346  23367335.111    23367334.7804   23367358.2074
 -15938014.375 9 -12402247.29848  22012025.599    22012025.4924   22012042.9964
  -8164735.142 9  -6347397.44446  23113153.363    23113153.2674   23113172.1044
 -24317875.846 9 -18922157.04548  20727648.037    20727648.0284   20727663.0004
 00  9 18  0  8  0.0000000  0 10  1  8 13 28 31 22 20 27  3 19        .000000018
 -24291899.120 9 -18908336.47749  20553050.911    20553050.7694   20553064.8874
  -7286309.907 9  -5655159.70846  23484977.389    23484977.0094   23485003.2854
 -19880334.591 9 -15476487.91848  21395579.324    21395579.7284   21395594.2384
 -18498225.901 9 -14390406.02348  21215722.688    21215722.5414   21215736.0384
  -9109167.056 9  -6839665.92846  23148374.662    23148374.3854   23148395.5444
 -10078422.649 9  -5805381.89046  23642808.968    23642808.5554   23642826.5814
 -10372134.392 9  -8069744.34446  23387700.007    23387699.7124   23387723.1944
 -15982825.708 9 -12437165.05748  22003498.177    22003498.0654   22003515.5294
  -8190139.753 9  -6367193.08046  23108318.948    23108318.8644   23108337.6484
 -24327346.069 9 -18929536.44448  20725845.917    20725845.9154   20725860.9024
 00  9 18  0  8 30.0000000  0 10  1  8 13 28 31 22 20 27  3 19        .000000018
 -24272831.065 9 -18893478.26749  20556679.461    20556679.3174   20556693.4534
  -7358367.135 9  -5711307.79546  23471264.984    23471264.6124   23471290.8434
 -19939199.966 9 -15522356.95648  21384377.542    21384377.9234   21384392.4184
 -18446020.517 9 -14349726.49148  21225657.060    21225656.9044   21225670.3794
  -9191531.235 9  -6903845.51146  23132701.126    23132700.7654   23132721.8744
  -9971474.861 9  -5722045.69846  23663160.366    23663159.9164   23663177.6844
 -10265017.313 9  -7986276.92646  23408084.012    23408083.7214   23408107.3254
 -16027520.025 9 -12471991.64448  21994993.008    21994992.8944   21995010.3154
  -8215074.571 9  -6386622.65046  23103573.861    23103573.7994   23103592.5634
 -24336635.819 9 -18936775.20248  20724078.127    20724078.1394   20724093.1444
 00  9 18  0  9  0.0000000  0 10  1  8 13 28 31 22 20 27  3 19        .000000018
 -24253365.321 9 -18878310.13949  20560383.672    20560383.5334   20560397.6864
  -7430312.405 9  -5767368.66846  23457573.919    23457573.5904   23457599.7004
 -19997802.470 9 -15568021.08048  21373225.764    21373226.1544   21373240.6224
 -18393392.814 9 -14308717.85748  21235671.769    21235671.6204   21235685.0614
  -9273688.777 9  -6967864.08046  23117066.854    23117066.4694   23117087.5044
  -9864386.381 9  -5638599.72946  23683538.466    23683537.9684   23683555.5294
 -10157802.659 9  -7902733.48646  23428486.575    23428486.2754   23428510.0904
 -16072097.892 9 -12506727.48748  21986510.005    21986509.8864   21986527.2604
  -8239538.096 9  -6405684.99846  23098918.493    23098918.4224   23098937.2154
 -24345745.657 9 -18943873.74048  20722344.600    20722344.5994   20722359.6094
 00  9 18  0  9 30.0000000  0 10  1  8 13 28 31 22 20 27  3 19        .000000018
 -24233501.383 9 -18862831.71449  20564163.647    20564163.5064   20564177.6894
  -7502145.872 9  -5823342.43546  23443904.146    23443903.7844   23443929.8454
 -20056141.502 9 -15613479.94348  21362124.155    21362124.5294   21362138.9854
 -18340345.089 9 -14267381.97648  21245766.410    21245766.2324   21245779.6654
  -9355636.595 9  -7031719.21946  23101472.437    23101472.0844   23101493.0964
  -9757159.896 9  -5555046.34046  23703942.787    23703942.3234   23703959.8584
 -10050493.638 9  -7819116.50746  23448907.140    23448906.8394   23448930.7394
 -16116559.732 9 -12541372.90948  21978049.081    21978048.9734   21978066.3054
  -8263529.010 9  -6424379.06946  23094353.113    23094353.0024   23094371.8304
 -24354675.933 9 -18950832.33948  20720645.199    20720645.2064   20720660.2384
 00  9 18  0 10  0.0000000  0 10  1  8 13 28 31 22 20 27  3 19        .000000019
 -24213238.075 9 -18847042.08449  20568019.635    20568019.4964   20568033.6834
  -7573867.323 9  -5879228.91846  23430255.685    23430255.3924   23430281.3014
 -20114214.051 9 -15658731.24248  21351073.261    21351073.6304   21351088.0394
 -18286878.942 9 -14225720.09048  21255940.696    21255940.5194   21255953.9304
  -9437371.000 9  -7095408.05846  23085918.654    23085918.3024   23085939.2634
  -9649797.461 9  -5471386.90446  23724373.021    23724372.5204   23724389.8064
  -9943092.523 9  -7735427.79346  23469345.189    23469344.9114   23469368.8694
 -16160905.188 9 -12575927.64348  21969610.305    21969610.1964   21969627.4984
  -8287044.725 9  -6442702.85446  23089878.019    23089877.9704   23089896.7844
 -24363426.530 9 -18957650.91348  20718979.987    20718979.9994   20718995.0094
 00  9 18  0 10 30.0000000  0 10  1  8 13 28 31 22 20 27  3 19        .000000019
 -24192575.503 9 -18830941.33549  20571951.596    20571951.4444   20571965.6454
  -7645477.399 9  -5935028.65146  23416628.442    23416628.1564   23416653.9944
 -20172018.762 9 -15703773.72848  21340073.302    21340073.6754   21340088.0754
 -18232997.324 9 -14183734.45448  21266193.995    21266193.8304   21266207.2504
  -9518889.509 9  -7158928.64946  23070405.970    23070405.6414   23070426.4894
  -9542302.781 9  -5387624.34845  23744828.284    23744827.7884   23744844.9334
  -9835603.099 9  -7651670.27146  23489800.033    23489799.7294   23489823.8984
 -16205135.211 9 -12610392.42948  21961193.459    21961193.3424   21961210.6644
  -8310084.572 9  -6460655.84746  23085493.530    23085493.5064   23085512.3094
 -24371998.491 9 -18964330.29348  20717348.801    20717348.7784   20717363.7854
 00  9 18  0 11  0.0000000  0 10  1  8 13 28 31 22 20 27  3 19        .000000019
 -24171512.396 9 -18814528.48549  20575959.731    20575959.6004   20575973.7864
  -7716975.710 9  -5990741.30946  23403022.494    23403022.1964   23403048.0564
 -20229552.568 9 -15748605.13148  21329124.891    21329125.2644   21329139.6274
 -18178701.905 9 -14141426.38748  21276526.082    21276525.9084   21276539.3364
  -9600188.059 9  -7222277.85046  23054935.149    23054934.7814   23054955.5864
  -9434678.381 8  -5303760.89745  23765308.271    23765307.6304   23765324.5814
  -9728027.760 9  -7567845.79946  23510271.240    23510270.9674   23510295.2864
 -16249249.429 9 -12644766.99648  21952798.665    21952798.5744   21952815.8524
  -8332646.088 9  -6478236.11646  23081200.076    23081200.0384   23081218.8534
 -24380391.261 9 -18970870.03048  20715751.667    20715751.6444   20715766.6474
 00  9 18  0 11 30.0000000  0 10  1  8 13 28 31 22 20 27  3 19        .000000019
 -24150047.876 9 -18797802.84749  20580044.314    20580044.1724   20580058.3454
  -7788362.151 9  -6046366.81546  23389437.779    23389437.5304   23389463.3254
 -20286813.722 9 -15793224.10448  21318228.369    21318228.7484   21318243.0964
 -18123994.777 9 -14098797.53848  21286936.500    21286936.3614   21286949.7864
  -9681263.529 9  -7285453.20946  23039506.721    23039506.3724   23039527.1264
  -9326925.700 8  -5219797.19645  23785812.590    23785812.0854   23785828.8914
  -9620369.434 9  -7483956.67546  23530758.214    23530757.9254   23530782.3824
 -16293248.102 9 -12679051.53748  21944425.896    21944425.7904   21944443.0364
  -8354727.679 9  -6495442.41246  23076997.957    23076997.9574   23077016.7414
 -24388604.950 9 -18977270.21648  20714188.609    20714188.5764   20714203.5834
 00  9 18  0 12  0.0000000  0 10  1  8 13 28 31 22 20 27  3 19        .000000019
 -24128181.344 9 -18780763.96249  20584205.345    20584205.2014   20584219.3744
  -7859636.639 9  -6101905.08146  23375874.463    23375874.1604   23375899.9344
 -20343800.356 9 -15837629.16748  21307384.059    21307384.4454   21307398.7744
 -18068877.968 9 -14055849.45948  21297424.910    21297424.7704   21297438.1884
  -9762112.794 9  -7348452.32546  23024121.333    23024121.0344   23024141.6604
  -9219047.660 8  -5135735.93145  23806340.770    23806340.3454   23806356.9324
  -9512630.896 9  -7400005.04346  23551260.482    23551260.2214   23551284.7744
 -16337131.439 9 -12713246.21248  21936075.091    21936074.9924   21936092.1764
  -8376327.933 9  -6512273.64546  23072887.463    23072887.4134   23072906.2244
 -24396640.001 9 -18983531.22548  20712659.552    20712659.5244   20712674.5074
 00  9 18  0 12 30.0000000  0 10  1  8 13 28 31 22 20 27  3 19        .000000019
 -24105912.560 9 -18763411.63449  20588442.947    20588442.7884   20588456.9564
  -7930799.987 9  -6157356.76446  23362332.269    23362331.9354   23362357.6464
 -20400510.308 9 -15881818.64148  21296592.431    21296592.8364   21296607.1244
 -18013354.150 9 -14012584.20148  21307990.803    21307990.6554   21308004.0734
  -9842732.644 9  -7411272.66446  23008779.622    23008779.2644   23008799.9114
  -9111047.111 8  -5051579.09445  23826892.213    23826891.6574   23826908.4544
  -9404815.578 9  -7315993.60446  23571777.435    23571777.1184   23571801.7774
 -16380899.853 9 -12747351.34648  21927746.119    21927746.0184   21927763.1544
  -8397445.334 9  -6528728.61546  23068868.802    23068868.7654   23068887.6344
 -24404496.801 9 -18989653.33948  20711164.373    20711164.3594   20711179.3244
 00  9 18  0 13  0.0000000  0 10  1  8 13 28 31 22 20 27  3 19        .000000019
 -24083240.648 9 -18745745.19149  20592757.254    20592757.1014   20592771.2444
  -8001851.504 9  -6212721.30346  23348811.387    23348811.0554   23348836.6994
 -20456941.343 9 -15925790.79148  21285853.867    21285854.2804   21285868.5344
 -17957424.986 9 -13969003.06848  21318633.817    21318633.6474   21318647.1014
  -9923119.232 9  -7473911.26046  22993482.312    22993482.0744   22993502.5184
  -9002926.870 8  -4967329.15745  23847466.328    23847465.7334   23847482.7554
  -9296925.886 9  -7231924.18346  23592308.553    23592308.2044   23592332.8484
 -16424553.288 9 -12781366.89248  21919439.036    21919438.9384   21919456.0134
  -8418078.039 9  -6544805.89946  23064942.459    23064942.4334   23064961.2064
 -24412175.392 9 -18995636.57048  20709703.139    20709703.1414   20709718.0944
 00  9 18  0 13 30.0000000  0 10  1  8 13 28 31 22 20 27  3 19        .000000019
 -24060165.045 9 -18727764.17649  20597148.391    20597148.2414   20597162.3814
  -8072791.548 9  -6267998.97946  23335311.771    23335311.4514   23335337.0034
 -20513091.810 9 -15969544.31848  21275168.718    21275169.1274   21275183.3774
 -17901092.953 9 -13925108.03648  21329353.448    21329353.2764   21329366.7554
 -10003269.344 9  -7536365.58146  22978229.974    22978229.7334   22978250.1614
  -8894689.999 8  -4882988.35345  23868062.756    23868062.0764   23868079.2644
  -9188964.966 9  -7147799.26846  23612853.221    23612852.9214   23612877.6694
 -16468092.069 9 -12815293.10048  21911153.787    21911153.6944   21911170.7284
  -8438224.690 9  -6560504.42146  23061108.613    23061108.5974   23061127.3374
 -24419676.026 9 -19001481.16548  20708275.736    20708275.7394   20708290.7034
 00  9 18  0 14  0.0000000  0 10  1  8 13 28 31 22 20 27  3 19        .000000020
 -24036685.282 9 -18709468.23649  20601616.416    20601616.2684   20601630.4034
  -8143620.444 9  -6323190.04346  23321833.265    23321832.9514   23321858.4064
 -20568959.980 9 -16013077.87648  21264537.287    21264537.6974   21264551.9174
 -17844360.238 9 -13880900.76648  21340149.347    21340149.1824   21340162.6674
 -10083180.166 9  -7598633.44746  22963023.195    22963022.9514   22963043.2794
  -8786338.472 8  -4798558.38345  23888681.074    23888680.5414   23888697.2904
  -9080935.815 9  -7063621.18546  23633410.877    23633410.5404   23633435.4264
 -16511516.568 9 -12849130.26248  21902890.285    21902890.1854   21902907.2094
  -8457883.761 9  -6575823.02146  23057367.560    23057367.5574   23057386.2134
 -24426998.865 9 -19007187.20948  20706882.199    20706882.2144   20706897.1464
 00  9 18  0 14 30.0000000  0 10  1  8 13 28 31 22 20 27  3 19        .000000020
 -24012800.397 9 -18690856.61149  20606161.551    20606161.3914   20606175.5284
  -8214338.015 9  -6378294.36546  23308375.904    23308375.5684   23308401.0144
 -20624543.019 9 -16056389.25648  21253960.112    21253960.5104   21253974.7074
 -17787229.030 9 -13836383.01648  21351021.078    21351020.9164   21351034.4264
 -10162848.137 9  -7660712.08346  22947862.624    22947862.3764   22947882.6644
  -8677874.253 8  -4714040.42345  23909320.862    23909320.3224   23909337.0444
  -8972841.169 9  -6979392.05646  23653980.987    23653980.6094   23654005.6244
 -16554826.627 9 -12882878.25848  21894648.570    21894648.4714   21894665.4894
  -8477053.291 9  -6590760.14546  23053719.631    23053719.6224   23053738.3064
 -24434143.983 9 -19012754.77548  20705522.517    20705522.5154   20705537.4164
 00  9 18  0 15  0.0000000  0 10  1  8 13 28 31 22 20 27  3 19        .000000020
 -23988510.370 9 -18671929.30649  20610783.772    20610783.6114   20610797.7374
  -8284944.680 9  -6433312.24946  23294939.693    23294939.3504   23294964.7124
 -20679838.907 9 -16099476.84648  21243437.589    21243437.9844   21243452.1514
 -17729701.716 9 -13791556.58948  21361968.196    21361968.0274   21361981.5654
 -10242270.175 9  -7722599.05546  22932748.853    22932748.6394   22932768.8524
  -8569300.143 9  -4629436.67445  23929981.602    23929981.0504   23929997.5514
  -8864684.343 9  -6895114.45645  23674562.953    23674562.5714   23674587.6014
 -16598023.016 9 -12916537.68848  21886428.492    21886428.3914   21886445.3484
  -8495732.334 9  -6605315.07846  23050164.946    23050164.9834   23050183.5834
 -24441112.043 9 -19018184.35948  20704196.475    20704196.4834   20704211.3944
 00  9 18  0 15 30.0000000  0 10  1  8 13 28 31 22 20 27  3 19        .000000020
 -23963814.109 9 -18652685.46849  20615483.300    20615483.1484   20615497.2534
  -8355439.853 9  -6488243.25546  23281524.696    23281524.3764   23281549.6084
 -20734846.420 9 -16142339.73548  21232969.958    21232970.3614   21232984.4744
 -17671780.111 9 -13746422.90348  21372990.361    21372990.1974   21373003.7624
 -10321442.640 9  -7784291.56546  22917682.589    22917682.4094   22917702.5154
  -8460619.035 9  -4544749.56445  23950662.607    23950662.1924   23950678.4554
  -8756467.550 9  -6810790.14445  23695156.285    23695155.9744   23695181.0274
 -16641105.174 9 -12950108.10948  21878230.113    21878230.0174   21878246.9544
  -8513918.809 9  -6619486.17446  23046704.041    23046704.0694   23046722.6504
 -24447902.697 9 -19023475.70648  20702904.230    20702904.2184   20702919.1064
 00  9 18  0 16  0.0000000  0 10  1  8 13 28 31 22 20 27  3 19        .000000021
 -23938711.140 9 -18633124.71349  20620260.223    20620260.0714   20620274.1694
  -8425823.938 9  -6543087.69146  23268130.899    23268130.6094   23268155.6544
 -20789562.427 9 -16184975.49048  21222557.749    21222558.1694   21222572.2564
 -17613466.780 9 -13700983.99448  21384087.068    21384086.8954   21384100.4904
 -10400362.519 9  -7845787.22346  22902664.411    22902664.2364   22902684.2144
  -8351833.637 9  -4459981.25346  23971363.435    23971362.9824   23971379.3394
  -8648194.116 9  -6726421.70045  23715760.356    23715760.0404   23715785.1384
 -16684073.589 9 -12983589.90948  21870053.425    21870053.3174   21870070.2284
  -8531611.676 9  -6633272.63146  23043337.124    23043337.1114   23043355.6644
 -24454516.315 9 -19028629.10248  20701645.650    20701645.6294   20701660.4984
 00  9 18  0 16 30.0000000  0 10  1  8 13 28 31 22 20 27  3 19        .000000021
 -23913201.122 9 -18613246.78649  20625114.615    20625114.4804   20625128.5644
  -8496097.086 9  -6597845.66846  23254758.190    23254757.8664   23254782.7854
 -20843985.571 9 -16227383.04048  21212201.286    21212201.7094   21212215.7934
 -17554763.849 9 -13655241.47548  21395257.889    21395257.7214   21395271.3254
 -10479026.597 9  -7907083.55046  22887694.920    22887694.7694   22887714.7054
  -8242946.004 9  -4375133.32146  23992083.704    23992083.1874   23992099.5514
  -8539866.955 9  -6642011.38445  23736374.708    23736374.4094   23736399.5314
 -16726928.410 9 -13016983.18548  21861898.356    21861898.2434   21861915.1164
  -8548809.476 9  -6646673.30146  23040064.362    23040064.3364   23040082.7744
 -24460953.034 9 -19033644.65748  20700420.731    20700420.7074   20700435.5634
 00  9 18  0 17  0.0000000  0 10  1  8 13 28 31 22 20 27  3 19        .000000021
 -23887283.181 9 -18593050.99749  20630046.596    20630046.4564   20630060.5464
  -8566259.033 9  -6652516.98546  23241406.563    23241406.2204   23241431.0734
 -20898112.885 9 -16269560.06748  21201901.129    21201901.5394   21201915.5894
 -17495673.126 9 -13609196.75648  21406502.464    21406502.3274   21406515.9364
 -10557431.468 9  -7968177.90146  22872774.776    22872774.5684   22872794.4714
  -8133958.315 9  -4290207.42346  24012823.065    24012822.5394   24012838.7474
  -8431488.601 9  -6557561.19045  23756998.802    23756998.4914   23757023.7994
 -16769669.626 9 -13050287.93848  21853764.873    21853764.7644   21853781.6404
  -8565510.348 9  -6659686.75346  23036886.125    23036886.1154   23036904.5424
 -24467212.732 9 -19038522.28448  20699229.491    20699229.4624   20699244.3004
 00  9 18  0 17 30.0000000  0 10  1  8 13 28 31 22 20 27  3 19        .000000021
 -23860956.813 9 -18572536.96249  20635056.364    20635056.2284   20635070.3124
  -8636309.842 9  -6707101.68346  23228076.091    23228075.7394   23228100.6004
 -20951943.067 9 -16311505.50448  21191657.508    21191657.9214   21191671.9504
 -17436197.117 9 -13562851.81748  21417820.392    21417820.2424   21417833.8714
 -10635573.750 9  -8029067.62046  22857904.559    22857904.3134   22857924.1754
  -8024873.383 8  -4205205.70546  24033580.902    24033580.3804   24033596.5734
  -8323061.929 9  -6473073.34245  23777632.051    23777631.8274   23777657.1804
 -16812297.328 9 -13083504.24048  21845653.056    21845652.9594   21845669.7874
  -8581713.004 9  -6672311.99046  23033802.691    23033802.6914   23033821.0714
 -24473295.603 9 -19043262.11048  20698071.911    20698071.8934   20698086.7024
 00  9 18  0 18  0.0000000  0 11  1  8 10 13 28 31 22 20 27  3 19     .000000021
 -23834221.425 9 -18551704.22149  20640143.913    20640143.7864   20640157.8594
  -8706249.716 9  -6761599.94346  23214766.755    23214766.4224   23214791.2104
   -619957.106 8   -466391.73352          .000            .0004           .0005
 -21005473.922 9 -16353217.70648  21181470.848    21181471.2534   21181485.2784
 -17376338.050 9 -13516208.37048  21429211.218    21429211.0564   21429224.6994
 -10713450.130 9  -8089750.14646  22843084.931    22843084.6324   22843104.4244
  -7915693.648 8  -4120129.91845  24054356.702    24054356.2464   24054372.1864
  -8214589.985 9  -6388550.21145  23798273.919    23798273.6674   23798299.2114
 -16854811.687 9 -13116632.22748  21837562.774    21837562.6904   21837579.4644
  -8597416.384 9  -6684548.16646  23030814.286    23030814.2994   23030832.6054
 -24479201.709 9 -19047864.19548  20696947.950    20696947.9514   20696962.7504
 00  9 18  0 18 30.0000000  0 11  1  8 10 13 28 31 22 20 27  3 19     .000000021
 -23807076.344 9 -18530552.22949  20645309.453    20645309.3104   20645323.4094
  -8776078.431 9  -6816011.56846  23201478.562    23201478.2214   23201502.9144
   -706478.75218   -533810.87045          .000            .0005   25642095.9254
 -21058703.272 9 -16394694.98748  21171341.555    21171341.9754   21171355.9494
 -17316098.184 9 -13469268.18248  21440674.520    21440674.3504   21440687.9884
 -10791057.132 9  -8150222.79046  22828316.546    22828316.2764   22828335.9284
  -7806421.979 8  -4034982.81745  24075150.001    24075149.6424   24075165.5184
  -8106075.274 8  -6303993.75645  23818923.899    23818923.5914   23818949.4194
 -16897212.677 9 -13149671.86948  21829494.043    21829493.9564   21829510.7114
  -8612618.489 9  -6696393.73646  23027921.268    23027921.2624   23027939.4984
 -24484931.006 9 -19052328.54048  20695857.644    20695857.6464   20695872.4374
 00  9 18  0 19  0.0000000  0 11  1  8 10 13 28 31 22 20 27  3 19     .000000021
 -23779521.311 9 -18509080.79549  20650553.023    20650552.8804   20650566.9684
  -8845796.311 9  -6870336.84846  23188211.422    23188211.0664   23188235.7204
   -792711.713 8   -601005.34345  25625655.805    25625654.0294   25625685.9314
 -21111628.229 9 -16435935.08048  21161270.183    21161270.5974   21161284.5444
 -17255479.627 9 -13422032.88048  21452209.852    21452209.6644   21452223.2984
 -10868391.814 9  -8210483.24146  22813600.043    22813599.7244   22813619.3384
  -7697060.149 8  -3949765.49345  24095960.515    24095960.0754   24095975.8924
  -7997520.819 8  -6219406.31345  23839581.357    23839581.2314   23839607.0584
 -16939500.554 9 -13182623.36548  21821446.866    21821446.7574   21821463.5064
  -8627318.243 9  -6707847.86246  23025123.851    23025123.8194   23025142.1024
 -24490483.684 9 -19056655.27148  20694800.956    20694800.9574   20694815.7224
 00  9 18  0 19 30.0000000  0 11  1  8 10 13 28 31 22 20 27  3 19     .000000021
 -23751555.995 9 -18487289.68049  20655874.656    20655874.5064   20655888.6034
  -8915403.262 9  -6924575.67046  23174965.401    23174965.0864   23174989.5434
   -878653.533 8   -667972.84545  25609301.481    25609301.2804   25609330.9094
 -21164247.747 9 -16476937.19148  21151256.916    21151257.3294   21151271.2454
 -17194484.835 9 -13374504.44548  21463816.770    21463816.5894   21463830.2154
 -10945450.974 9  -8270529.02346  22798935.911    22798935.6054   22798955.0674
  -7587610.259 8  -3864479.36745  24116787.799    24116787.4964   24116802.9714
  -7888929.541 8  -6134790.19545  23860245.887    23860245.7154   23860271.7444
 -16981675.389 9 -13215486.77048  21813421.170    21813421.0634   21813437.8034
  -8641514.658 9  -6718909.79246  23022422.192    23022422.1604   23022440.3924
 -24495860.000 9 -19060844.61648  20693777.847    20693777.8564   20693792.5694
 00  9 18  0 20  0.0000000  0 11  1  8 10 13 28 31 22 20 27  3 19     .000000021
 -23723179.771 9 -18465178.37249  20661274.500    20661274.3574   20661288.4334
  -8984899.389 9  -6978728.12846  23161740.445    23161740.1614   23161764.5374
   -964302.239 8   -734711.91245  25593002.974    25593001.8934   25593032.4884
 -21216559.297 9 -16517699.34248  21141302.252    21141302.6614   21141316.5454
 -17133115.975 9 -13326684.51148  21475494.848    21475494.6744   21475508.3154
 -11022230.894 9  -8330357.23046  22784324.924    22784324.6214   22784344.0154
  -7478076.192 8  -3779128.15145  24137631.130    24137630.7774   24137646.4364
  -7780304.077 9  -6050147.42445  23880916.953    23880916.7544   23880942.9564
 -17023737.304 9 -13248262.17748  21805416.985    21805416.8844   21805433.6034
  -8655206.129 9  -6729578.23846  23019816.630    23019816.6034   23019834.8084
 -24501060.091 9 -19064896.60448  20692788.259    20692788.2714   20692802.9904
 00  9 18  0 20 30.0000000  0 11  1  8 10 13 28 31 22 20 27  3 19     .000000021
 -23694392.462 9 -18442746.74249  20666752.564    20666752.4254   20666766.4904
  -9054284.965 9  -7032794.43146  23148536.556    23148536.2634   23148560.5594
  -1049655.500 8   -801220.89845  25576760.748    25576759.8084   25576790.4194
 -21268561.091 9 -16558220.08948  21131406.550    21131406.9624   21131420.8204
 -17071375.499 9 -13278574.98948  21487243.621    21487243.4614   21487257.1114
 -11098728.771 9  -8389965.66746  22769767.601    22769767.2894   22769786.6464
  -7368459.113 8  -3693711.51845  24158490.206    24158489.8964   24158505.1024
  -7671647.766 9  -5965480.61745  23901593.937    23901593.7104   23901619.9764
 -17065686.652 9 -13280949.86048  21797434.219    21797434.1214   21797450.7914
  -8668391.472 9  -6739852.29846  23017307.350    23017307.3204   23017325.4324
 -24506084.249 9 -19068811.49248  20691832.144    20691832.1534   20691846.8724
 00  9 18  0 21  0.0000000  0 11  1  8 10 13 28 31 22 20 27  3 19     .000000022
 -23665193.173 9 -18419994.08249  20672309.033    20672308.8784   20672322.9644
  -9123559.868 9  -7086774.52446  23135353.678    23135353.3894   23135377.5294
  -1134711.009 7   -867497.78745  25560575.245    25560574.0844   25560604.8664
 -21320251.152 9 -16598497.93548  21121570.168    21121570.5814   21121584.4134
 -17009265.457 9 -13230177.47548  21499062.733    21499062.5794   21499076.2424
 -11174941.110 9  -8449351.62746  22755264.583    22755264.2894   22755283.4954
  -7258761.555 8  -3608232.37745  24179364.634    24179364.2264   24179379.8154
  -7562963.031 9  -5880791.64345  23922276.371    23922276.1024   23922302.6594
 -17107523.341 9 -13313549.76148  21789472.869    21789472.7624   21789489.4234
  -8681069.188 9  -6749730.80346  23014894.738    23014894.7204   23014912.7734
 -24510932.225 9 -19072589.09848  20690909.629    20690909.6314   20690924.3214
 00  9 18  0 21 30.0000000  0 11  1  8 10 13 28 31 22 20 27  3 19     .000000022
 -23635581.889 9 -18396920.39449  20677943.912    20677943.7574   20677957.8384
  -9192724.259 9  -7140668.49646  23122191.876    23122191.5404   23122215.6124
  -1219465.454 8   -933539.95245  25544446.911    25544445.3284   25544476.5624
 -21371627.462 9 -16638531.30548  21111793.496    21111793.9094   21111807.7134
 -16946788.481 9 -13181494.04648  21510951.681    21510951.5084   21510965.1704
 -11250865.007 9  -8508512.83646  22740816.546    22740816.2514   22740835.3604
  -7148986.611 8  -3522692.89445  24200253.710    24200253.1834   24200268.8214
  -7454252.941 9  -5796082.92345  23942963.585    23942963.2704   23942989.9664
 -17149247.691 9 -13346062.13648  21781532.900    21781532.8094   21781549.4404
  -8693238.397 9  -6759213.06146  23012578.845    23012578.8034   23012596.8194
 -24515604.373 9 -19076229.64449  20690020.507    20690020.4874   20690035.1974
 00  9 18  0 22  0.0000000  0 11  1  8 10 13 28 31 22 20 27  3 19     .000000022
 -23605558.137 9 -18373525.28949  20683657.265    20683657.1124   20683671.2044
  -9261778.418 9  -7194476.56946  23109051.054    23109050.7184   23109074.6554
  -1303917.207 8   -999346.26745  25528376.221    25528374.9344   25528406.1444
 -21422687.549 9 -16678318.26348  21102077.020    21102077.4264   21102091.1984
 -16883946.697 9 -13132526.36048  21522910.071    21522909.8904   21522923.5354
 -11326496.815 9  -8567446.43346  22726424.023    22726423.7444   22726442.7644
  -7039135.969 8  -3437094.58245  24221157.265    24221156.9824   24221172.1264
  -7345520.282 8  -5711356.60945  23963655.033    23963654.7774   23963681.5684
 -17190859.701 9 -13378486.97148  21773614.311    21773614.2314   21773630.8464
  -8704897.597 9  -6768297.93146  23010360.021    23010359.9594   23010377.8984
 -24520100.716 9 -19079733.21849  20689164.864    20689164.8694   20689179.5424
 00  9 18  0 22 30.0000000  0 11  1  8 10 13 28 31 22 20 27  3 19     .000000022
 -23575121.556 9 -18349808.49249  20689449.177    20689449.0134   20689463.1314
  -9330722.396 9  -7248198.79346  23095931.134    23095930.7804   23095954.6624
  -1388063.701 8  -1064914.71545  25512363.585    25512362.3794   25512393.5284
 -21473429.676 9 -16717857.47348  21092421.003    21092421.4114   21092435.1644
 -16820742.441 9 -13083276.23948  21534937.398    21534937.2134   21534950.8464
 -11401833.785 9  -8626150.30946  22712087.720    22712087.4094   22712106.3114
  -6929212.679 8  -3351439.42545  24242074.644    24242074.4024   24242089.1804
  -7236768.262 8  -5626615.17445  23984350.163    23984349.9494   23984376.8394
 -17232359.595 9 -13410824.44448  21765717.071    21765716.9684   21765733.5624
  -8716045.993 9  -6776984.77646  23008238.431    23008238.3784   23008256.2624
 -24524421.553 9 -19083100.03549  20688342.615    20688342.6094   20688357.2454
 00  9 18  0 23  0.0000000  0 11  1  8 10 13 28 31 22 20 27  3 19     .000000023
 -23544271.260 9 -18325769.32449  20695319.818    20695319.6584   20695333.7874
  -9399555.612 9  -7301834.70746  23082832.317    23082831.9994   23082855.8484
  -1471902.658 8  -1130243.50245  25496409.428    25496408.4744   25496439.5244
 -21523851.283 9 -16757146.91848  21082826.008    21082826.4234   21082840.1324
 -16757177.800 9 -13033745.31048  21547033.277    21547033.1094   21547046.7174
 -11476871.976 9  -8684621.35346  22697808.159    22697807.8954   22697826.7164
  -6819218.974 8  -3265729.46445  24263005.474    24263005.2134   24263019.6034
  -7127998.997 9  -5541860.30745  24005048.617    24005048.3104   24005075.2604
 -17273747.064 9 -13443074.31748  21757841.231    21757841.1204   21757857.6874
  -8726681.885 9  -6785272.29946  23006214.289    23006214.2194   23006232.0464
 -24528566.574 9 -19086329.84549  20687553.787    20687553.7654   20687568.4064
 00  9 18  0 23 30.0000000  0 11  1  8 10 13 28 31 22 20 27  3 19     .000000023
 -23513007.025 9 -18301407.60049  20701269.222    20701269.0604   20701283.2034
  -9468278.518 9  -7355384.65846  23069754.457    23069754.1724   23069777.9594
  -1555431.408 8  -1195330.63744  25480514.277    25480513.3584   25480543.9344
 -21573950.622 9 -16796185.25348  21073292.342    21073292.7534   21073306.4454
 -16693254.976 9 -12983935.23348  21559197.335    21559197.1784   21559210.7854
 -11551608.411 9  -8742857.27346  22683586.022    22683585.7514   22683604.5104
  -6709156.319 8  -3179965.57145  24283949.370    24283948.9034   24283963.2314
  -7019215.365 9  -5457094.22545  24025749.747    24025749.4894   24025776.5714
 -17315022.410 9 -13475236.82048  21749986.723    21749986.6084   21750003.1354
  -8736804.202 9  -6793159.62946  23004287.942    23004287.8934   23004305.6344
 -24532536.028 9 -19089422.86349  20686798.383    20686798.3484   20686812.9764
 00  9 18  0 24  0.0000000  0 11  1  8 10 13 28 31 22 20 27  3 19     .000000023
 -23481328.799 9 -18276723.27449  20707297.425    20707297.2564   20707311.4044
  -9536891.423 9  -7408848.89346  23056697.603    23056697.3414   23056721.0244
  -1638648.064 7  -1260174.50754  25464678.425    25464677.7704           .0005
 -21623725.464 9 -16834970.72548  21063820.385    21063820.7914   21063834.4744
 -16628976.825 9 -12933848.31548  21571429.016    21571428.8614   21571442.4664
 -11626040.073 9  -8800855.70446  22669421.910    22669421.6464   22669440.3894
  -6599028.338 9  -3094151.07545  24304905.660    24304905.1554   24304919.7454
  -6910420.560 9  -5372319.43645  24046453.113    24046452.7664   24046479.8534
 -17356186.036 9 -13507312.26948  21742153.468    21742153.3514   21742169.8574
  -8746412.080 9  -6800646.12546  23002459.545    23002459.4494   23002477.1034
 -24536330.073 9 -19092379.18549  20686076.350    20686076.3074   20686090.9334
 00  9 18  0 24 30.0000000  0 11  1  8 10 13 28 31 22 20 27  3 19     .000000023
 -23449235.983 9 -18251715.89049  20713404.473    20713404.3194   20713418.4744
  -9605393.950 9  -7462227.12846  23043661.725    23043661.4264   23043685.0824
  -1721549.175 7  -1324772.52854  25448902.560    25448902.1514           .0005
 -21673174.040 9 -16873501.96648  21054410.564    21054410.9754   21054424.6284
 -16564345.375 9 -12883486.15448  21583727.953    21583727.8164   21583741.3704
 -11700163.401 9  -8858613.88346  22655316.546    22655316.2914   22655334.9104
  -6488836.124 9  -3008286.37145  24325874.156    24325873.5694   24325887.8834
  -6801617.077 9  -5287537.88345  24067158.077    24067157.7034   24067184.8924
 -17397237.518 9 -13539300.33748  21734341.548    21734341.4494   21734357.9144
  -8755504.271 9  -6807730.80546  23000729.177    23000729.1074   23000746.7464
 -24539948.549 9 -19095198.68549  20685387.725    20685387.6944   20685402.3074
 00  9 18  0 25  0.0000000  0 11  1  8 10 13 28 31 22 20 27  3 19     .000000023
 -23416728.551 9 -18226385.42149  20719590.444    20719590.2864   20719604.4754
  -9673786.510 9  -7515519.66346  23030646.765    23030646.4564   23030670.0954
  -1804132.958 7  -1389123.25244  25433187.265    25433187.0014   25433217.8434
 -21722293.934 9 -16911777.09448  21045063.286    21045063.6964   21045077.3194
 -16499363.085 9 -12832850.62848  21596093.673    21596093.5464   21596107.0764
 -11773975.670 9  -8916129.65946  22641270.333    22641270.0554   22641288.6474
  -6378583.688 8  -2922374.85145  24346854.168    24346853.4754   24346867.7694
  -6692807.899 8  -5202751.91245  24087863.998    24087863.5884   24087890.9244
 -17438177.254 9 -13571201.33148  21726550.909    21726550.8024   21726567.2154
  -8764079.898 9  -6814412.98046  22999097.139    22999097.0564   22999114.6514
 -24543391.646 9 -19097881.51048  20684732.419    20684732.3984   20684747.0214
 00  9 18  0 25 30.0000000  0 11  1  8 10 13 28 31 22 20 27  3 19     .000000024
 -23383805.721 9 -18200731.25848  20725855.457    20725855.2994   20725869.5024
  -9742068.697 9  -7568726.19746  23017652.829    23017652.4914   23017676.0674
  -1886396.697 8  -1453224.68544  25417532.919    25417532.5284   25417563.2454
 -21771083.369 9 -16949794.71548  21035778.859    21035779.2634   21035792.8774
 -16434031.591 9 -12781942.90048  21608525.839    21608525.6894   21608539.2184
 -11847473.026 9  -8973400.04546  22627284.032    22627283.7284   22627302.2474
  -6268271.342 8  -2836416.36845  24367845.503    24367844.8434   24367858.6694
  -6583995.613 8  -5117963.50845  24108570.497    24108570.1754   24108597.3814
 -17479004.854 9 -13603014.95148  21718781.600    21718781.5014   21718797.8804
  -8772137.495 9  -6820691.52746  22997563.729    22997563.5984   22997581.1234
 -24546659.066 9 -19100427.42349  20684110.567    20684110.5584   20684125.1834
 00  9 18  0 26  0.0000000  0 11  1  8 10 13 28 31 22 20 27  3 19     .000000024
 -23350467.402 9 -18174753.33648  20732199.523    20732199.3674   20732213.5684
  -9810240.795 9  -7621846.95046  23004679.851    23004679.4934   23004702.9504
  -1968338.210 8  -1517074.97944  25401939.787    25401939.3954   25401969.7994
 -21819540.112 9 -16987553.08648  21026557.756    21026558.1574   21026571.7424
 -16368353.720 9 -12730765.30248  21621023.873    21621023.7374   21621037.2464
 -11920652.712 9  -9030422.90946  22613358.207    22613357.8794   22613376.3514
  -6157902.327 9  -2750413.57145  24388847.523    24388846.7544   24388860.4944
  -6475183.172 8  -5033174.97445  24129277.041    24129276.6994   24129304.2424
 -17519720.735 9 -13634741.51148  21711033.537    21711033.4254   21711049.7894
  -8779676.232 9  -6826565.76246  22996129.072    22996128.9614   22996146.4664
 -24549751.351 9 -19102836.89449  20683522.052    20683522.0464   20683536.6314
 00  9 18  0 26 30.0000000  0 11  1  8 10 13 28 31 22 20 27  3 19     .000000024
 -23316713.190 9 -18148451.33948  20738622.753    20738622.5904   20738636.7964
  -9878302.894 9  -7674881.98246  22991727.817    22991727.4294   22991750.7934
  -2049955.208 8  -1580672.37044  25386408.301    25386407.6074   25386437.5714
 -21867662.019 9 -17025050.55648  21017400.362    21017400.7764   21017414.3154
 -16302331.871 9 -12679319.74148  21633587.408    21633587.2394   21633600.7364
 -11993511.203 9  -9087195.48946  22599493.514    22599493.1974   22599511.6004
  -6047478.768 8  -2664368.38045  24409859.932    24409859.1674   24409872.8164
  -6366373.250 8  -4948388.44645  24149983.047    24149982.8034   24150010.5844
 -17560324.938 9 -13666381.05148  21703306.765    21703306.6634   21703322.9864
  -8786695.107 9  -6832034.94046  22994793.263    22994793.1864   22994810.6754
 -24552668.418 9 -19105109.79348  20682966.868    20682966.8704   20682981.4594
 00  9 18  0 27  0.0000000  0 11  1  8 10 13 28 31 22 20 27  3 19     .000000024
 -23282542.853 9 -18121825.08048  20745125.131    20745124.9894   20745139.1824
  -9946255.095 9  -7727831.38746  22978796.663    22978796.2614   22978819.5504
  -2131245.010 8  -1644014.71654  25370939.225    25370939.0554           .0005
 -21915447.253 9 -17062285.67248  21008307.046    21008307.4624   21008320.9774
 -16235968.171 9 -12627607.78848  21646215.978    21646215.8274   21646229.3314
 -12066045.536 9  -9143715.46746  22585690.449    22585690.1324   22585708.5054
  -5937003.228 8  -2578282.60945  24430882.109    24430881.5144   24430894.8994
  -6257568.579 8  -4863605.94445  24170688.048    24170687.9504   24170715.7124
 -17600817.517 9 -13697933.61148  21695601.235    21695601.1284   21695617.4194
  -8793192.725 9  -6837097.93646  22993556.676    22993556.6024   22993574.1194
 -24555410.260 9 -19107246.16649  20682445.026    20682445.0414   20682459.6114
 00  9 18  0 27 30.0000000  0 11  1  8 10 13 28 31 22 20 27  3 19     .000000024
 -23247956.214 9 -18094874.42848  20751706.740    20751706.5824   20751720.7744
 -10014097.373 9  -7780695.13346  22965886.432    22965886.0884   22965909.2384
  -2212205.401 8  -1707100.40244  25355532.843    25355532.5814   25355561.6604
 -21962893.247 9 -17099256.43848  20999278.294    20999278.7024   20999292.1744
 -16169264.776 9 -12575631.06448  21658909.190    21658909.0294   21658922.5364
 -12138252.534 9  -9199980.38346  22571949.739    22571949.4354   22571967.7054
  -5826478.330 8  -2492158.39345  24451913.713    24451913.0244   24451926.3094
  -6148772.027 8  -4778829.78545  24191391.744    24191391.4964   24191419.4034
 -17641198.570 9 -13729399.26848  21687916.915    21687916.8084   21687933.0594
  -8799168.530 9  -6841754.33246  22992419.467    22992419.3794   22992436.8164
 -24557976.919 9 -19109246.01749  20681956.550    20681956.5604   20681971.0564
 00  9 18  0 28  0.0000000  0 11  1  8 10 13 28 31 22 20 27  3 19     .000000024
 -23212953.087 9 -18067599.22648  20758367.632    20758367.4714   20758381.6564
 -10081829.852 9  -7833473.31546  22952997.090    22952996.7524   22953019.7854
  -2292833.925 8  -1769927.39644  25340189.541    25340189.2954   25340218.7564
 -22009998.414 9 -17135961.62448  20990314.383    20990314.7984   20990328.2354
 -16102224.268 9 -12523391.63848  21671666.520    21671666.3584   21671679.8844
 -12210128.657 9  -9255987.47247  22558271.975    22558271.6644   22558289.8634
  -5715906.143 8  -2405997.42045  24472954.270    24472953.6184   24472966.6884
  -6039986.192 8  -4694061.96245  24212093.429    24212093.1464   24212121.1184
 -17681468.205 9 -13760778.10748  21680253.778    21680253.6734   21680269.9004
  -8804621.458 9  -6846003.30346  22991381.747    22991381.6974   22991399.0324
 -24560368.621 9 -19111109.55449  20681501.320    20681501.3254   20681515.8154
 00  9 18  0 28 30.0000000  0 11  1  8 10 13 28 31 22 20 27  3 19     .000000025
 -23177533.372 9 -18039999.42248  20765107.754    20765107.5954   20765121.7764
 -10149452.633 9  -7886166.02346  22940128.644    22940128.3104   22940151.2414
  -2373129.006 8  -1832494.58345  25324909.560    25324908.9604   25324938.9984
 -22056760.718 9 -17172399.65248  20981415.695    20981416.1184   20981429.5394
 -16034849.472 9 -12470891.80748  21684487.516    21684487.3624   21684500.8694
 -12281671.035 9  -9311734.50147  22544657.732    22544657.4094   22544675.5764
  -5605288.776 8  -2319801.20945  24494003.372    24494002.6064   24494015.5944
  -5931214.091 8  -4609304.85345  24232792.427    24232792.1854   24232820.3334
 -17721626.517 9 -13792070.18648  21672611.846    21672611.7334   21672627.9314
  -8809550.920 9  -6849844.36846  22990443.658    22990443.6174   22990460.9274
 -24562585.470 9 -19112836.86348  20681079.360    20681079.3674   20681093.8304
 00  9 18  0 29  0.0000000  0 11  1  8 10 13 28 31 22 20 27  3 19     .000000012
 -23141699.000 9 -18012076.50348  20771926.778    20771926.6244   20771940.7904
 -10216968.057 9  -7938775.08846  22927280.629    22927280.3354   22927303.1434
  -2453089.778 8  -1894801.28544  25309693.084    25309692.9154   25309722.6764
 -22103179.880 9 -17208570.27648  20972582.354    20972582.7634   20972596.1354
 -15967144.211 9 -12418134.42448  21697371.411    21697371.2524   21697384.7414
 -12352878.770 9  -9367220.76147  22531107.175    22531106.8404   22531124.9194
  -5494630.507 8  -2233573.08745  24515060.216    24515059.5694   24515072.3884
  -5822460.657 8  -4524562.29445  24253487.800    24253487.5504   24253515.6874
 -17761675.611 9 -13823277.16148  21664990.664    21664990.5504   21665006.7264
  -8813957.787 9  -6853278.24546  22989604.962    22989604.9684   22989622.2244
 -24564629.498 9 -19114429.51449  20680690.326    20680690.3164   20680704.7274
 00  9 18  0 29 30.0000000  0 11  1  8 10 13 28 31 22 20 27  3 19     .000000010
 -23105448.313 9 -17983829.18448  20778825.045    20778824.8994   20778839.0414
 -10284374.539 9  -7991299.25446  22914453.336    22914453.0454   22914475.7264
  -2532712.350 8  -1956844.42345  25294541.207    25294540.7844   25294570.3354
 -22149253.107 9 -17244471.31548  20963814.817    20963815.2234   20963828.5614
 -15899109.806 9 -12365120.58748  21710317.926    21710317.7604   21710331.2474
 -12423747.125 9  -9422442.58647  22517621.142    22517620.8264   22517638.8634
  -5383933.111 8  -2147314.72845  24536124.504    24536124.0064   24536136.9944
  -5713727.107 8  -4439835.21145  24274179.395    24274179.1454   24274207.2264
 -17801614.045 9 -13854397.89948  21657390.504    21657390.4014   21657406.5704
  -8817839.775 9  -6856303.09046  22988866.213    22988866.1894   22988883.3724
 -24566499.410 9 -19115886.48449  20680334.398    20680334.4034   20680348.7844
 00  9 18  0 30  0.0000000  0 11  1  8 10 13 28 31 22 20 27  3 19     .000000010
 -23068779.646 9 -17955256.15048  20785802.832    20785802.6884   20785816.8254
 -10351670.780 9  -8043737.51746  22901647.004    22901646.7514   22901669.3444
  -2611993.405 8  -2018621.42745  25279454.335    25279453.7284   25279483.1724
 -22194977.169 9 -17280100.26748  20955113.714    20955114.1174   20955127.4234
 -15830746.875 9 -12311850.73848  21723326.935    21723326.7844   21723340.2504
 -12494271.512 9  -9477396.36447  22504200.600    22504200.2774   22504218.2764
  -5273197.628 8  -2061026.95345  24557196.134    24557195.7284   24557208.4124
  -5605014.858 8  -4355124.74645  24294866.973    24294866.7424   24294895.0614
 -17841440.533 9 -13885431.40348  21649811.722    21649811.6174   21649827.7984
  -8821194.785 9  -6858917.31546  22988227.739    22988227.6714   22988244.9254
 -24568193.668 9 -19117206.60649  20680011.930    20680011.9364   20680026.2944
 00  9 18  0 30 30.0000000  0 11  1  8 10 13 28 31 22 20 27  3 19     .000000010
 -23031692.574 9 -17926357.08548  20792860.240    20792860.0924   20792874.2274
 -10418856.768 9  -8096089.87846  22888861.686    22888861.4314   22888883.9204
  -2690930.387 8  -2080130.30445  25264432.852    25264432.3394   25264461.6984
 -22240349.300 9 -17315454.97348  20946479.568    20946479.9644   20946493.2344
 -15762057.698 9 -12258326.64948  21736398.013    21736397.8654   21736411.3404
 -12564448.554 9  -9532079.48947  22490846.162    22490845.8624   22490863.7374
  -5162425.401 8  -1974710.78545  24578274.836    24578274.8064   24578287.1104
  -5496326.219 9  -4270432.67445  24315550.042    24315549.8144   24315578.1074
 -17881154.867 9 -13916377.51248  21642254.268    21642254.1494   21642270.3174
  -8824021.857 9  -6861120.17846  22987689.727    22987689.6944   22987706.8844
 -24569711.970 9 -19118389.61949  20679722.944    20679722.9264   20679737.2494
 00  9 18  0 31  0.0000000  0 11  1  8 10 13 28 31 22 20 27  3 19     .000000010
 -22994187.065 9 -17897131.96248  20799997.291    20799997.1324   20800011.2684
 -10485932.573 9  -8148356.38246  22876097.327    22876097.0484   22876119.4594
  -2769520.946 8  -2141369.30445  25249477.260    25249476.6724   25249505.9944
 -22285366.986 9 -17350533.49748  20937912.865    20937913.2644   20937926.4914
 -15693044.869 9 -12204550.35448  21749530.677    21749530.5134   21749543.9924
 -12634275.534 9  -9586489.81647  22477558.316    22477558.0014   22477575.8484
  -5051617.803 8  -1888366.89045  24599360.369    24599360.1394   24599372.2304
  -5387664.345 9  -4185761.43145  24336228.065    24336227.7994   24336256.1444
 -17920757.231 9 -13947236.35148  21634718.065    21634717.9374   21634734.0854
  -8826320.211 9  -6862911.01446  22987252.317    22987252.2674   22987269.4934
 -24571054.626 9 -19119435.75048  20679467.379    20679467.3734   20679481.6744
 00  9 18  0 31 30.0000000  0 11  1  8 10 13 28 31 22 20 27  3 19     .000000010
 -22956263.313 9 -17867580.95148  20807213.892    20807213.7264   20807227.8574
 -10552898.504 9  -8200537.25246  22863353.867    22863353.6204   22863375.9204
  -2847762.905 8  -2202336.48745  25234587.931    25234587.3004   25234616.5874
 -22330029.351 9 -17385335.15748  20929413.788    20929414.1884   20929427.3724
 -15623711.129 9 -12150524.01248  21762724.401    21762724.2404   21762737.7274
 -12703749.484 9  -9640625.05647  22464337.623    22464337.2944   22464355.0954
  -4940778.161 8  -1801997.89745  24620452.045    24620451.5884   24620463.4404
  -5279032.194 9  -4101113.34845  24356900.447    24356900.1094   24356928.6544
 -17960247.835 9 -13978008.07048  21627203.141    21627203.0194   21627219.1494
  -8828089.247 9  -6864289.38246  22986915.589    22986915.5304   22986932.7484
 -24572221.852 9 -19120345.17048  20679245.188    20679245.1874   20679259.4634
 00  9 18  0 32  0.0000000  0 11  1  8 10 13 28 31 22 20 27  3 19     .000000011
 -22917921.179 9 -17837703.92648  20814510.104    20814509.9554   20814524.0954
 -10619754.657 9  -8252632.59546  22850631.282    22850630.9984   22850653.2634
  -2925653.806 8  -2263030.14845  25219765.358    25219764.7904   25219794.0234
 -22374334.421 9 -17419858.40149  20920982.678    20920983.0854   20920996.1864
 -15554058.637 9 -12096249.30248  21775978.786    21775978.6344   21775992.0984
 -12772867.195 9  -9694482.69247  22451184.727    22451184.4094   22451202.1844
  -4829908.898 8  -1715605.74645  24641549.401    24641548.8224   24641560.5294
  -5170432.383 9  -4016490.44245  24377566.607    24377566.2714   24377594.7824
 -17999626.773 9 -14008692.77548  21619709.501    21619709.3774   21619725.4534
  -8829328.063 9  -6865254.55646  22986679.816    22986679.7434   22986696.9324
 -24573213.549 9 -19121117.83048  20679056.409    20679056.3974   20679070.6414
 00  9 18  0 32 30.0000000  0 11  1  8 10 13 28 31 22 20 27  3 19     .000000011
 -22879160.718 9 -17807500.92748  20821885.948    20821885.7884   20821899.9354
 -10686501.258 9  -8304642.54946  22837929.544    22837929.2614   22837951.4084
  -3003192.005 8  -2323448.99045  25205009.990    25205009.4274   25205038.5334
 -22418279.629 9 -17454101.21049  20912620.061    20912620.4544   20912633.5014
 -15484089.997 9 -12041728.24748  21789293.349    21789293.1864   21789306.6204
 -12841625.704 9  -9748060.43947  22438100.169    22438099.8884   22438117.5914
  -4719012.075 8  -1629192.16145  24662652.058    24662651.5834   24662663.0334
  -5061867.820 8  -3931895.01645  24398226.051    24398225.5804   24398254.3354
 -18038894.205 9 -14039290.58048  21612237.043    21612236.9204   21612252.9804
  -8830036.293 9  -6865806.28146  22986544.937    22986544.8864   22986562.0734
 -24574029.972 9 -19121753.88948  20678900.964    20678900.9554   20678915.1674
 00  9 18  0 33  0.0000000  0 11  1  8 10 13 28 31 22 20 27  3 19     .000000011
 -22839981.661 9 -17776971.75348  20829341.446    20829341.2874   20829355.4264
 -10753138.138 9  -8356567.01346  22825248.695    22825248.4104   22825270.5134
  -3080374.973 8  -2383590.87845  25190322.232    25190321.7344   25190350.5444
 -22461863.519 9 -17488062.49949  20904326.149    20904326.5564   20904339.5684
 -15413807.529 9 -11986962.64148  21802667.642    21802667.4774   21802680.8794
 -12910021.659 9  -9801355.66447  22425084.566    22425084.3184   22425101.9654
  -4608089.805 8  -1542758.69245  24683759.541    24683759.1304   24683770.5964
  -4953340.961 8  -3847328.95845  24418878.251    24418877.6824   24418906.8954
 -18078049.942 9 -14069801.34848  21604785.784    21604785.6884   21604801.7704
  -8830213.265 9  -6865944.03846  22986511.138    22986511.0704   22986528.2144
 -24574671.110 9 -19122253.37449  20678778.862    20678778.8504   20678793.0744
 00  9 18  0 33 30.0000000  0 11  1  8 10 13 28 31 22 20 27  3 19     .000000012
 -22800384.041 9 -17746116.43448  20836876.596    20836876.4514   20836890.5824
 -10819665.722 9  -8408406.31646  22812588.615    22812588.3354   22812610.3884
  -3157200.685 8  -2443454.44445  25175702.288    25175701.5664   25175730.4784
 -22505084.266 9 -17521740.84449  20896101.387    20896101.7904   20896114.7454
 -15343213.504 9 -11931954.27448  21816101.235    21816101.0584   21816114.4524
 -12978052.111 9  -9854366.09047  22412138.551    22412138.3304   22412155.9234
  -4497144.170 8  -1456307.07245  24704871.479    24704870.8354   24704882.2364
  -4844854.790 8  -3762794.61845  24439522.648    24439522.4714   24439551.2034
 -18117094.133 9 -14100225.19948  21597355.756    21597355.6724   21597371.7264
  -8829858.155 9  -6865667.17046  22986578.647    22986578.5934   22986595.7374
 -24575137.069 9 -19122616.34549  20678690.117    20678690.1014   20678704.2934
 00  9 18  0 34  0.0000000  0 11  1  8 10 13 28 31 22 20 27  3 19     .000000012
 -22760367.995 9 -17714935.06548  20844491.338    20844491.1994   20844505.3294
 -10886083.772 9  -8460160.26546  22799949.375    22799949.0644   22799971.0434
  -3233666.858 8  -2503037.94545  25161150.759    25161149.8794   25161179.1694
 -22547939.062 9 -17555134.03249  20887946.280    20887946.6864   20887959.5774
 -15272310.367 9 -11876705.03448  21829593.627    21829593.4474   21829606.8324
 -13045714.248 9  -9907089.52747  22399262.655    22399262.4444   22399279.9044
  -4386178.398 8  -1369840.23945  24725987.268    24725986.7174   24725998.1844
  -4736411.972 8  -3678294.08445  24460158.763    24460158.3554   24460187.4164
 -18156026.896 9 -14130562.22448  21589946.978    21589946.9014   21589962.8934
  -8828970.575 9  -6864975.38946  22986747.417    22986747.3864   22986764.5534
 -24575427.793 9 -19122842.73849  20678634.729    20678634.7094   20678648.8754
 00  9 18  0 34 30.0000000  0 11  1  8 10 13 28 31 22 20 27  3 19     .000000013
 -22719933.416 9 -17683427.57348  20852185.775    20852185.6324   20852199.7584
 -10952392.674 9  -8511829.19546  22787330.959    22787330.6104   22787352.5344
  -3309771.082 7  -2562339.39345  25146668.145    25146667.3354   25146696.2264
 -22590426.718 9 -17588241.15549  20879861.004    20879861.4034   20879874.2594
 -15201100.698 9 -11821216.97048  21843144.325    21843144.1664   21843157.5054
 -13113005.091 9  -9959523.64747  22386457.401    22386457.1794   22386474.5424
  -4275195.093 8  -1283360.20445  24747106.525    24747106.1554   24747117.3894
  -4628015.206 8  -3593829.44045  24480786.263    24480785.9144   24480814.6914
 -18194848.149 9 -14160812.35648  21582559.411    21582559.3354   21582575.2664
  -8827549.934 9  -6863868.23746  22987017.660    22987017.6294   22987034.7744
 -24575543.335 9 -19122932.63349  20678612.663    20678612.6454   20678626.7974
 00  9 18  0 35  0.0000000  0 11  1  8 10 13 28 31 22 20 27  3 19     .000000013
 -22679080.045 9 -17651593.75148  20859959.882    20859959.7404   20859973.8424
 -11018592.061 9  -8563412.75846  22774733.317    22774732.9714   22774754.8394
  -3385511.078 8  -2621357.08945  25132254.791    25132254.0634   25132283.1624
 -22632544.427 9 -17621059.99149  20871846.167    20871846.5724   20871859.3714
 -15129586.648 9 -11765491.73748  21856752.974    21856752.8254   21856766.1724
 -13179921.158 9 -10011665.74347  22373723.486    22373723.2244   22373740.5024
  -4164195.345 8  -1196867.67545  24768229.158    24768228.8214   24768239.9374
  -4519666.884 8  -3509402.51345  24501404.427    24501403.9504   24501432.8424
 -18233557.800 9 -14190975.51748  21575193.065    21575192.9654   21575208.8724
  -8825595.427 9  -6862345.09746  22987389.460    22987389.4524   22987406.5464
 -24575483.405 9 -19122885.80248  20678623.962    20678623.9574   20678638.0824
 00  9 18  0 35 30.0000000  0 11  1  8 10 13 28 31 22 20 27  3 19     .000000014
 -22637808.026 9 -17619433.71448  20867813.683    20867813.5234   20867827.6214
 -11084682.290 9  -8614911.29746  22762156.499    22762156.1674   22762177.8784
  -3460884.929 8  -2680089.55045  25117911.272    25117910.7324   25117939.8004
 -22674291.214 9 -17653589.80749  20863901.878    20863902.2914   20863915.0434
 -15057770.512 9 -11709531.11148  21870419.080    21870418.9244   21870432.2904
 -13246459.731 9 -10063513.68547  22361061.371    22361061.1304   22361078.3204
  -4053179.047 8  -1110361.67754  24789354.962    24789353.9114           .0005
  -4411370.229 8  -3425015.83545  24522012.845    24522012.3654   24522041.4184
 -18272156.052 9 -14221051.88548  21567847.913    21567847.8004   21567863.6694
  -8823106.171 9  -6860405.27346  22987863.013    22987863.0144   22987880.0334
 -24575248.055 9 -19122702.28349  20678668.660    20678668.6464   20678682.7284
 00  9 18  0 36  0.0000000  0 11  1  8 10 13 28 31 22 20 27  3 19     .000000014
 -22596117.451 9 -17586947.53648  20875747.133    20875746.9814   20875761.0394
 -11150663.424 9  -8666324.81546  22749600.437    22749600.1204   22749621.7044
  -3535890.113 8  -2738534.74545  25103638.132    25103637.6934   25103666.1994
 -22715664.523 9 -17685828.59849  20856028.700    20856029.1224   20856041.8304
 -14985654.977 9 -11653337.17448  21884142.196    21884142.0344   21884155.4034
 -13312617.733 9 -10115065.08447  22348471.683    22348471.3964   22348488.5424
  -3942150.30218  -1023846.03854          .000            .0005           .0005
  -4303127.776 8  -3340671.38445  24542610.986    24542610.5434   24542639.7444
 -18310642.751 9 -14251041.33348  21560524.018    21560523.9104   21560539.6984
  -8820081.746 9  -6858048.42346  22988438.434    22988438.4354   22988455.3974
 -24574837.321 9 -19122382.10949  20678746.721    20678746.7124   20678760.7624
 00  9 18  0 36 30.0000000  0 11  1  8 10 13 28 31 22 20 27  3 19     .000000015
 -22554008.380 9 -17554135.24548  20883760.237    20883760.0844   20883774.1064
 -11216535.481 9  -8717653.34346  22737065.153    22737064.8684   22737086.2854
  -3610524.469 8  -2796691.00145  25089435.431    25089434.7574   25089463.3204
 -22756662.850 9 -17717775.19249  20848226.864    20848227.2734   20848239.9394
 -14913242.360 9 -11596911.72748  21897921.885    21897921.7244   21897935.0634
 -13378391.752 9 -10166317.28047  22335955.073    22335954.7814   22335971.8974
  -3831109.86818   -937320.97353          .000            .0005           .0005
  -4194942.122 8  -3256371.22345  24563198.331    24563197.8314   24563226.9844
 -18349018.026 9 -14280943.94048  21553221.313    21553221.1964   21553236.9424
  -8816522.007 9  -6855274.45146  22989115.741    22989115.7174   22989132.6414
 -24574251.409 9 -19121925.48549  20678858.111    20678858.1054   20678872.1224
 00  9 18  0 37  0.0000000  0 11  1  8 10 13 28 31 22 20 27  3 19     .000000015
 -22511480.892 9 -17520996.92548  20891852.912    20891852.7514   20891866.7764
 -11282298.737 9  -8768897.12246  22724550.570    22724550.2724   22724571.5894
  -3684785.697 8  -2854556.56245  25075303.811    25075302.7004   25075331.5584
 -22797283.635 9 -17749427.59349  20840496.865    20840497.2644   20840509.8994
 -14840535.025 9 -11540256.66048  21911757.631    21911757.4564   21911770.7844
 -13443779.294 9 -10217268.33847  22323512.011    22323511.7354   22323528.7394
  -3720062.629 7   4912919.32842          .000            .0004           .0004
  -4086816.121 8  -3172117.53245  24583774.263    24583773.9864   24583803.1914
 -18387281.936 9 -14310759.78648  21545939.751    21545939.6574   21545955.3554
  -8812426.429 9  -6852082.94546  22989894.982    22989894.9674   22989911.9104
 -24573490.258 9 -19121332.29749  20679002.897    20679002.9044   20679016.8784
 00  9 18  0 37 30.0000000  0 11  1  8 10 13 28 31 22 20 27  3 19     .000000016
 -22468534.734 9 -17487532.38548  20900025.287    20900025.1244   20900039.1264
 -11347952.557 9  -8820055.63346  22712056.816    22712056.5014   22712077.7964
  -3758671.668 8  -2912129.71945  25061243.519    25061242.3444   25061271.1874
 -22837525.098 9 -17780784.43349  20832839.053    20832839.4564   20832852.0564
 -14767534.933 9 -11483373.36148  21925649.112    21925648.8994   21925662.2404
 -13508777.150 9 -10267915.75147  22311143.161    22311142.8684   22311159.7404
  -3609007.732 8   4999454.43542          .000            .0004           .0004
  -3978751.868 8  -3087911.97945  24604338.546    24604338.1704   24604367.8024
 -18425433.962 9 -14340488.46348  21538679.531    21538679.4234   21538695.0734
  -8807794.140 9  -6848473.19746  22990776.337    22990776.3374   22990793.2324
 -24572553.361 9 -19120602.19249  20679181.100    20679181.0914   20679195.0394
 00  9 18  0 38  0.0000000  0 11  1  8 10 13 28 31 22 20 27  3 19     .000000017
 -22425169.927 9 -17453741.61848  20908277.306    20908277.1814   20908291.1844
 -11413497.409 9  -8871129.23446  22699583.780    22699583.4764   22699604.6484
  -3832180.172 8  -2969408.75545  25047254.874    25047253.9474   25047282.4254
 -22877385.207 9 -17811844.11449  20825253.807    20825254.2174   20825266.7774
 -14694244.564 9 -11426263.84748  21939595.815    21939595.5444   21939608.9444
 -13573382.013 9 -10318256.95147  22298849.067    22298848.7794   22298865.5054
  -3497949.290 8   5085989.69552          .000            .0004           .0005
  -3870752.212 8  -3003756.76345  24624890.465    24624890.1634   24624919.8254
 -18463474.193 9 -14370130.03148  21531440.586    21531440.4744   21531456.0494
  -8802624.689 9  -6844444.89346  22991759.927    22991759.9964   22991776.7864
 -24571440.633 9 -19119735.05049  20679392.746    20679392.7544   20679406.6844
 00  9 18  0 38 30.0000000  0 11  1  8 10 13 28 31 22 20 27  3 19     .000000017
 -22381387.257 9 -17419625.25448  20916608.876    20916608.7334   20916622.7364
 -11478933.722 9  -8922118.26946  22687131.410    22687131.1164   22687152.1714
  -3905309.467 8  -3026392.32845  25033338.505    25033337.3224   25033365.7034
 -22916862.642 9 -17842605.64049  20817741.367    20817741.7774   20817754.3014
 -14620666.924 9 -11368930.49248  21953597.064    21953596.8414   21953610.2364
 -13637591.494 9 -10368290.08347  22286630.206    22286629.9074   22286646.5404
  -3386889.495 8   4930062.34342          .000            .0004           .0004
  -3762820.365 8  -2919654.36045  24645429.525    24645429.3344   24645458.7614
 -18501403.141 9 -14399684.88948  21524222.784    21524222.6814   21524238.2504
  -8796918.466 9  -6839998.30546  22992845.676    22992845.7244   22992862.5354
 -24570152.694 9 -19118731.41649  20679637.794    20679637.8054   20679651.7124
 00  9 18  0 39  0.0000000  0 11  1  8 10 13 28 31 22 20 27  3 19     .000000018
 -22337185.957 9 -17385182.68848  20925020.081    20925019.9204   20925033.9294
 -11544260.761 9  -8973022.15146  22674699.832    22674699.5134   22674720.5714
  -3978056.555 8  -3083078.16145  25019495.010    25019493.9554   25019522.0644
 -22955954.259 9 -17873066.53749  20810302.359    20810302.7674   20810315.2584
 -14546803.641 9 -11311374.58048  21967652.636    21967652.4614   21967665.8554
 -13701401.844 9 -10418012.21847  22274487.309    22274487.0144   22274503.5374
  -3275830.232 8   5016602.71342          .000            .0004           .0004
  -3654957.991 8  -2835606.12445  24665955.336    24665954.9754   24665984.6824
 -18539219.973 9 -14429152.41348  21517026.333    21517026.2334   21517041.7664
  -8790673.955 9  -6835132.30846  22994033.819    22994033.8814   22994050.6644
 -24568688.707 9 -19117590.61548  20679916.310    20679916.3124   20679930.2054
 00  9 18  0 39 30.0000000  0 11  1  8 10 13 28 31 22 20 27  3 19     .000000018
 -22292566.003 9 -17350413.90448  20933510.964    20933510.8124   20933524.8394
 -11609478.370 9  -9023840.78646  22662289.091    22662288.7644   22662309.7494
  -4050418.932 9  -3139464.14045  25005724.701    25005723.7984   25005751.5634
 -22994658.591 9 -17903225.64049  20802937.088    20802937.5064   20802949.9714
 -14472657.200 9 -11253598.10148  21981762.158    21981762.0134   21981775.3794
 -13764810.268 9 -10467421.19547  22262420.898    22262420.6074   22262437.0774
  -3164772.870 8   5103141.33752          .000            .0004           .0005
  -3547167.806 8  -2751614.13345  24686467.294    24686467.0144   24686496.9304
 -18576924.486 9 -14458532.43148  21509851.346    21509851.2304   21509866.7004
  -8783890.625 9  -6829846.43346  22995324.528    22995324.6094   22995341.3874
 -24567048.464 9 -19116312.46048  20680228.394    20680228.3964   20680242.2624
 00  9 18  0 40  0.0000000  0 11  1  8 10 13 28 31 22 20 27  3 19     .000000019
 -22247527.802 9 -17315319.22448  20942081.432    20942081.2994   20942095.3314
 -11674587.154 9  -9074574.62146  22649899.058    22649898.7224   22649919.6724
  -4122395.291 9  -3195549.33745  24992027.891    24992027.1294   24992054.6724
 -23032974.218 9 -17933081.85649  20795645.770    20795646.1944   20795658.6084
 -14398230.333 9 -11195603.16647  21995925.061    21995924.9184   21995938.2524
 -13827813.957 9 -10516514.79747  22250431.484    22250431.2284   22250447.6544
  -3053719.53819   5189676.64045          .000            .0005   24979532.7134
  -3439452.816 8  -2667680.73145  24706965.076    24706964.5744   24706994.8004
 -18614517.023 9 -14487825.20448  21502697.594    21502697.4834   21502712.9184
  -8776568.500 9  -6824140.70046  22996717.773    22996717.8544   22996734.5894
 -24565232.460 9 -19114897.36148  20680573.946    20680573.9474   20680587.7904
 00  9 18  0 40 30.0000000  0 11  1  8 10 13 28 31 22 20 27  3 19    -.000000015
 -22202068.017 9 -17279896.04048  20950732.113    20950731.9804   20950746.0354
 -11739583.653 9  -9125220.97747  22637530.418    22637530.0854   22637550.9204
  -4193979.683 9  -3251329.23745  24978405.677    24978404.7024   24978432.4804
 -23070894.902 9 -17962630.32949  20788429.590    20788430.0094   20788442.3894
 -14323521.416 9 -11137388.40947  22010141.674    22010141.5064   22010154.8144
 -13890406.589 9 -10565288.09147  22238520.360    22238520.1234   22238536.4704
  -2942668.365 8   5276210.60945  25000674.667    25000642.6154   25000665.9994
  -3331812.010 8  -2583805.16845  24727448.713    24727448.3144   24727478.6434
 -18651993.885 9 -14517027.84848  21495565.827    21495565.7204   21495581.1384
  -8768703.735 9  -6818012.14946  22998214.241    22998214.3174   22998231.0354
 -24563236.741 9 -19113342.15548  20680953.653    20680953.6544   20680967.4984
 00  9 18  0 41  0.0000000  0 11  1  8 10 13 28 31 22 20 27  3 19    -.000000008
 -22156183.299 9 -17244141.75348  20959463.718    20959463.5854   20959477.6354
 -11804464.160 9  -9175776.95347  22625183.856    22625183.5424   22625204.2754
  -4265166.290 9  -3306799.24445  24964859.137    24964858.3384   24964885.8674
 -23108415.680 9 -17991867.20549  20781289.542    20781289.9624   20781302.2954
 -14248529.683 9 -11078953.32347  22024412.157    22024411.9874   22024425.2374
 -13952581.505 9 -10613735.91547  22226688.752    22226688.4944   22226704.7784
  -2831618.081 9   5362743.83245  25021806.413    25021805.5854   25021814.9174
  -3224244.259 8  -2499986.56045  24747918.436    24747917.9234   24747948.4434
 -18689351.654 9 -14546137.71448  21488456.807    21488456.7114   21488472.0594
  -8760292.665 9  -6811457.94546  22999814.694    22999814.7104   22999831.4474
 -24561058.190 9 -19111644.53749  20681368.183    20681368.1874   20681382.0094
 00  9 18  0 41 30.0000000  0 11  1  8 10 13 28 31 22 20 27  3 19    -.000000005
 -22109885.631 9 -17208065.69448  20968273.857    20968273.7164   20968287.7824
 -11869240.444 9  -9226251.72447  22612857.132    22612856.8364   22612877.4614
  -4335964.848 9  -3361966.90245  24951386.449    24951385.8254   24951412.6524
 -23145546.194 9 -18020799.96049  20774223.754    20774224.1844   20774236.4784
 -14173269.138 9 -11020308.71047  22038733.761    22038733.5924   22038746.8434
 -14014347.361 9 -10661864.97447  22214934.970    22214934.6814   22214950.9504
  -2720583.444 8   5449264.73645  25042935.375    25042934.6974   25042943.9814
  -3116764.293 8  -2416236.34245  24768371.546    24768371.1834   24768401.4524
 -18726601.774 9 -14575163.67848  21481368.290    21481368.1594   21481383.4894
  -8751346.641 9  -6804486.91346  23001516.900    23001516.9514   23001533.5924
 -24558707.835 9 -19109812.97149  20681815.355    20681815.3674   20681829.2004
 00  9 18  0 42  0.0000000  0 11  1  8 10 13 28 31 22 20 27  3 19    -.000000003
 -22063173.195 9 -17171666.44348  20977162.928    20977162.8024   20977176.8714
 -11933910.401 9  -9276643.64847  22600550.686    22600550.3654   22600570.8984
  -4406371.509 9  -3416829.16445  24937988.390    24937987.8114   24938014.5504
 -23182282.106 9 -18049425.24949  20767233.063    20767233.4944   20767245.7574
 -14097739.919 9 -10961454.76247  22053106.437    22053106.2724   22053119.5424
 -14075699.285 9 -10709671.50747  22203259.974    22203259.6834   22203275.8444
  -2609563.490 8   5535774.34545  25064061.490    25064060.8724   25064069.6674
  -3009372.394 8  -2332554.73445  24788807.824    24788807.4464   24788837.9364
 -18763742.038 9 -14604104.02848  21474300.653    21474300.5314   21474315.8384
  -8741863.284 9  -6797097.15646  23003321.440    23003321.5024   23003338.0804
 -24556183.850 9 -19107846.10049  20682295.600    20682295.6054   20682309.4464
 00  9 18  0 42 30.0000000  0 11  1  8 10 13 28 31 22 20 27  3 19    -.000000001
 -22016044.607 9 -17134942.91648  20986131.256    20986131.1344   20986145.1884
 -11998472.739 9  -9326951.72047  22588264.702    22588264.3404   22588284.8704
  -4476382.600 8  -3471383.17845  24924665.590    24924664.8934   24924691.4284
 -23218621.087 9 -18077741.25149  20760317.918    20760318.3514   20760330.5934
 -14021942.793 9 -10902391.90947  22067530.095    22067529.9174   22067543.2344
 -14136633.105 9 -10757152.23247  22191664.501    22191664.1914   22191680.3434
  -2498558.668 8   5622272.13444  25085184.697    25085184.4114   25085192.9324
  -2902069.617 8  -2248942.59945  24809227.067    24809226.9394   24809257.6394
 -18800770.770 9 -14632957.43548  21467254.206    21467254.0794   21467269.3544
  -8731840.910 9  -6789287.41146  23005228.580    23005228.6024   23005245.1164
 -24553484.600 9 -19105742.63948  20682809.193    20682809.1894   20682823.0064
 00  9 18  0 43  0.0000000  0 11  1  8 10 13 28 31 22 20 27  3 19    -.000000001
 -21968499.429 9 -17097894.78248  20995178.837    20995178.7104   20995192.7584
 -12062926.732 9  -9377175.36147  22575999.267    22575998.9114   22576019.4644
  -4545995.062 8  -3525626.56445  24911418.643    24911417.9044   24911444.8304
 -23254560.104 9 -18105745.57349  20753478.869    20753479.2954   20753491.5294
 -13945879.599 9 -10843121.70447  22082004.344    22082004.1974   22082017.5534
 -14197145.210 9 -10804304.34847  22180149.282    22180148.9834   22180165.1144
  -2387569.798 8   5708757.48854  25106304.945    25106304.4974           .0005
  -2794857.989 8  -2165401.49945  24829629.056    24829628.8944   24829659.4444
 -18837687.586 9 -14661723.70248  21460229.095    21460228.9634   21460244.2104
  -8721278.720 9  -6781057.05846  23007238.451    23007238.4904   23007254.9684
 -24550609.462 9 -19103502.13548  20683356.225    20683356.2214   20683370.0174
 00  9 18  0 43 30.0000000  0 11  1  8 10 13 28 31 22 20 27  3 19     .000000000
 -21920537.558 9 -17060521.94748  21004305.709    21004305.6024   21004319.6344
 -12127272.334 9  -9427314.54547  22563754.463    22563754.1294   22563774.6344
  -4615207.218 8  -3579558.03545  24898247.901    24898246.9434   24898274.6474
 -23290096.936 9 -18133436.51449  20746716.361    20746716.7874   20746728.9964
 -13869553.007 9 -10783646.34247  22096528.758    22096528.6224   22096541.9434
 -14257232.564 9 -10851125.49447  22168714.880    22168714.5984   22168730.7044
  -2276599.644 8   5795228.29754  25127421.437    25127421.6994   25127428.5165
  -2687739.956 8  -2081933.32045  24850013.245    24850013.2444   24850043.5244
 -18874492.188 9 -14690402.52448  21453225.305    21453225.1924   21453240.3994
  -8710176.208 9  -6772405.64146  23009351.107    23009351.0984   23009367.6114
 -24547558.163 9 -19101124.33248  20683936.791    20683936.7894   20683950.5684
 00  9 18  0 44  0.0000000  0 11  1  8 10 13 28 31 22 20 27  3 19     .000000000
 -21872159.242 9 -17022824.61148  21013511.832    21013511.7194   21013525.7594
 -12191509.378 9  -9477369.16347  22551530.380    22551530.0214   22551550.4724
  -4684016.564 8  -3633175.70545  24885153.761    24885152.7584   24885180.0944
 -23325229.446 9 -18160812.38949  20740030.771    20740031.1954   20740043.3904
 -13792965.005 9 -10723967.40147  22111102.905    22111102.7424   22111116.0314
 -14316891.973 9 -10897613.17147  22157361.943    22157361.6884   22157377.7624
  -2165650.609 8   5881682.17154  25148533.900    25148534.1264   25148542.0565
  -2580717.881 8  -1998539.85845  24870379.187    24870379.1344   24870409.3054
 -18911184.067 9 -14718993.52048  21446242.989    21446242.8854   21446258.0374
  -8698533.027 9  -6763332.95646  23011566.683    23011566.6544   23011583.1094
 -24544330.113 9 -19098608.79948  20684550.948    20684550.9544   20684564.7164
 00  9 18  0 44 30.0000000  0 11  1  8 10 13 28 31 22 20 27  3 19     .000000000
 -21823364.658 9 -16984802.90848  21022797.168    21022797.0404   21022811.0934
 -12255637.783 9  -9527339.12147  22539326.943    22539326.5894   22539346.9644
  -4752420.906 7  -3686477.76445  24872136.652    24872135.6514   24872163.2734
 -23359955.639 9 -18187871.64249  20733422.515    20733422.9404   20733435.1274
 -13716117.888 9 -10664086.62547  22125726.426    22125726.2494   22125739.4764
 -14376120.471 9 -10943765.07347  22146091.037    22146090.7714   22146106.8104
  -2054723.788 7   5968118.64354  25169642.252    25169641.6314           .0005
  -2473794.016 8  -1915222.96445  24890726.366    24890726.6774   24890756.6864
 -18947762.916 9 -14747496.42748  21439282.237    21439282.1144   21439297.2424
  -8686348.770 9  -6753838.63746  23013885.214    23013885.1594   23013901.5504
 -24540925.135 9 -19095955.43349  20685198.776    20685198.7754   20685212.5164
 00  9 18  0 45  0.0000000  0 10  1  8 10 13 28 31 20 27  3 19        .000000001
 -21774153.777 9 -16946456.81548  21032161.735    21032161.5974   21032175.6584
 -12319657.170 9  -9577224.14447  22527144.296    22527143.9434   22527164.2374
  -4820417.847 7  -3739462.39945  24859197.009    24859196.0884   24859223.9264
 -23394273.155 9 -18214612.43749  20726892.016    20726892.4414   20726904.5974
 -13639013.284 9 -10604005.11347  22140398.937    22140398.7914   22140411.9554
 -14434915.195 9 -10989578.97147  22134902.650    22134902.3664   22134918.3894
  -2366970.776 8  -1831984.46945  24911054.504    24911054.4264   24911084.6624
 -18984228.493 9 -14775911.06948  21432342.978    21432342.8584   21432357.9614
  -8673623.061 9  -6743922.40646  23016306.725    23016306.6934   23016323.0704
 -24537342.784 9 -19093163.84349  20685880.383    20685880.3934   20685894.1214
 00  9 18  0 45 30.0000000  0 10  1  8 10 13 28 31 20 27  3 19        .000000001
 -21724526.970 9 -16907786.61748  21041605.468    21041605.3304   21041619.3904
 -12383567.760 9  -9627024.38547  22514982.396    22514982.0124   22515002.1894
  -4888005.713 7  -3792128.28244  24846335.015    24846334.2204   24846361.9774
 -23428181.214 9 -18241034.19049  20720439.464    20720439.8784   20720452.0084
 -13561654.139 9 -10543725.25247  22155119.892    22155119.7304   22155132.8714
 -14493273.107 9 -11035052.49547  22123797.386    22123797.0854   22123813.0934
  -2260250.811 8  -1748826.46045  24931362.952    24931362.7064   24931393.3624
 -19020580.723 9 -14804237.37548  21425425.318    21425425.2074   21425440.2964
  -8660356.042 9  -6733584.40146  23018831.259    23018831.2554   23018847.5594
 -24533583.417 9 -19090234.35649  20686595.665    20686595.6684   20686609.3454
 00  9 18  0 46  0.0000000  0 10  1  8 10 13 28 31 20 27  3 19        .000000001
 -21674484.468 9 -16868792.49348  21051128.280    21051128.1374   21051142.2064
 -12447369.662 9  -9676739.95447  22502841.140    22502840.7784   22502860.8504
  -4955182.435 7  -3844473.83944  24833551.722    24833550.9224   24833578.7094
 -23461677.462 9 -18267135.06549  20714065.270    20714065.6914   20714077.7824
 -13484042.768 9 -10483248.81747  22169888.818    22169888.6754   22169901.7904
 -14551191.673 9 -11080183.67847  22112775.699    22112775.3954   22112791.3584
  -2153636.688 8  -1665750.91245  24951651.311    24951650.9714   24951681.5414
 -19056819.612 9 -14832475.35448  21418529.224    21418529.1214   21418544.1584
  -8646547.574 9  -6722824.45246  23021458.829    23021458.8164   23021475.0994
 -24529646.830 9 -19087166.80149  20687344.708    20687344.7094   20687358.3124
 00  9 18  0 46 30.0000000  0 10  1  8 10 13 28 31 20 27  3 19        .000000001
 -21624026.160 9 -16829474.36348  21060730.198    21060730.0704   21060744.1364
 -12511062.424 9  -9726370.47447  22490720.637    22490720.3094   22490740.2954
  -5021945.519 8  -3896497.13945  24820847.170    24820846.2844   24820874.1944
 -23494759.843 9 -18292913.44949  20707769.811    20707770.2294   20707782.2834
 -13406180.968 9 -10422577.19747  22184705.367    22184705.2484   22184718.3554
 -14608667.792 9 -11124970.09047  22101838.179    22101837.9064   22101853.8374
  -2047130.475 8  -1582759.39845  24971919.144    24971918.3904   24971949.1224
 -19092944.526 9 -14860624.51148  21411654.806    21411654.6904   21411669.7094
  -8632197.213 9  -6711642.25646  23024189.550    23024189.5164   23024205.7794
 -24525532.471 9 -19083960.76148  20688127.532    20688127.5374   20688141.1214
 00  9 18  0 47  0.0000000  0 10  1  8 10 13 28 31 20 27  3 19        .000000002
 -21573152.959 9 -16789832.93648  21070411.105    21070410.9584   21070425.0444
 -12574646.315 9  -9775916.17847  22478620.882    22478620.5154   22478640.4814
  -5088293.236 8  -3948196.83645  24808221.819    24808221.2854   24808248.8114
 -23527426.667 9 -18318368.05249  20701553.456    20701553.8834   20701565.8984
 -13328071.673 9 -10361712.75947  22199569.009    22199568.9084   22199581.9994
 -14665698.785 9 -11169409.65347  22090985.388    22090985.1404   22091001.0084
  -1940735.268 8  -1499854.41044  24992165.681    24992164.9844   24992196.2044
 -19128955.653 9 -14888685.00448  21404802.022    21404801.9144   21404816.8944
  -8617305.318 9  -6700038.11146  23027023.271    23027023.2744   23027039.4834
 -24521240.515 9 -19080616.34248  20688944.195    20688944.2024   20688957.7454
 00  9 18  0 47 30.0000000  0 10  1  8 10 13 28 31 20 27  3 19        .000000002
 -21521865.052 9 -16749868.36548  21080170.936    21080170.7624   21080184.8654
 -12638121.151 9  -9825376.89447  22466541.827    22466541.4774   22466561.4354
  -5154223.730 8  -3999571.41445  24795675.856    24795675.3114   24795702.8644
 -23559675.777 9 -18343497.13149  20695416.610    20695417.0414   20695429.0014
 -13249717.012 9 -10300657.10947  22214479.383    22214479.2564   22214492.3264
 -14722281.945 9 -11213500.26547  22080217.857    22080217.5934   22080233.4254
  -1834453.276 8  -1417037.63445  25012390.707    25012390.1124   25012421.2244
 -19164852.819 9 -14916656.70048  21397970.914    21397970.8034   21397985.7634
  -8601871.966 9  -6688012.06246  23029960.070    23029960.0604   23029976.2674
 -24516770.140 9 -19077132.74248  20689794.816    20689794.8234   20689808.3774
 00  9 18  0 48  0.0000000  0 10  1  8 10 13 28 31 20 27  3 19        .000000002
 -21470162.361 9 -16709580.58148  21090009.627    21090009.4704   21090023.5894
 -12701487.038 9  -9874752.72347  22454483.543    22454483.2054   22454503.1314
  -5219734.833 8  -4050619.22045  24783209.669    24783209.0314   24783236.5584
 -23591505.181 9 -18368299.19649  20689359.621    20689360.0544   20689371.9794
 -13171118.914 9 -10239411.80747  22229436.096    22229435.9814   22229449.0284
 -14778414.149 9 -11257239.48647  22069536.145    22069535.8894   22069551.6694
  -1728286.683 8  -1334310.82545  25032593.797    25032593.3954   25032623.9394
 -19200635.440 9 -14944539.10548  21391161.637    21391161.5174   21391176.4724
  -8585896.962 9  -6675563.95046  23032999.993    23032999.9464   23033016.1114
 -24512121.679 9 -19073510.47348  20690679.296    20690679.2914   20690692.8144
 00  9 18  0 48 30.0000000  0 10  1  8 10 13 28 31 20 27  3 19        .000000002
 -21418045.378 9 -16668969.97548  21099927.191    21099927.0544   21099941.1744
 -12764743.688 9  -9924043.43347  22442446.017    22442445.6894   22442465.5874
  -5284824.274 8  -4101338.44145  24770823.739    24770823.1154   24770850.5904
 -23622913.556 9 -18392773.16149  20683382.751    20683383.1824   20683395.0764
 -13092279.911 9 -10177978.77447  22244438.628    22244438.4764   22244451.5334
 -14834092.652 9 -11300625.18847  22058940.765    22058940.5034   22058956.2514
  -1622237.961 8  -1251675.85945  25052774.534    25052774.2244   25052805.0344
 -19236303.457 9 -14972332.16748  21384374.105    21384373.9964   21384388.9364
  -8569380.295 9  -6662693.78746  23036142.974    23036142.9604   23036158.9934
 -24507294.653 9 -19069749.01248  20691597.794    20691597.7954   20691611.2794
 00  9 18  0 49  0.0000000  0 10  1  8 10 13 28 31 20 27  3 19        .000000002
 -21365514.676 9 -16628036.99248  21109923.457    21109923.3244   21109937.4634
 -12827891.260 9  -9973249.15447  22430429.309    22430428.9674   22430448.7794
  -5349490.640 8  -4151727.97645  24758518.364    24758517.8544   24758545.1814
 -23653899.122 9 -18416917.74149  20677486.350    20677486.7744   20677498.6314
 -13013202.524 9 -10116360.02747  22259486.535    22259486.3884   22259499.4684
 -14889314.830 9 -11343655.31147  22048432.219    22048431.9694   22048447.6574
  -1516309.800 8  -1169134.86445  25072932.371    25072932.1704   25072963.0654
 -19271856.854 9 -15000035.88748  21377608.409    21377608.3004   21377623.2164
  -8552322.098 9  -6649401.69946  23039388.997    23039389.0034   23039405.0114
 -24502288.958 9 -19065848.34548  20692550.262    20692550.2464   20692563.7004
 00  9 18  0 49 30.0000000  0 10  1  8 10 13 28 31 20 27  3 19        .000000003
 -21312570.549 9 -16586781.86348  21119998.429    21119998.2894   21120012.4294
 -12890929.853 9 -10022369.96247  22418433.359    22418433.0124   22418452.7584
  -5413731.813 8  -4201786.19145  24746293.863    24746293.3974   24746320.5434
 -23684459.787 9 -18440731.13949  20671670.797    20671671.2204   20671683.0604
 -12933889.168 9 -10054557.43747  22274579.329    22274579.1704   22274592.2584
 -14944077.970 9 -11386327.75447  22038011.042    22038010.7434   22038026.4204
  -1410504.703 8  -1086689.76545  25093066.721    25093066.6504   25093097.4704
 -19307295.475 9 -15027650.23848  21370864.513    21370864.3994   21370879.2904
  -8534722.170 9  -6635687.46646  23042738.119    23042738.1154   23042754.1404
 -24497104.536 9 -19061808.43848  20693536.735    20693536.7134   20693550.1224
 00  9 18  0 50  0.0000000  0 10  1  8 10 13 28 31 20 27  3 19        .000000003
 -21259213.631 9 -16545205.09148  21130151.970    21130151.8104   21130165.9444
 -12953859.336 9 -10071405.74447  22406458.135    22406457.7924   22406477.4794
  -5477545.643 9  -4251511.38245  24734150.742    24734150.1944   24734177.3184
 -23714593.914 9 -18464212.16849  20665936.388    20665936.8104   20665948.6304
 -12854342.145 9  -9992572.78347  22289716.604    22289716.4714   22289729.5474
 -14998379.800 9 -11428640.73547  22027677.649    22027677.3374   22027692.9584
  -1304825.001 8  -1004342.39945  25113177.294    25113177.3294   25113208.5444
 -19342619.252 9 -15055175.11548  21364142.505    21364142.3924   21364157.2274
  -8516580.915 9  -6621551.44546  23046190.310    23046190.2644   23046206.3334
 -24491741.625 9 -19057629.50548  20694557.194    20694557.1864   20694570.5364
 00  9 18  0 50 30.0000000  0 10  1  8 10 13 28 31 20 27  3 19        .000000003
 -21205444.422 9 -16503307.06148  21140383.923    21140383.7774   21140397.9024
 -13016679.581 9 -10120356.39447  22394503.700    22394503.3484   22394522.9974
  -5540930.246 8  -4300902.08345  24722089.159    24722088.5644   24722115.6564
 -23744299.321 9 -18487359.14049  20660283.601    20660284.0134   20660295.8114
 -12774563.639 9  -9930407.75947  22304897.969    22304897.8214   22304910.9244
 -15052217.292 9 -11470591.91147  22017432.607    22017432.2894   22017447.8474
  -1199273.128 7   -922094.71445  25133263.470    25133263.0434   25133295.2774
 -19377827.700 9 -15082610.09548  21357442.444    21357442.3314   21357457.1174
  -8497898.389 9  -6606993.63646  23049745.503    23049745.4834   23049761.4214
 -24486199.497 9 -19053310.92948  20695611.754    20695611.7464   20695625.0704
 00  9 18  0 51  0.0000000  0 11  1  8 10 13 28 31  2 20 27  3 19     .000000042
 -21151265.949 9 -16461090.12448  21150693.765    21150693.6194   21150707.7524
 -13079393.521 9 -10169224.21147  22382569.493    22382569.1604   22382588.7494
  -5603886.817 8  -4349959.25945  24710108.988    24710108.3784   24710135.4624
 -23773577.852 9 -18510173.43349  20654712.015    20654712.4204   20654724.2044
 -12694558.875 9  -9868066.45147  22320122.400    22320122.2514   22320135.3624
 -15105590.517 9 -11512181.33047  22007275.900    22007275.6204   22007291.1304
  -1560552.116 9  -1201350.90452          .000            .0004           .0005
  -1093854.398 7   -839950.77744  25153324.378    25153323.8064   25153356.0924
 -19412923.335 9 -15109957.14748  21350763.853    21350763.7544   21350778.4844
  -8478677.582 9  -6592016.43146  23053403.098    23053403.0814   23053418.9724
 -24480481.111 9 -19048855.02248  20696699.872    20696699.8634   20696713.1654
 00  9 18  0 51 30.0000000  0 11  1  8 10 13 28 31  2 20 27  3 19     .000000075
 -21096683.065 9 -16418558.07248  21161080.595    21161080.4394   21161094.5794
 -13142005.534 9 -10218012.60047  22370654.616    22370654.3094   22370673.8344
  -5666417.991 8  -4398684.94045  24698209.785    24698209.2954   24698236.3454
 -23802431.857 9 -18532656.95049  20649221.201    20649221.6214   20649233.3654
 -12614334.523 9  -9805554.06347  22335388.632    22335388.4924   22335401.6004
 -15158501.363 9 -11553410.45647  21997207.186    21997206.9314   21997222.3574
  -1646924.168 8  -1037155.32542          .000            .0004           .0004
   -988575.701 7   -757915.97544  25173358.499    25173357.7084   25173390.5934
 -19447910.552 9 -15137219.77648  21344105.857    21344105.7634   21344120.4634
  -8458923.133 9  -6576623.42246  23057162.268    23057162.2884   23057178.1984
 -24474590.740 9 -19044265.14848  20697820.745    20697820.7474   20697834.0004
 00  9 18  0 52  0.0000000  0 11  1  8 10 13 28 31  2 20 27  3 19     .000000069
 -21041688.664 9 -16375705.35648  21171545.746    21171545.5844   21171559.7114
 -13204507.705 9 -10266715.39847  22358760.670    22358760.3824   22358779.9054
  -5728514.427 8  -4447071.84445  24686393.316    24686392.7564   24686419.7104
 -23830852.019 9 -18554802.41649  20643812.944    20643813.3664   20643825.0694
 -12533885.322 9  -9742866.51847  22350697.696    22350697.5244   22350710.5894
 -15210939.652 9 -11594271.36747  21987228.438    21987228.1694   21987243.5634
  -1733134.333 8  -1104331.07952          .000            .0004           .0005
   -883431.569 8   -675985.99844  25193366.898    25193366.5744   25193399.1714
 -19482781.360 9 -15164391.70548  21337470.027    21337469.9274   21337484.5774
  -8438627.401 9  -6560808.61946  23061024.459    23061024.4454   23061040.2964
 -24468519.919 9 -19039534.54248  20698975.973    20698975.9574   20698989.2074
 00  9 18  0 52 30.0000000  0 10  1  8 10 13 28 31 20 27  3 19        .000000026
 -20986280.991 9 -16332530.61748  21182089.517    21182089.3644   21182103.5024
 -13266897.926 9 -10315330.94347  22346888.073    22346887.7824   22346907.2644
  -5790171.337 9  -4495116.22445  24674660.506    24674659.9684   24674687.1824
 -23858833.313 9 -18576605.94649  20638488.207    20638488.6224   20638500.2744
 -12453211.350 9  -9680003.88447  22366049.525    22366049.3564   22366062.3934
 -15262900.224 9 -11634760.02647  21977340.580    21977340.2944   21977355.6634
   -778422.258 8   -594161.10345  25213349.705    25213349.1714   25213382.3614
 -19517533.192 9 -15191470.92048  21330856.894    21330856.7954   21330871.3834
  -8417788.333 9  -6544570.50446  23064990.059    23064989.9804   23065005.8764
 -24462266.611 9 -19034661.83348  20700165.890    20700165.8634   20700179.1024
 00  9 18  0 53  0.0000000  0 11  1  8 10 13 28 31  2 20 27  3 19     .000000060
 -20930463.199 9 -16289036.30948  21192711.294    21192711.1514   21192725.3334
 -13329178.613 9 -10363861.14547  22335036.327    22335036.0374   22335055.4084
  -5851389.630 9  -4542818.77645  24663011.130    24663010.5144   24663037.8234
 -23886377.624 9 -18598068.94049  20633246.650    20633247.0604   20633258.6944
 -12372317.402 9  -9616969.82247  22381443.208    22381443.0594   22381456.1044
 -15314383.182 9 -11674876.51747  21967543.593    21967543.3164   21967558.6554
  -1905060.03118  -1238297.70544          .000            .0005   24722529.3474
   -673552.959 8   -512445.31445  25233306.150    25233305.6644   25233338.7754
 -19552168.494 9 -15218459.32748  21324265.912    21324265.7984   21324280.3624
  -8396408.917 9  -6527911.33346  23069058.444    23069058.4134   23069074.3004
 -24455833.302 9 -19029648.90248  20701390.087    20701390.0664   20701403.2754
 00  9 18  0 53 30.0000000  0 11  1  8 10 13 28 31  2 20 27  3 19     .000000056
 -20874234.628 9 -16245221.91448  21203411.273    21203411.1144   21203425.3364
 -13391348.832 9 -10412305.26947  22323205.642    22323205.3364   22323224.6084
  -5912166.794 9  -4590177.60945  24651445.620    24651444.9494   24651472.3794
 -23913482.852 9 -18619189.81849  20628088.614    20628089.0414   20628100.6164
 -12291204.795 9  -9553765.38147  22396878.532    22396878.3844   22396891.4514
 -15365384.611 9 -11714617.79147  21957838.273    21957837.9954   21957853.3184
  -1990774.911 8  -1305087.64145  24706189.242    24706187.1134   24706218.2054
   -568824.642 8   -430839.38545  25253235.764    25253235.5274   25253268.2334
 -19586686.188 9 -15245356.11848  21317697.266    21317697.1664   21317711.7184
  -8374488.339 9  -6510830.51146  23073229.842    23073229.8254   23073245.7464
 -24449218.562 9 -19024494.56248  20702648.823    20702648.7854   20702662.0094
 00  9 18  0 54  0.0000000  0 11  1  8 10 13 28 31  2 20 27  3 19     .000000053
 -20817594.581 9 -16201086.89048  21214189.548    21214189.4024   21214203.6474
 -13453407.271 9 -10460662.28647  22311396.190    22311395.8724   22311415.1004
  -5972499.826 9  -4637190.31445  24639964.638    24639964.1384   24639991.2164
 -23940145.047 9 -18639965.46849  20623014.907    20623015.3144   20623026.8634
 -12209874.535 9  -9490391.38747  22412355.268    22412355.1094   22412368.2374
 -15415901.152 9 -11753981.23347  21948225.197    21948224.9304   21948240.1904
  -2076321.651 8  -1371746.57645  24689909.797    24689905.9334   24689939.5164
   -464238.693 8   -349344.40145  25273138.364    25273137.8704   25273170.8774
 -19621084.495 9 -15272159.88748  21311151.417    21311151.3074   21311165.8274
  -8352025.646 9  -6493327.24246  23077504.449    23077504.4164   23077520.4014
 -24442420.879 9 -19019197.65848  20703942.356    20703942.3194   20703955.5464
 00  9 18  0 54 30.0000000  0 11  1  8 10 13 28 31  2 20 27  3 19     .000000052
 -20760544.184 9 -16156632.11248  21225045.910    21225045.7664   21225060.0504
 -13515354.254 9 -10508932.44547  22299607.883    22299607.5534   22299626.7804
  -6032387.094 8  -4683855.63445  24628568.470    24628567.9684   24628594.8664
 -23966363.099 9 -18660395.10349  20618025.695    20618026.0984   20618037.6044
 -12128329.469 9  -9426850.06547  22427872.895    22427872.6864   22427885.8864
 -15465930.908 9 -11792965.35847  21938704.786    21938704.5014   21938719.7424
  -2161699.258 8  -1438273.75045  24673662.469    24673659.8614   24673692.5584
   -359798.041 8   -267962.63245  25293013.153    25293012.6694   25293045.7874
 -19655363.722 9 -15298870.87748  21304628.204    21304628.0934   21304642.5724
  -8329021.622 9  -6475402.16946  23081882.037    23081882.0054   23081897.9874
 -24435440.168 9 -19013758.13648  20705270.708    20705270.6894   20705283.9104
 00  9 18  0 55  0.0000000  0 11  1  8 10 13 28 31  2 20 27  3 19     .000000051
 -20703084.747 9 -16111858.61448  21235980.105    21235979.9674   21235994.2784
 -13577190.431 9 -10557116.26447  22287840.671    22287840.3304   22287859.5644
  -6091827.617 9  -4730172.82845  24617257.330    24617256.7574   24617283.4564
 -23992135.872 9 -18680477.71349  20613121.247    20613121.6534   20613133.1434
 -12046572.912 9  -9363144.06847  22443430.810    22443430.6264   22443443.8264
 -15515471.712 9 -11831568.47947  21929277.425    21929277.1574   21929292.3304
  -2246907.683 8  -1504669.10145  24657447.175    24657445.0874   24657477.5854
   -255505.650 8   -186696.43645  25312859.694    25312859.3024   25312892.4044
 -19689524.402 9 -15325489.49248  21298127.542    21298127.4334   21298141.8894
  -8305477.109 9  -6457055.86646  23086362.465    23086362.4644   23086378.5174
 -24428277.383 9 -19008176.74948  20706633.715    20706633.6964   20706646.9054
 00  9 18  0 55 30.0000000  0 11  1  8 10 13 28 31  2 20 27  3 19     .000000050
 -20645217.243 9 -16066767.14848  21246991.998    21246991.8834   21247006.1804
 -13638916.164 9 -10605214.02847  22276094.483    22276094.1214   22276113.3314
  -6150820.098 8  -4776140.86245  24606031.415    24606030.8694   24606057.5544
 -24017462.080 9 -18700212.37649  20608301.784    20608302.1994   20608313.6554
 -11964607.060 9  -9299274.95647  22459028.591    22459028.4284   22459041.6694
 -15564521.437 9 -11869788.94547  21919943.481    21919943.2004   21919958.3624
  -2331946.086 8  -1570931.96945  24641264.238    24641262.3904   24641294.9244
   -151364.092 8   -105547.79145  25332677.656    25332676.9224   25332710.3474
 -19723566.594 9 -15352015.78848  21291649.473    21291649.3584   21291663.7904
  -8281392.979 9  -6438289.01946  23090945.592    23090945.5914   23090961.6434
 -24420932.650 9 -19002453.61948  20708031.375    20708031.3684   20708044.5624
 00  9 18  0 56  0.0000000  0 11  1  8 10 13 28 31  2 20 27  3 19     .000000050
 -20586942.525 9 -16021358.37448  21258081.381    21258081.2374   21258095.5454
 -13700531.919 9 -10653226.10047  22264369.258    22264368.9284   22264388.0184
  -6209363.475 8  -4821758.95545  24594890.782    24594890.3034   24594917.0074
 -24042341.140 9 -18719598.60249  20603567.412    20603567.8274   20603579.2614
 -11882434.472 9  -9235244.61647  22474665.774    22474665.5834   22474678.9074
 -15613077.929 9 -11907625.07747  21910703.409    21910703.1264   21910718.2574
  -2416813.823 8  -1637061.86945  24625113.863    24625112.5494   24625144.7794
    -47376.298 8    -24518.97145  25352466.386    25352465.8244   25352499.3104
 -19757490.363 9 -15378449.78348  21285193.925    21285193.8174   21285208.1894
  -8256769.878 9  -6419102.22446  23095631.244    23095631.2274   23095647.3124
 -24413405.762 9 -18996588.50048  20709463.688    20709463.6874   20709476.8634
 00  9 18  0 56 30.0000000  0 11  1  8 10 13 28 31  2 20 27  3 19     .000000050
 -20528261.356 9 -15975632.88948  21269248.107    21269247.9764   21269262.2854
 -13762037.596 9 -10701152.39247  22252664.960    22252664.6314   22252683.6744
  -6267455.749 8  -4867025.55545  24583836.095    24583835.5954   24583862.4474
 -24066771.174 9 -18738634.97149  20598918.483    20598918.9054   20598930.3044
 -11800057.792 9  -9171055.26947  22490341.812    22490341.5804   22490354.9674
 -15661138.777 9 -11945075.00047  21901557.666    21901557.3884   21901572.4914
  -2501510.013 9  -1703058.11645  24608996.156    24608995.1284   24609027.1074
     56455.635 8     56388.39345  25372225.428    25372224.6534   25372258.3214
 -19791295.528 9 -15404791.43248  21278760.923    21278760.8114   21278775.1324
  -8231608.569 9  -6399496.05946  23100419.369    23100419.2924   23100435.4374
 -24405696.762 9 -18990581.49248  20710930.687    20710930.6814   20710943.8704
 00  9 18  0 57  0.0000000  0 11  1  8 10 13 28 31  2 20 27  3 19     .000000049
 -20469174.727 9 -15929591.45848  21280492.004    21280491.8724   21280506.1974
 -13823433.368 9 -10748993.05747  22240981.607    22240981.2794   22241000.2704
  -6325095.646 8  -4911939.65645  24572867.468    24572866.7994   24572893.8994
 -24090750.470 9 -18757320.10949  20594355.342    20594355.7544   20594367.1614
 -11717479.515 9  -9106708.78447  22506056.174    22506055.9514   22506069.3864
 -15708701.893 9 -11982137.06947  21892506.608    21892506.3534   21892521.4314
  -2586033.951 8  -1768920.15845  24592911.310    24592910.4434   24592942.1324
    160128.589 8    137171.82045  25391954.241    25391953.4064   25391987.2704
 -19824982.192 9 -15431040.74248  21272350.492    21272350.3884   21272364.6784
  -8205909.624 9  -6379470.95246  23105309.760    23105309.6874   23105325.7714
 -24397805.716 9 -18984432.64848  20712432.309    20712432.3214   20712445.5004
 00  9 18  0 57 30.0000000  0 11  1  8 10 13 28 31  2 20 27  3 19     .000000050
 -20409682.806 9 -15883234.22248  21291813.021    21291812.8844   21291827.2404
 -13884718.784 9 -10796747.73947  22229319.235    22229318.9234   22229337.8364
  -6382281.019 8  -4956499.60545  24561985.363    24561985.0224   24562011.7354
 -24114277.587 9 -18775652.92549  20589878.250    20589878.6744   20589890.0354
 -11634701.352 9  -9042206.50947  22521808.503    22521808.2864   22521821.7494
 -15755764.213 9 -12018808.91447  21883550.868    21883550.6134   21883565.6834
  -2670384.083 9  -1834646.77845  24576859.516    24576858.6964   24576890.1264
    263640.919 8    217830.06644  25411652.354    25411651.7594   25411685.2164
 -19858549.525 9 -15457197.04248  21265962.808    21265962.7104   21265976.9604
  -8179673.150 9  -6359027.02946  23110302.469    23110302.4214   23110318.4334
 -24389731.971 9 -18978141.46248  20713968.691    20713968.7084   20713981.8694
 00  9 18  0 58  0.0000000  0 11  1  8 10 13 28 31  2 20 27  3 19     .000000049
 -20349786.535 9 -15836561.91848  21303210.992    21303210.8344   21303225.2044
 -13945894.284 9 -10844416.78147  22217677.751    22217677.4334   22217696.3384
  -6439010.955 8  -5000704.65045  24551189.927    24551189.6564   24551216.3054
 -24137350.563 9 -18793631.86249  20585487.580    20585488.0034   20585499.3564
 -11551726.023 9  -8977550.57847  22537598.321    22537598.1254   22537611.6284
 -15802324.072 9 -12055089.23347  21874690.738    21874690.4674   21874705.5424
  -2754559.817 9  -1900237.54545  24560840.906    24560840.1354   24560871.3234
    366990.193 8    298361.24854  25431319.478    25431319.2244           .0005
 -19891997.760 9 -15483260.58748  21259597.764    21259597.6574   21259611.8914
  -8152900.101 9  -6338164.97546  23115397.240    23115397.2634   23115413.2224
 -24381475.663 9 -18971708.00748  20715539.803    20715539.8104   20715552.9984
 00  9 18  0 58 30.0000000  0 11  1  8 10 13 28 31  2 20 27  3 19     .000000049
 -20289486.159 9 -15789574.71748  21314685.878    21314685.7104   21314700.1004
 -14006959.187 9 -10891999.64747  22206057.371    22206057.0374   22206075.9024
  -6495283.499 8  -5044553.33145  24540481.440    24540480.9384   24540508.1144
 -24159967.894 9 -18811255.80249  20581183.620    20581184.0434   20581195.3834
 -11468555.939 9  -8912742.93447  22553425.173    22553425.0084   22553438.5724
 -15848378.596 9 -12090975.77947  21865926.795    21865926.5344   21865941.6094
  -2838559.877 9  -1965691.43145  24544855.729    24544854.9924   24544885.8584
    470173.916 8    378763.44854  25450955.254    25450955.0584           .0005
 -19925326.098 9 -15509230.68748  21253255.544    21253255.4284   21253269.6564
  -8125590.422 9  -6316884.77746  23120594.131    23120594.1554   23120610.1724
 -24373036.104 9 -18965131.73248  20717145.816    20717145.8184   20717159.0054
 00  9 18  0 59  0.0000000  0 11  1  8 10 13 28 31  2 20 27  3 19     .000000049
 -20228782.412 9 -15742273.22148  21326237.491    21326237.3134   21326251.7204
 -14067913.326 9 -10939496.23647  22194458.048    22194457.7174   22194476.5034
  -6551096.577 8  -5088044.13345  24529860.446    24529860.2924   24529886.8174
 -24182128.256 9 -18828523.63749  20576966.666    20576967.0724   20576978.4034
 -11385192.860 9  -8847784.93447  22569288.774    22569288.6064   22569302.2034
 -15893925.152 9 -12126466.52247  21857259.519    21857259.2744   21857274.2904
  -2922382.925 9  -2031007.40345  24528904.177    24528903.5654   24528934.1234
    573190.249 8    459035.14454  25470559.191    25470558.5484           .0005
 -19958534.075 9 -15535107.03148  21246936.246    21246936.1124   21246950.3194
  -8097744.781 9  -6295187.00846  23125893.070    23125893.1074   23125909.0534
 -24364412.766 9 -18958412.26648  20718786.821    20718786.8224   20718799.9884
 00  9 18  0 59 30.0000000  0 11  1  8 10 13 28 31  2 20 27  3 19     .000000049
 -20167676.505 9 -15694658.34948  21337865.605    21337865.4434   21337879.8904
 -14128757.453 9 -10986907.13547  22182879.647    22182879.3334   22182898.0564
  -6606448.911 8  -5131175.87545  24519327.177    24519327.0234   24519353.7134
 -24203829.673 9 -18845433.82149  20572837.035    20572837.4514   20572848.7694
 -11301639.384 9  -8782678.53047  22585188.631    22585188.4894   22585202.0914
 -15938961.693 9 -12161559.86347  21848689.279    21848689.0184   21848703.9854
  -3006028.608 9  -2096185.20545  24512986.366    24512985.8144   24513016.1474
    676037.03618    539174.66854          .000            .0005           .0005
 -19991621.792 9 -15560889.65848  21240639.830    21240639.7014   21240653.8884
  -8069364.149 9  -6273072.35646  23131293.787    23131293.7794   23131309.7754
 -24355606.115 9 -18951549.95948  20720462.704    20720462.7124   20720475.8604
 00  9 18  1  0  0.0000000  0 11  1  8 10 13 28 31  2 20 27  3 19     .000000049
 -20106169.007 9 -15646730.55548  21349570.159    21349570.0104   21349584.5044
 -14189490.759 9 -11034231.68547  22171322.368    22171322.0444   22171340.7354
  -6661338.569 8  -5173947.00945  24508882.019    24508881.5954   24508908.5244
 -24225070.852 9 -18861985.38949  20568794.954    20568795.3894   20568806.6974
 -11217897.410 9  -8717425.13547  22601124.373    22601124.2174   22601137.9064
 -15983485.850 9 -12196253.94747  21840216.590    21840216.3134   21840231.2654
  -3089495.670 8  -2161223.81445  24497102.571    24497101.9904   24497132.1664
    778711.640 7   5328433.70942          .000            .0004           .0004
 -20024588.618 9 -15586578.06648  21234366.413    21234366.2944   21234380.4664
  -8040448.685 9  -6250540.90846  23136796.320    23136796.3094   23136812.3664
 -24346615.536 9 -18944544.35548  20722173.584    20722173.5784   20722186.7414
 00  9 18  1  0 30.0000000  0 11  1  8 10 13 28 31  2 20 27  3 19     .000000049
 -20044260.964 9 -15598490.64048  21361350.932    21361350.7844   21361365.3064
 -14250113.867 9 -11081470.38447  22159786.054    22159785.7504   22159804.4114
  -6715764.639 8  -5216356.89045  24498524.963    24498524.5244   24498551.9244
 -24245851.422 9 -18878178.05949  20564840.544    20564840.9474   20564852.2714
 -11133969.762 9  -8652027.06747  22617095.368    22617095.2014   22617108.9964
 -16027495.823 9 -12230547.36647  21831841.720    21831841.4114   21831856.3644
  -3172783.550 8  -2226122.83045  24481252.934    24481252.3924   24481282.3864
    881211.764 7   5408280.70852          .000            .0004           .0005
 -20057434.690 9 -15612172.37248  21228115.967    21228115.8614   21228130.0544
  -8010999.479 9  -6227593.53546  23142400.341    23142400.2894   23142416.4674
 -24337440.951 9 -18937395.37348  20723919.423    20723919.4394   20723932.6174
 00  9 18  1  1  0.0000000  0 11  1  8 10 13 28 31  2 20 27  3 19     .000000048
 -19981952.653 9 -15549938.81848  21373207.929    21373207.7664   21373222.2954
 -14310626.020 9 -11128622.63247  22148270.876    22148270.5524   22148289.2014
  -6769725.259 8  -5258404.08645  24488256.658    24488256.3334   24488283.5114
 -24266167.545 9 -18894008.81349  20560974.505    20560974.9134   20560986.2414
 -11049858.336 9  -8586485.76847  22633101.373    22633101.2104   22633115.0844
 -16070988.643 9 -12264437.81547  21823565.245    21823564.9304   21823579.8594
  -3255890.899 8  -2290881.18145  24465437.609    24465437.0024   24465466.9414
    983535.70217   5487990.44952          .000            .0005           .0005
 -20090159.296 9 -15637672.00948  21221888.644    21221888.5424   21221902.7454
  -7981016.330 9  -6204230.10046  23148105.931    23148105.9094   23148122.1674
 -24328081.786 9 -18930102.53648  20725700.459    20725700.4764   20725713.6294
 00  9 18  1  1 30.0000000  0 11  1  8 10 13 28 31  2 20 27  3 19     .000000049
 -19919244.530 9 -15501075.47048  21385140.983    21385140.8154   21385155.3654
 -14371026.808 9 -11175688.09947  22136776.904    22136776.5594   22136795.1794
  -6823218.285 8  -5300086.96345  24478077.360    24478077.0004   24478104.1764
 -24286018.373 9 -18909476.98149  20557197.021    20557197.4484   20557208.7734
 -10965564.869 9  -8520802.59847  22649141.972    22649141.8254   22649155.7414
 -16113961.787 9 -12297923.33247  21815387.638    21815387.3424   21815402.3024
  -3338816.172 8  -2355497.70245  24449656.927    24449656.2464   24449686.0074
   1085680.79016   5347237.81442          .000            .0005           .0004
 -20122761.571 9 -15663076.32348  21215684.621    21215684.5174   21215698.7154
  -7950499.861 9  -6180451.05246  23153913.093    23153913.0694   23153929.3744
 -24318537.560 9 -18922665.52348  20727516.694    20727516.6894   20727529.8644
 00  9 18  1  2  0.0000000  0 11  1  8 10 13 28 31  2 20 27  3 19     .000000049
 -19856138.074 9 -15451901.73148  21397149.833    21397149.6714   21397164.2494
 -14431316.764 9 -11222667.20047  22125304.019    22125303.6814   22125322.2394
  -6876242.883 8  -5341404.89845  24467987.249    24467986.8144   24468013.9424
 -24305403.562 9 -18924582.30049  20553508.112    20553508.5224   20553519.8714
 -10881092.186 9  -8454979.76947  22665216.651    22665216.4874   22665230.4774
 -16156413.409 9 -12331002.46447  21807309.314    21807309.0544   21807323.9654
  -3421559.322 8  -2419972.27145  24433910.869    24433910.2974   24433939.7974
   1187644.872 7   5426711.29452          .000            .0004           .0005
 -20155241.723 9 -15688385.47348  21209503.806    21209503.7064   21209517.9024
  -7919451.335 9  -6156257.39546  23159821.487    23159821.4594   23159837.7954
 -24308808.574 9 -18915084.56048  20729368.078    20729368.0874   20729381.2694
 00  9 18  1  2 30.0000000  0 11  1  8 10 13 28 31  2 20 27  3 19     .000000049
 -19792633.986 9 -15402418.14748  21409234.303    21409234.1554   21409248.7814
 -14491495.684 9 -11269559.75147  22113852.300    22113851.9494   22113870.4834
  -6928797.603 9  -5382356.65245  24457986.471    24457986.0494   24458013.0694
 -24324320.805 9 -18939322.96149  20549908.275    20549908.6944   20549920.0434
 -10796442.783 9  -8389019.26147  22681324.998    22681324.8254   22681338.8224
 -16198341.351 9 -12363673.53647  21799330.640    21799330.3784   21799345.2674
  -3504119.305 8  -2484304.10945  24418199.716    24418199.0544   24418228.5474
   1289425.108 7   5506043.07852          .000            .0004           .0005
 -20187599.341 9 -15713599.02748  21203346.313    21203346.2194   21203360.3774
  -7887871.674 9  -6131649.92346  23165830.915    23165830.9194   23165847.2794
 -24298894.573 9 -18907359.47348  20731254.665    20731254.6914   20731267.8654
 00  9 18  1  3  0.0000000  0 11  1  8 10 13 28 31  2 20 27  3 19     .000000048
 -19728732.944 9 -15352625.25248  21421394.358    21421394.2174   21421408.8584
 -14551563.614 9 -11316365.83447  22102421.655    22102421.3334   22102439.8904
  -6980880.378 9  -5422940.65445  24448075.512    24448075.1504   24448102.0144
 -24342769.167 9 -18953698.29949  20546397.664    20546398.0854   20546409.4134
 -10711618.881 9  -8322922.75547  22697466.539    22697466.3614   22697480.3794
 -16239743.519 9 -12395934.90947  21791452.050    21791451.7824   21791466.6544
  -3586495.158 8  -2548492.48545  24402523.569    24402522.9964   24402552.1594
   1391019.942 8   5364988.82642          .000            .0004           .0004
 -20219834.392 9 -15738717.20548  21197212.129    21197212.0264   21197226.1734
  -7855761.323 9  -6106628.90746  23171941.314    23171941.3394   23171957.6984
 -24288795.010 9 -18899489.78448  20733176.593    20733176.6204   20733189.8104
 00  9 18  1  3 30.0000000  0 11  1  8 10 13 28 31  2 20 27  3 19     .000000048
 -19664435.483 9 -15302523.44848  21433629.846    21433629.6974   21433644.3934
 -14611520.164 9 -11363085.12547  22091012.184    22091011.8614   22091030.4334
  -7032489.781 9  -5463155.74045  24438254.635    24438254.2394   24438281.0614
 -24360746.459 9 -18967706.54249  20542976.680    20542977.1034   20542988.4254
 -10626622.249 9  -8256691.68047  22713640.941    22713640.7734   22713654.7874
 -16280617.390 9 -12427784.62547  21783674.005    21783673.6964   21783688.5584
  -3668685.646 8  -2612536.44745  24386882.668    24386882.2234   24386911.0674
   1492426.665 8   5444006.15452          .000            .0004           .0005
 -20251946.197 9 -15763739.38148  21191101.388    21191101.2964   21191115.4264
  -7823120.739 9  -6081194.67846  23178152.684    23178152.6294   23178169.0514
 -24278509.156 9 -18891474.86748  20735133.968    20735134.0154   20735147.2364
 00  9 18  1  4  0.0000000  0 11  1  8 10 13 28 31  2 20 27  3 19     .000000048
 -19599742.422 9 -15252113.40048  21445940.621    21445940.4644   21445955.1914
 -14671364.802 9 -11409717.20447  22079624.062    22079623.7354   22079642.2894
  -7083624.277 9  -5503000.77145  24428524.090    24428523.5854   24428550.5104
 -24378251.477 9 -18981346.81249  20539645.573    20539645.9894   20539657.3024
 -10541455.108 9  -8190327.76947  22729847.775    22729847.6044   22729861.6164
 -16320960.766 9 -12459220.94947  21775996.883    21775996.5514   21776011.3854
  -3750689.561 8  -2676434.99945  24371277.404    24371277.1474   24371305.8844
   1593644.360 8   5522876.45852          .000            .0004           .0005
 -20283934.091 9 -15788664.95748  21185014.253    21185014.1504   21185028.2734
  -7789950.679 9  -6055347.92046  23184464.800    23184464.7294   23184481.1594
 -24268036.681 9 -18883314.49548  20737126.839    20737126.8764   20737140.1374
 00  9 18  1  4 30.0000000  0 11  1  8 10 13 28 31  2 20 27  3 19     .000000048
 -19534654.729 9 -15201395.85048  21458326.523    21458326.3604   21458341.0924
 -14731097.578 9 -11456262.12547  22068257.215    22068256.8744   22068275.3654
  -7134282.856 9  -5542474.90645  24418884.117    24418883.6294   24418910.5874
 -24395282.240 9 -18994617.51049  20536404.713    20536405.1334   20536416.4364
 -10456119.537 9  -8123832.69047  22746086.671    22746086.5024   22746100.5204
 -16360771.198 9 -12490241.99447  21768421.157    21768420.8564   21768435.6294
  -3832505.982 8  -2740187.48245  24355707.882    24355707.6554   24355736.0804
   1694670.835 8   5382704.12942          .000            .0004           .0004
 -20315797.788 9 -15813493.81148  21178950.782    21178950.6784   21178964.7514
  -7756251.732 9  -6029088.95446  23190877.507    23190877.4804   23190893.8964
 -24257377.201 9 -18875008.45748  20739155.342    20739155.3714   20739168.6354
 00  9 18  1  5  0.0000000  0 11  1  8 10 13 28 31  2 20 27  3 19     .000000048
 -19469173.543 9 -15150371.69348  21470787.299    21470787.1134   21470801.9104
 -14790718.529 9 -11502719.90347  22056911.654    22056911.3184   22056929.7534
  -7184463.981 9  -5581577.01445  24409334.907    24409334.4404   24409361.3724
 -24411838.363 9 -19007518.39449  20533254.194    20533254.6044   20533265.8864
 -10370617.984 9  -8057208.23447  22762357.182    22762357.0184   22762371.0744
 -16400047.019 9 -12520846.46647  21760947.160    21760946.8504   21760961.6064
  -3914134.435 9  -2803793.50445  24340174.080    24340173.7394   24340202.0324
   1795504.110 8   5461325.74152          .000            .0004           .0005
 -20347537.152 9 -15838225.77948  21172910.969    21172910.8694   21172924.9304
  -7722025.122 9  -6002418.85446  23197390.606    23197390.6004   23197406.9774
 -24246531.089 9 -18866556.99748  20741219.297    20741219.3134   20741232.6024
 00  9 18  1  5 30.0000000  0 11  1  8 10 13 28 31  2 20 27  3 19     .000000048
 -19403299.429 9 -15099041.36948  21483322.817    21483322.6454   21483337.4674
 -14850227.518 9 -11549090.43247  22045587.422    22045587.0974   22045605.4414
  -7234166.108 9  -5620305.84746  24399876.848    24399876.3974   24399903.3634
 -24427917.551 9 -19020047.65049  20530194.433    20530194.8524   20530206.1214
 -10284952.506 9  -7990455.94047  22778658.860    22778658.6824   22778672.7864
 -16438785.813 9 -12551032.47747  21753575.306    21753575.0244   21753589.7904
  -3995573.798 9  -2867252.18245  24324676.254    24324675.8984   24324703.8524
   1896142.556 8   5539810.96152          .000            .0004           .0005
 -20379151.395 9 -15862860.22348  21166894.946    21166894.8344   21166908.8934
  -7687271.280 9  -5975337.88946  23204004.080    23204004.0334   23204020.4514
 -24235497.751 9 -18857959.63748  20743318.935    20743318.9494   20743332.2304
 00  9 18  1  6  0.0000000  0 11  1  8 10 13 28 31  2 20 27  3 19     .000000048
 -19337033.151 9 -15047405.46448  21495932.956    21495932.7954   21495947.6394
 -14909624.140 9 -11595373.39647  22034284.579    22034284.2224   22034302.5684
  -7283387.675 9  -5658660.20646  24390510.307    24390509.8524   24390536.8704
 -24443519.137 9 -19032204.74749  20527225.535    20527225.9574   20527237.2404
 -10199125.060 9  -7923577.40147  22794991.305    22794991.1264   22795005.3084
 -16476985.450 9 -12580798.36647  21746306.088    21746305.8264   21746320.6324
  -4076823.090 9  -2930562.75245  24309214.582    24309214.2024   24309242.0574
   1996583.249 8   5400374.84542          .000            .0004           .0004
 -20410640.241 9 -15887396.99248  21160902.811    21160902.7024   21160916.7354
  -7651990.998 9  -5947846.70746  23210717.669    23210717.5654   23210734.0384
 -24224276.710 9 -18849216.02348  20745454.278    20745454.2814   20745467.5834
 00  9 18  1  6 30.0000000  0 11  1  8 10 13 28 31  2 20 27  3 19     .000000048
 -19270375.959 9 -14995464.96248  21508617.506    21508617.3444   21508632.2334
 -14968908.716 9 -11641569.04647  22023003.012    22023002.6434   22023021.0044
  -7332127.684 9  -5696639.31946  24381235.394    24381234.8834   24381261.9704
 -24458641.348 9 -19043988.30849  20524347.877    20524348.2994   20524359.5644
 -10113138.108 9  -7856574.54747  22811354.071    22811353.9084   22811368.1214
 -16514644.216 9 -12610142.80247  21739139.759    21739139.5274   21739154.3244
  -4157881.626 9  -2993724.67845  24293789.253    24293788.8814   24293816.6844
   2096822.671 8   5478484.93952          .000            .0004           .0005
 -20442003.321 9 -15911835.70748  21154934.582    21154934.4844   21154948.5364
  -7616185.767 9  -5919946.56446  23217531.204    23217531.1174   23217547.5594
 -24212867.856 9 -18840326.01048  20747625.340    20747625.3484   20747638.6494
 00  9 18  1  7  0.0000000  0 11  1  8 10 13 28 31  2 20 27  3 19     .000000048
 -19203328.631 9 -14943220.45948  21521376.303    21521376.1314   21521391.0534
 -15028080.792 9 -11687677.03447  22011742.818    22011742.4484   22011760.7714
  -7380384.731 9  -5734242.06546  24372052.314    24372051.8004   24372078.8304
 -24473281.997 9 -19055396.61849  20521561.874    20521562.2984   20521573.5544
 -10026994.056 9  -7789449.34047  22827746.755    22827746.6004   22827760.8924
 -16551759.554 9 -12639063.78147  21732076.927    21732076.6664   21732091.4744
  -4238748.470 9  -3056737.26245  24278400.422    24278400.0254   24278427.6814
   2196861.042 9   5556438.89952          .000            .0004           .0005
 -20473240.243 9 -15936176.14348  21148990.349    21148990.2594   21149004.3054
  -7579856.099 9  -5891637.76346  23224444.426    23224444.4514   23224460.9244
 -24201270.475 9 -18831289.08148  20749832.289    20749832.2804   20749845.5984
 00  9 18  1  7 30.0000000  0 11  1  8 10 13 28 31  2 20 27  3 19     .000000048
 -19135891.869 9 -14890672.50848  21534209.206    21534209.0374   21534223.9714
 -15087139.767 9 -11733696.89347  22000504.204    22000503.8484   22000522.1154
  -7428157.048 9  -5771467.08046  24362961.502    24362960.8834   24362988.0474
 -24487440.436 9 -19066429.18649  20518867.623    20518868.0434   20518879.2974
  -9940694.488 9  -7722202.97047  22844169.037    22844168.8814   22844183.1514
 -16588329.284 9 -12667559.62747  21725117.953    21725117.6744   21725132.4194
  -4319422.575 9  -3119599.67546  24263048.235    24263047.8224   24263075.4474
   2296694.162 8   5418092.02942          .000            .0004           .0004
 -20504350.190 9 -15960417.65548  21143070.328    21143070.2174   21143084.2414
  -7543002.649 9  -5862920.91346  23231457.428    23231457.4374   23231473.9034
 -24189483.740 9 -18822104.59348  20752075.225    20752075.2474   20752088.5664
 00  9 18  1  8  0.0000000  0 11  1  8 10 13 28 31  2 20 27  3 19     .000000048
 -19068066.881 9 -14837822.04048  21547115.981    21547115.8124   21547130.7614
 -15146085.989 9 -11779628.88247  21989287.026    21989286.6744   21989304.8654
  -7475443.452 9  -5808313.40645  24353963.090    24353962.5034   24353989.6704
 -24501115.852 9 -19077085.37849  20516265.296    20516265.7154   20516276.9794
  -9854241.598 9  -7654837.02147  22860620.521    22860620.3224   22860634.6424
 -16624351.867 9 -12695629.11947  21718263.089    21718262.8194   21718277.4834
  -4399903.262 9  -3182311.37946  24247732.890    24247732.4754   24247759.9184
   2396320.998 8   5495728.93652          .000            .0004           .0005
 -20535333.135 9 -15984560.23648  21137174.445    21137174.3494   21137188.3924
  -7505626.395 9  -5833796.55546  23238569.939    23238569.9234   23238586.3914
 -24177507.907 9 -18812772.77148  20754354.147    20754354.1604   20754367.4794
 00  9 18  1  8 30.0000000  0 10  1  8 10 13 28 31  2 27  3 19        .000000048
 -18999854.678 9 -14784669.83348  21560096.456    21560096.2864   21560111.2574
 -15204919.118 9 -11825472.73947  21978091.360    21978091.0044   21978109.1774
  -7522242.332 9  -5844779.80545  24345057.423    24345056.7584   24345084.0024
 -24514306.714 9 -19087363.99749  20513755.153    20513755.5834   20513766.8434
  -9767638.030 9  -7587353.77346  22877100.632    22877100.4234   22877114.7284
 -16659825.452 9 -12723270.81347  21711512.637    21711512.3434   21711527.0284
  -4480189.691 9  -3244871.73346  24232454.485    24232454.0724   24232481.4414
 -20566188.503 9 -16008603.38748  21131302.859    21131302.7544   21131316.7864
  -7467728.221 9  -5804265.49746  23245781.706    23245781.7004   23245798.1634
 -24165342.531 9 -18803293.23148  20756669.135    20756669.1574   20756682.4674
 00  9 18  1  9  0.0000000  0 10  1  8 10 13 28 31  2 27  3 19        .000000048
 -18931256.281 9 -14731216.70648  21573150.419    21573150.2694   21573165.2734
 -15263639.017 9 -11871228.34747  21966917.245    21966916.8804   21966935.0524
  -7568553.197 8  -5880865.97445  24336244.655    24336243.8904   24336271.0794
 -24527011.249 9 -19097263.64249  20511337.576    20511338.0064   20511349.2784
  -9680885.682 9  -7519754.54746  22893609.087    22893608.8844   22893623.1114
 -16694747.640 9 -12750482.83947  21704867.083    21704866.7944   21704881.4854
  -4560280.958 8  -3307280.04845  24217213.212    24217212.7944   24217240.0624
 -20596915.729 9 -16032546.62048  21125455.660    21125455.5714   21125469.5764
  -7429309.199 9  -5774328.53846  23253092.548    23253092.6394   23253109.0654
 -24152987.603 9 -18793666.00948  20759020.226    20759020.2294   20759033.5334
 00  9 18  1  9 30.0000000  0 10  1  8 10 13 28 31  2 27  3 19        .000000048
 -18862272.280 9 -14677463.11548  21586277.741    21586277.6014   21586292.6554
 -15322245.390 9 -11916895.49247  21955764.681    21955764.3414   21955782.5184
  -7614374.336 8  -5916570.52945  24327524.977    24327524.2664   24327551.4234
 -24539228.266 9 -19106783.40049  20509012.775    20509013.2064   20509024.4804
  -9593986.627 9  -7452040.99146  22910145.452    22910145.2564   22910159.4504
 -16729116.431 9 -12777263.65447  21698326.845    21698326.5814   21698341.2614
  -4640176.101 8  -3369535.55045  24202009.244    24202008.8394   24202035.9864
 -20627514.408 9 -16056389.75248  21119632.899    21119632.8034   21119646.8104
  -7390370.406 9  -5743986.61046  23260502.364    23260502.4294   23260518.9064
 -24140442.405 9 -18783890.53148  20761407.479    20761407.4974   20761420.8034
 00  9 18  1 10  0.0000000  0 10  1  8 10 13 28 31  2 27  3 19        .000000048
 -18792903.939 9 -14623410.04448  21599478.261    21599478.1224   21599493.1994
 -15380738.152 9 -11962474.11847  21944633.769    21944633.4174   21944651.5794
  -7659704.471 8  -5951892.45345  24318898.747    24318898.0674   24318925.2094
 -24550956.251 9 -19115922.08649  20506781.037    20506781.4614   20506792.7424
  -9506942.900 9  -7384214.70746  22926709.331    22926709.1094   22926723.2634
 -16762930.111 9 -12803611.89947  21691892.248    21691891.9864   21691906.6824
  -4719874.377 8  -3431637.68545  24186842.768    24186842.3184   24186869.3864
 -20657983.866 9 -16080132.21948  21113834.753    21113834.6664   21113848.6384
  -7350912.674 9  -5713240.20746  23268010.972    23268011.0014   23268027.5234
 -24127706.782 9 -18773966.66848  20763830.985    20763831.0094   20763844.3104
 00  9 18  1 10 30.0000000  0 10  1  8 10 13 28 31  2 27  3 19        .000000047
 -18723152.337 9 -14569058.33348  21612751.739    21612751.5634   21612766.7004
 -15439117.004 9 -12007963.99147  21933524.516    21933524.2074   21933542.2774
  -7704542.543 8  -5986830.94245  24310366.141    24310365.4054   24310392.5484
 -24562194.339 9 -19124679.03849  20504642.488    20504642.9114   20504654.1994
  -9419756.932 9  -7316277.63846  22943300.320    22943300.1044   22943314.2564
 -16796186.536 9 -12829525.90947  21685563.713    21685563.4574   21685578.1524
  -4799374.942 8  -3493585.77845  24171713.880    24171713.5224   24171740.5154
 -20688323.549 9 -16103773.49648  21108061.319    21108061.2234   21108075.2004
  -7310937.047 9  -5682090.18346  23275618.038    23275618.0554   23275634.5994
 -24114779.986 9 -18763893.83048  20766290.866    20766290.8764   20766304.2004
 00  9 18  1 11  0.0000000  0 10  1  8 10 13 28 31  2 27  3 19        .000000047
 -18653018.267 9 -14514408.58748  21626097.947    21626097.7644   21626112.9514
 -15497381.851 9 -12053365.02647  21922437.015    21922436.7034   21922454.6954
  -7748887.269 8  -6021385.01945  24301927.373    24301926.6474   24301953.8444
 -24572941.159 9 -19133053.17749  20502597.453    20502597.8774   20502609.1654
  -9332430.492 9  -7248231.12846  22959917.978    22959917.7804   22959931.8964
 -16828883.920 9 -12855004.30547  21679341.589    21679341.3144   21679355.9994
  -4878677.009 8  -3555379.23745  24156622.766    24156622.3694   24156649.3824
 -20718532.905 9 -16127313.16848  21102312.641    21102312.5534   21102326.5564
  -7270444.770 9  -5650537.63246  23283323.365    23283323.3214   23283339.9274
 -24101661.806 9 -18753671.87848  20768787.202    20768787.2184   20768800.5164
 00  9 18  1 11 30.0000000  0 10  1  8 10 13 28 31  2 27  3 19        .000000047
 -18582502.702 9 -14459461.57448  21639516.704    21639516.5344   21639531.7914
 -15555532.226 9 -12098676.87347  21911371.262    21911370.9344   21911388.9384
  -7792737.325 8  -6055553.67345  24293582.792    24293582.1534   24293609.1904
 -24583195.539 9 -19141043.59849  20500646.096    20500646.5184   20500657.7964
  -9244965.389 9  -7180076.46446  22976562.025    22976561.8374   22976576.0044
 -16861020.198 9 -12880045.48447  21673226.231    21673225.9484   21673240.5684
  -4957779.537 8  -3617017.21945  24141569.669    24141569.3404   24141596.2524
 -20748611.358 9 -16150750.79848  21096588.854    21096588.7764   21096602.8034
  -7229436.276 9  -5618582.86846  23291126.908    23291126.9094   23291143.4974
 -24088351.657 9 -18743300.33748  20771320.021    20771320.0244   20771333.3464
 00  9 18  1 12  0.0000000  0 10  1  8 10 13 28 31  2 27  3 19        .000000047
 -18511607.107 9 -14404218.41948  21653007.785    21653007.6244   21653022.9414
 -15613568.444 9 -12143899.75947  21900327.238    21900326.9194   21900344.8624
  -7836092.171 8  -6089336.45345  24285332.414    24285331.8254   24285358.6894
 -24592956.373 9 -19148649.43349  20498788.692    20498789.1144   20498800.4024
  -9157364.648 9  -7111816.11146  22993231.867    22993231.7274   22993245.8584
 -16892594.058 9 -12904648.40947  21667217.914    21667217.6084   21667232.2094
  -5036682.495 8  -3678499.76045  24126554.643    24126554.3954   24126580.9344
 -20778559.148 9 -16174086.64248  21090889.927    21090889.8514   21090903.8724
  -7187913.650 9  -5586227.47146  23299028.390    23299028.3284   23299044.9104
 -24074849.685 9 -18732779.28748  20773889.328    20773889.3464   20773902.6904
 00  9 18  1 12 30.0000000  0 10  1  8 10 13 28 31  2 27  3 19        .000000047
 -18440332.259 9 -14348679.74948  21666571.050    21666570.9054   21666586.2504
 -15671490.004 9 -12189033.30847  21889305.018    21889304.6904   21889322.6324
  -7878949.935 8  -6122731.94245  24277176.675    24277175.9914   24277202.7984
 -24602221.995 9 -19155869.39249  20497025.483    20497025.9044   20497037.2024
  -9069629.656 9  -7043451.18446  23009927.292    23009927.1284   23009941.2944
 -16923603.524 9 -12928811.56547  21661316.960    21661316.6334   21661331.2324
  -5115384.349 9  -3739825.58745  24111577.952    24111577.6034   24111604.0254
 -20808375.372 9 -16197320.05848  21085216.093    21085215.9994   21085229.9694
  -7145877.577 9  -5553471.97346  23307027.515    23307027.4704   23307044.0534
 -24061155.198 9 -18722108.22748  20776495.339    20776495.3424   20776508.6704
 00  9 18  1 13  0.0000000  0 10  1  8 10 13 28 31  2 27  3 19        .000000047
 -18368679.494 9 -14292846.58648  21680206.251    21680206.0954   21680221.4774
 -15729296.701 9 -12234077.35047  21878304.668    21878304.3254   21878322.2424
  -7921310.198 8  -6155739.76845  24269115.539    24269114.9614   24269141.6924
 -24610991.841 9 -19162703.03049  20495356.633    20495357.0604   20495368.3684
  -8981762.926 9  -6974983.61846  23026647.744    23026647.5844   23026661.8294
 -16954046.975 9 -12952533.66547  21655523.619    21655523.3334   21655537.9244
  -5193884.616 9  -3800994.40445  24096639.687    24096639.2544   24096665.5834
 -20838059.572 9 -16220450.53348  21079567.345    21079567.2394   21079581.2074
  -7103329.260 9  -5520317.31546  23315124.083    23315124.0464   23315140.6084
 -24047267.843 9 -18711286.89848  20779138.000    20779138.0024   20779151.3274
 00  9 18  1 13 30.0000000  0 10  1  8 10 13 28 31  2 27  3 19        .000000047
 -18296649.585 9 -14236719.54548  21693913.224    21693913.0664   21693928.4664
 -15786988.429 9 -12279031.81047  21867326.194    21867325.8464   21867343.7114
  -7963171.231 8  -6188358.62045  24261149.490    24261148.9374   24261175.6534
 -24619264.148 9 -19169148.97549  20493782.465    20493782.8794   20493794.1894
  -8893766.232 9  -6906414.71546  23043392.957    23043392.7914   23043407.0754
 -16983922.319 9 -12975813.08747  21649838.461    21649838.1894   21649852.7464
  -5272182.504 9  -3862005.55045  24081739.915    24081739.5194   24081765.7264
 -20867611.190 9 -16243477.69748  21073943.818    21073943.7124   21073957.6894
  -7060269.777 9  -5486764.33846  23323317.966    23323317.9334   23323334.4264
 -24033186.943 9 -18700314.71648  20781817.496    20781817.5074   20781830.8274
 00  9 18  1 14  0.0000000  0 10  1  8 10 13 28 31  2 27  3 19        .000000047
 -18224243.754 9 -14180299.56448  21707691.738    21707691.5574   21707707.0064
 -15844564.613 9 -12323896.23647  21856369.700    21856369.3614   21856387.1964
  -8004532.222 8  -6220587.79845  24253278.664    24253278.0364   24253304.8664
 -24627038.492 9 -19175206.88749  20492303.034    20492303.4544   20492314.7674
  -8805641.861 9  -6837746.36146  23060162.523    23060162.3214   23060176.6354
 -17013227.940 9 -12998648.55747  21644261.702    21644261.4304   21644275.9664
  -5350277.107 9  -3922858.29445  24066878.808    24066878.3974   24066904.4264
 -20897029.523 9 -16266400.98648  21068345.658    21068345.5484   21068359.4924
  -7016700.355 9  -5452814.03646  23331608.879    23331608.7944   23331625.3114
 -24018912.254 9 -18689191.50848  20784533.834    20784533.8374   20784547.1734
 00  9 18  1 14 30.0000000  0 10  1  8 10 13 28 31  2 27  3 19        .000000047
 -18151463.435 9 -14123587.78148  21721541.482    21721541.3094   21721556.7904
 -15902025.535 9 -12368670.85847  21845435.124    21845434.7714   21845452.5984
  -8045392.253 8  -6252426.61845  24245503.183    24245502.5074   24245529.2474
 -24634313.522 9 -19180875.72349  20490918.653    20490919.0724   20490930.3694
  -8717392.013 9  -6768980.24746  23076955.886    23076955.6764   23076969.9714
 -17041962.522 9 -13021039.05447  21638793.675    21638793.3854   21638807.8974
  -5428167.896 9  -3983552.25445  24052056.516    24052056.1184   24052082.0304
 -20926314.292 9 -16289220.20948  21062772.883    21062772.7764   21062786.7044
  -6972622.326 9  -5418467.42846  23339996.550    23339996.5074   23340012.9784
 -24004443.905 9 -18677917.40748  20787287.024    20787287.0414   20787300.3494
 00  9 18  1 15  0.0000000  0 10  1  8 10 13 28 31  2 27  3 19        .000000047
 -18078309.356 9 -14066584.74748  21735462.390    21735462.1924   21735477.7184
 -15959370.387 9 -12413355.02247  21834522.603    21834522.2754   21834540.1144
  -8085749.691 8  -6283873.76345  24237823.271    24237822.7754   24237849.2174
 -24641087.862 9 -19186154.40949  20489629.518    20489629.9244   20489641.2284
  -8629018.355 9  -6700117.70046  23093772.896    23093772.6644   23093786.9424
 -17070123.732 9 -13042982.78347  21633434.763    21633434.4554   21633448.9294
  -5505853.974 9  -4044086.73445  24037273.193    24037272.7334   24037298.5484
 -20955464.606 9 -16311934.64948  21057225.710    21057225.5964   21057239.5134
  -6928036.509 9  -5383725.16246  23348480.816    23348480.8334   23348497.2634
 -23989780.903 9 -18666491.63848  20790077.288    20790077.2894   20790090.5964
 00  9 18  1 15 30.0000000  0 10  1  8 10 13 28 31  2 27  3 19        .000000047
 -18004783.099 9 -14009291.69948  21749454.086    21749453.8964   21749469.4734
 -16016599.437 9 -12457948.93647  21823632.223    21823631.8744   21823649.7014
  -8125604.092 8  -6314928.89745  24230239.082    24230238.4954   24230264.8444
 -24647360.203 9 -19191041.93249  20488435.908    20488436.3214   20488447.6134
  -8540523.405 9  -6631160.64446  23110612.889    23110612.6664   23110626.9254
 -17097710.325 9 -13064478.75747  21628185.168    21628184.8394   21628199.2794
  -5583335.041 9  -4104461.49045  24022528.902    24022528.4404   24022554.1804
 -20984480.290 9 -16334544.17748  21051704.167    21051704.0494   21051717.9504
  -6882944.542 9  -5348588.51846  23357061.472    23357061.4034   23357077.8024
 -23974923.293 9 -18654914.24348  20792904.546    20792904.5424   20792917.8504
 00  9 18  1 16  0.0000000  0 10  1  8 10 13 28 31  2 27  3 19        .000000047
 -17930885.395 9 -13951709.21648  21763516.437    21763516.2714   21763531.8994
 -16073712.103 9 -12502452.14847  21812763.953    21812763.5884   21812781.3734
  -8164953.862 8  -6345590.81845  24222750.936    24222750.4094   24222776.5894
 -24653129.582 9 -19195537.52849  20487338.024    20487338.4414   20487349.7214
  -8451908.888 9  -6562110.48446  23127475.672    23127475.5224   23127489.7734
 -17124720.216 9 -13085525.36347  21623045.256    21623044.9674   21623059.3954
  -5660609.694 9  -4164675.40245  24007823.888    24007823.4504   24007849.0984
 -21013360.479 9 -16357048.09748  21046208.381    21046208.2734   21046222.1564
  -6837347.213 9  -5313058.10346  23365738.251    23365738.1374   23365754.5744
 -23959870.087 9 -18643184.41148  20795769.033    20795769.0394   20795782.3324
 00  9 18  1 16 30.0000000  0 10  1  8 10 13 28 31  2 27  3 19        .000000047
 -17856617.477 9 -13893838.24248  21777649.275    21777649.0874   21777664.7694
 -16130707.991 9 -12546864.36547  21801917.853    21801917.4974   21801935.2194
  -8203798.234 8  -6375858.89645  24215358.858    24215358.2974   24215384.5954
 -24658395.272 9 -19199640.64849  20486336.007    20486336.4254   20486347.7004
  -8363176.264 9  -6492968.10246  23144360.955    23144360.8124   23144375.1004
 -17151152.005 9 -13106121.49247  21618015.399    21618015.1304   21618029.5524
  -5737677.418 9  -4224728.08846  23993158.247    23993157.8224   23993183.5294
 -21042104.722 9 -16379446.09048  21040738.445    21040738.3304   21040752.1844
  -6791245.554 9  -5277134.65046  23374511.054    23374510.9834   23374527.4314
 -23944620.856 9 -18631301.84548  20798670.830    20798670.8404   20798684.1194
 00  9 18  1 17  0.0000000  0 10  1  8 10 13 28 31  2 27  3 19        .000000047
 -17781980.780 9 -13835679.91248  21791852.252    21791852.0754   21791867.7874
 -16187587.060 9 -12591185.56047  21791094.047    21791093.6904   21791111.3384
  -8242136.517 8  -6405732.60145  24208063.118    24208062.4874   24208088.9494
 -24663156.151 9 -19203350.40349  20485430.033    20485430.4424   20485441.7194
  -8274328.331 9  -6423735.85346  23161268.140    23161267.9784   23161282.3604
 -17177004.095 9 -13126265.89847  21613095.834    21613095.5854   21613109.9694
  -5814537.762 9  -4284619.18046  23978532.111    23978531.6984   23978557.3494
 -21070712.506 9 -16401737.75448  21035294.521    21035294.4094   21035308.2524
  -6744641.715 9  -5240819.89646  23383379.380    23383379.3044   23383395.6834
 -23929175.567 9 -18619266.50648  20801609.944    20801609.9454   20801623.2104
 00  9 18  1 17 30.0000000  0 10  1  8 10 13 28 31  2 27  3 19        .000000047
 -17706976.552 9 -13777235.19148  21806125.216    21806125.0544   21806140.7854
 -16244349.198 9 -12635415.62947  21780292.453    21780292.1184   21780309.7104
  -8279967.860 8  -6435211.28245  24200863.902    24200863.3224   24200889.7274
 -24667410.840 9 -19206665.72549  20484620.379    20484620.8124   20484632.0584
  -8185366.938 9  -6354415.20346  23178196.860    23178196.6694   23178211.0974
 -17202275.183 9 -13145957.57548  21608286.846    21608286.5854   21608300.9524
  -5891190.131 9  -4344348.23046  23963945.598    23963945.2364   23963970.7554
 -21099183.342 9 -16423922.70548  21029876.610    21029876.5004   21029890.3444
  -6697536.663 9  -5204114.55246  23392343.129    23392343.0284   23392359.4184
 -23913534.155 9 -18607078.34348  20804586.408    20804586.4054   20804599.6444
 00  9 18  1 18  0.0000000  0 10  1  8 10 13 28 31  2 27  3 19        .000000047
 -17631605.807 9 -13718504.86048  21820467.913    21820467.7344   21820483.4924
 -16300993.654 9 -12679553.98247  21769513.253    21769512.9204   21769530.5024
  -8317291.116 8  -6464294.00345  24193761.321    24193760.6294   24193787.1224
 -24671158.282 9 -19209585.78049  20483907.259    20483907.6764   20483918.9384
  -8096293.997 9  -6285007.58846  23195146.809    23195146.5944   23195161.0934
 -17226963.436 9 -13165195.09248  21603588.795    21603588.5074   21603602.8834
  -5967633.553 9  -4403914.45046  23949398.834    23949398.4374   23949423.9134
 -21127516.348 9 -16446000.24448  21024484.933    21024484.8324   21024498.6464
  -6649931.393 9  -5167019.39846  23401401.978    23401401.9274   23401418.2844
 -23897695.734 9 -18594736.64648  20807600.304    20807600.3084   20807613.5364
 00  9 18  1 18 30.0000000  0 10  1  8 10 13 28 31  2 27  3 19        .000000046
 -17555869.554 9 -13659489.71147  21834880.143    21834879.9674   21834895.7794
 -16357520.217 9 -12723600.47047  21758756.474    21758756.1374   21758773.7084
  -8354105.374 8  -6492980.07645  24186755.557    24186754.8194   24186781.5634
 -24674397.526 9 -19212109.82649  20483290.817    20483291.2434   20483302.4874
  -8007111.329 9  -6215514.53646  23212117.696    23212117.4564   23212131.9634
 -17251067.148 9 -13183977.12948  21599001.981    21599001.6724   21599016.0474
  -6043866.917 9  -4463316.98046  23934891.979    23934891.6204   23934917.1454
 -21155710.671 9 -16467969.71348  21019119.637    21019119.5474   21019133.3304
  -6601827.462 9  -5129535.73646  23410555.754    23410555.7704   23410572.1014
 -23881659.448 9 -18582240.74448  20810651.858    20810651.8564   20810665.0744
 00  9 18  1 19  0.0000000  0 10  1  8 10 13 28 31  2 27  3 19        .000000046
 -17479769.311 9 -13600190.93847  21849361.597    21849361.4324   21849377.2754
 -16413928.772 9 -12767555.00747  21748022.126    21748021.7984   21748039.3364
  -8390409.548 8  -6521268.64445  24179846.802    24179846.0414   24179872.6094
 -24677127.739 9 -19214237.22149  20482771.269    20482771.6924   20482782.9544
  -7917820.945 9  -6145937.56046  23229109.045    23229108.7834   23229123.1894
 -17274584.990 9 -13202302.64248  21594526.635    21594526.3414   21594540.6634
  -6119889.714 9  -4522555.42546  23920425.178    23920424.7854   23920450.4004
 -21183765.813 9 -16489830.70948  21013780.831    21013780.7334   21013794.5064
  -6553226.192 9  -5091664.59546  23419804.313    23419804.3074   23419820.5004
 -23865425.052 9 -18569590.49548  20813741.099    20813741.1074   20813754.3184
 00  9 18  1 19 30.0000000  0 10  1  8 10 13 28 31  2 27  3 19        .000000046
 -17403306.229 9 -13540609.43247  21863912.136    21863911.9794   21863927.8374
 -16470218.895 9 -12811417.25447  21737310.365    21737310.0344   21737327.5094
  -8426202.830 8  -6549159.11045  24173035.290    24173034.5274   24173060.9544
 -24679348.100 9 -19215967.33049  20482348.716    20482349.1354   20482360.3974
  -7828425.062 9  -6076278.36946  23246120.437    23246120.1364   23246134.5894
 -17297515.646 9 -13220170.58048  21590163.024    21590162.7314   21590177.0214
  -6195701.357 9  -4581629.33146  23905998.580    23905998.2024   23906023.7764
 -21211681.341 9 -16511582.91348  21008468.558    21008468.4604   21008482.2154
  -6504128.699 9  -5053406.71346  23429147.225    23429147.2284   23429163.2554
 -23848992.133 9 -18556785.54648  20816868.123    20816868.1424   20816881.3344
 00  9 18  1 20  0.0000000  0 10  1  8 10 13 28 31  2 27  3 19        .000000046
 -17326482.010 9 -13480746.51747  21878531.392    21878531.2484   21878547.1454
 -16526390.567 9 -12855187.15847  21726621.109    21726620.7944   21726638.2354
  -8461485.036 8  -6576651.33845  24166321.089    24166320.4164   24166346.6394
 -24681057.944 9 -19217299.62649  20482023.325    20482023.7404   20482035.0034
  -7738926.129 9  -6006538.83846  23263151.437    23263151.1764   23263165.6034
 -17319857.845 9 -13237579.95848  21585911.379    21585911.0754   21585925.3584
  -6271301.584 9  -4640538.46146  23891612.262    23891611.8524   23891637.4544
 -21239456.983 9 -16533226.10048  21003182.932    21003182.8394   21003196.5544
  -6454537.014 9  -5014763.73046  23438584.206    23438584.2064   23438600.1464
 -23832360.635 9 -18543825.83948  20820032.912    20820032.9314   20820046.1144
 00  9 18  1 20 30.0000000  0 10  1  8 10 13 28 31  2 27  3 19        .000000046
 -17249297.510 9 -13420602.86447  21893219.174    21893219.0494   21893234.9534
 -16582443.254 9 -12898864.36547  21715954.473    21715954.1684   21715971.5534
  -8496254.588 8  -6603744.07145  24159704.371    24159703.6264   24159729.7794
 -24682255.350 9 -19218232.60749  20481795.433    20481795.8384   20481807.1114
  -7649325.193 9  -5936719.82846  23280201.876    23280201.6824   23280216.0154
 -17341609.747 9 -13254529.35348  21581772.018    21581771.7314   21581786.0154
  -6346688.967 9  -4699281.73446  23877266.431    23877265.9634   23877291.6594
 -21267091.517 9 -16554759.33048  20997924.159    20997924.0504   20997937.7234
  -6404451.955 9  -4975736.29746  23448114.967    23448114.9884   23448130.9364
 -23815529.876 9 -18530710.84548  20823235.648    20823235.6644   20823248.8304
 00  9 18  1 21  0.0000000  0 10  1  8 10 13 28 31  2 27  3 19        .000000046
 -17171754.191 9 -13360179.60347  21907975.265    21907975.1544   21907991.0924
 -16638376.790 9 -12942448.71747  21705310.542    21705310.2574   21705327.5874
  -8530510.985 8  -6630436.94245  24153185.314    24153184.5994   24153210.7054
 -24682940.286 9 -19218766.25849  20481665.031    20481665.4484   20481676.7214
  -7559625.016 9  -5866823.56146  23297271.208    23297271.0054   23297285.2854
 -17362770.089 9 -13271017.80348  21577745.263    21577744.9584   21577759.2504
  -6421863.322 9  -4757858.98046  23862961.124    23862960.7264   23862986.3484
 -21294584.721 9 -16576182.42948  20992692.242    20992692.1324   20992705.8064
  -6353875.509 9  -4936326.04246  23457739.311    23457739.3054   23457755.2934
 -23798499.579 9 -18517440.37448  20826476.352    20826476.3514   20826489.5064
 00  9 18  1 21 30.0000000  0 10  1  8 10 13 28 31  2 27  3 19        .000000046
 -17093853.495 9 -13299477.86847  21922799.380    21922799.2624   21922815.2284
 -16694190.822 9 -12985939.93648  21694689.334    21694689.0494   21694706.3044
  -8564253.560 8  -6656729.48645  24146764.077    24146763.3644   24146789.3184
 -24683111.376 9 -19218899.50149  20481632.449    20481632.8614   20481644.1224
  -7469827.247 9  -5796851.28246  23314359.134    23314358.9954   23314373.1454
 -17383338.074 9 -13287044.67048  21573831.191    21573830.8984   21573845.1854
  -6496823.979 9  -4816269.67746  23848696.529    23848696.1114   23848721.7494
 -21321935.918 9 -16597494.86748  20987487.370    20987487.2754   20987500.9144
  -6302808.889 9  -4896533.78346  23467456.871    23467456.8984   23467472.8394
 -23781269.147 9 -18504013.97348  20829755.143    20829755.1514   20829768.2684
 00  9 18  1 22  0.0000000  0 10  1  8 10 13 28 31  2 27  3 19        .000000046
 -17015596.595 9 -13238498.57747  21937691.296    21937691.1624   21937707.1204
 -16749884.842 9 -13029337.62148  21684090.984    21684090.6874   21684107.9284
  -8597481.705 8  -6682621.15745  24140440.727    24140440.0324   24140465.8234
 -24682767.977 9 -19218631.84149  20481697.754    20481698.1564   20481709.3934
  -7379933.671 9  -5726804.23746  23331465.296    23331465.1524   23331479.3094
 -17403311.699 9 -13302608.39748  21570030.234    21570029.9694   21570044.2214
  -6571570.391 9  -4874513.41946  23834472.634    23834472.2684   23834497.8544
 -21349144.345 9 -16618696.04148  20982309.639    20982309.5304   20982323.1404
  -6251253.286 9  -4856360.39546  23477267.513    23477267.5764   23477283.4174
 -23763837.890 9 -18490431.09048  20833072.120    20833072.1244   20833085.2194
 00  9 18  1 22 30.0000000  0 10  1  8 10 13 28 31  2 27  3 19        .000000046
 -16936984.629 9 -13177242.60347  21952650.785    21952650.6264   21952666.6114
 -16805458.672 9 -13072641.64648  21673515.455    21673515.1684   21673532.3744
  -8630194.401 8  -6708111.16445  24134215.420    24134214.9814   24134240.5354
 -24681909.786 9 -19217963.04549  20481861.018    20481861.4324   20481872.6414
  -7289946.549 9  -5656684.37246  23348589.266    23348589.1184   23348603.2354
 -17422689.851 9 -13317708.10648  21566342.621    21566342.3524   21566356.5484
  -6646101.986 9  -4932589.75646  23820289.677    23820289.2574   23820314.7684
 -21376209.230 9 -16639785.36148  20977159.229    20977159.1154   20977172.6854
  -6199210.629 9  -4815807.54446  23487170.848    23487170.8704   23487186.7194
 -23746205.508 9 -18476691.46248  20836427.385    20836427.3924   20836440.4604
 00  9 18  1 23  0.0000000  0 10  1  8 10 13 28 31  2 27  3 19        .000000046
 -16858019.041 9 -13115711.08947  21967677.534    21967677.3634   21967693.3644
 -16860912.065 9 -13115851.80648  21662962.831    21662962.5534   21662979.6904
  -8662390.854 9  -6733198.93045  24128088.340    24128087.8934   24128113.3874
 -24680534.976 9 -19216891.68749  20482122.595    20482123.0014   20482134.2044
  -7199867.316 9  -5586492.65346  23365730.793    23365730.6214   23365744.7284
 -17441471.425 9 -13332342.94748  21562768.521    21562768.2674   21562782.4124
  -6720418.177 9  -4990498.22146  23806147.700    23806147.2974   23806172.6654
 -21403129.896 9 -16660762.31948  20972036.255    20972036.1424   20972049.6724
  -6146682.241 9  -4774876.13446  23497166.591    23497166.5314   23497182.4564
 -23728371.641 9 -18462794.85548  20839820.999    20839821.0124   20839834.0334
 00  9 18  1 23 30.0000000  0 10  1  8 10 13 28 31  2 27  3 19        .000000045
 -16778701.091 9 -13053904.99547  21982771.283    21982771.1244   21982787.1784
 -16916244.324 9 -13158967.56848  21652433.271    21652432.9734   21652450.0544
  -8694070.482 9  -6757883.99245  24122059.630    24122059.2664   24122084.5714
 -24678642.766 9 -19215417.15649  20482482.611    20482483.0024   20482494.1794
  -7109698.179 9  -5516230.93546  23382889.404    23382889.2534   23382903.2644
 -17459655.115 9 -13346511.90648  21559308.178    21559307.9024   21559322.0324
  -6794518.080 9  -5048238.14346  23792046.788    23792046.3904   23792071.6374
 -21429905.855 9 -16681626.50748  20966940.811    20966940.7094   20966954.1974
  -6093669.673 9  -4733567.48546  23507254.452    23507254.4064   23507270.3324
 -23710335.749 9 -18448740.82748  20843253.047    20843253.0464   20843266.0404
 00  9 18  1 24  0.0000000  0 10  1  8 10 13 28 31  2 27  3 19        .000000045
 -16699032.039 9 -12991825.31147  21997931.850    21997931.6894   21997947.7914
 -16971455.306 9 -13201988.83048  21641926.803    21641926.4974   21641943.5244
  -8725232.630 9  -6782165.83745  24116129.448    24116129.0714   24116154.3274
 -24676232.916 9 -19213539.25549  20482941.147    20482941.5454   20482952.6984
  -7019440.580 9  -5445900.16446  23400064.837    23400064.6134   23400078.6974
 -17477239.137 9 -13360213.58248  21555961.914    21555961.6494   21555975.7564
  -6868401.127 9  -5105809.04346  23777987.090    23777986.7034   23778011.9024
 -21456536.201 9 -16702377.25248  20961873.105    20961872.9984   20961886.4484
  -6040174.486 9  -4691882.83146  23517434.111    23517434.1294   23517449.9364
 -23692097.343 9 -18434528.99948  20846723.638    20846723.6544   20846736.6094
 00  9 18  1 24 30.0000000  0 10  1  8 10 13 28 31  2 27  3 19        .000000045
 -16619013.545 9 -12929473.32647  22013158.911    22013158.7774   22013174.9264
 -17026544.647 9 -13244915.28548  21631443.442    21631443.1144   21631460.1104
  -8755876.621 9  -6806043.92345  24110297.845    24110297.4194   24110322.5894
 -24673304.413 9 -19211257.20849  20483498.346    20483498.7594   20483509.8814
  -6929097.226 9  -5375502.64546  23417256.505    23417256.3314   23417270.3824
 -17494222.803 9 -13373447.45648  21552729.921    21552729.6664   21552743.7584
  -6942066.775 9  -5163210.52546  23763968.810    23763968.4374   23763993.5674
 -21483020.394 9 -16723014.12248  20956833.180    20956833.0774   20956846.4714
  -5986198.383 9  -4649823.50646  23527705.337    23527705.3194   23527720.9984
 -23673656.167 9 -18420159.15948  20850232.814    20850232.8244   20850245.7584
 00  9 18  1 25  0.0000000  0 10  1  8 10 13 28 31  2 27  3 19        .000000045
 -16538646.983 9 -12866850.13647  22028452.212    22028452.0904   22028468.2934
 -17081511.971 9 -13287746.66648  21620983.284    21620982.9654   21620999.9054
  -8786001.868 9  -6829517.79745  24104564.935    24104564.5374   24104589.6694
 -24669856.500 9 -19208570.43849  20484154.409    20484154.8254   20484165.9164
  -6838669.438 9  -5305039.34546  23434464.199    23434464.0384   23434478.1054
 -17510604.539 9 -13386212.29048  21549612.456    21549612.1944   21549626.2564
  -7015514.497 9  -5220442.17446  23749991.933    23749991.5634   23750016.6584
 -21509357.582 9 -16743536.45748  20951821.239    20951821.1364   20951834.4874
  -5931742.521 9  -4607390.27946  23538067.941    23538067.8654   23538083.4804
 -23655011.626 9 -18405630.87548  20853780.647    20853780.6584   20853793.5864
 00  9 18  1 25 30.0000000  0 10  1  8 10 13 28 31  2 27  3 19        .000000044
 -16457933.839 9 -12803956.87547  22043811.499    22043811.3774   22043827.6044
 -17136357.084 9 -13330482.80848  21610546.413    21610546.1004   21610562.9344
  -8815607.864 9  -6852587.09045  24098930.835    24098930.4984   24098955.4574
 -24665888.687 9 -19205478.54549  20484909.406    20484909.8424   20484920.9094
  -6748159.428 9  -5234511.97846  23451687.589    23451687.4454   23451701.5234
 -17526383.760 9 -13398507.61748  21546609.641    21546609.3934   21546623.4254
  -7088743.868 9  -5277503.65346  23736056.651    23736056.3114   23736081.3854
 -21535547.361 9 -16763943.93948  20946837.375    20946837.2874   20946850.5734
  -5876808.600 9  -4564584.58146  23548521.468    23548521.3384   23548537.0164
 -23636163.185 9 -18390943.69448  20857367.333    20857367.3354   20857380.2414
 00  9 18  1 26  0.0000000  0 10  1  8 10 13 28 31  2 27  3 19        .000000044
 -16376875.513 9 -12740794.64347  22059236.464    22059236.3484   22059252.5554
 -17191079.409 9 -13373123.26548  21600132.860    21600132.5304   21600149.3154
  -8844694.113 9  -6875251.39645  24093395.647    24093395.2504   24093420.1834
 -24661399.710 9 -19201980.55649  20485763.548    20485763.9814   20485775.0204
  -6657569.107 9  -5163922.05646  23468926.240    23468926.1314   23468940.2194
 -17541559.233 9 -13410332.47948  21543721.771    21543721.4924   21543735.4894
  -7161754.279 9  -5334394.50046  23722163.015    23722162.6294   23722187.6844
 -21561588.960 9 -16784235.96448  20941881.719    20941881.6174   20941894.8704
  -5821398.639 9  -4521407.95546  23559065.592    23559065.4994   23559081.1434
 -23617110.386 9 -18376097.26948  20860992.890    20860992.8954   20861005.7914
 00  9 18  1 26 30.0000000  0 10  1  8 10 13 28 31  2 27  3 19        .000000044
 -16295473.216 9 -12677364.37447  22074726.901    22074726.7644   22074742.9964
 -17245678.518 9 -13415667.72448  21589742.758    21589742.4334   21589759.1564
  -8873259.727 9  -6897510.02045  24087959.605    24087959.1534   24087983.9644
 -24656389.328 9 -19198076.27849  20486716.917    20486717.3414   20486728.3724
  -6566900.004 9  -5093270.83346  23486179.900    23486179.8474   23486193.7924
 -17556129.504 9 -13421685.74648  21540949.062    21540948.7624   21540962.6974
  -7234545.049 9  -5391114.17546  23708311.147    23708310.7994   23708335.6704
 -21587481.341 9 -16804411.72748  20936954.437    20936954.3284   20936967.5364
  -5765513.469 9  -4477860.93446  23569700.176    23569700.0764   23569715.6024
 -23597852.670 9 -18361091.15148  20864657.438    20864657.4484   20864670.3344
 00  9 18  1 27  0.0000000  0 10  1  8 10 13 28 31  2 27  3 19        .000000044
 -16213728.842 9 -12613667.56347  22090282.389    22090282.2564   22090298.5204
 -17300154.381 9 -13458116.14348  21579376.108    21579375.7894   21579392.4394
  -8901304.570 9  -6919362.87745  24082622.612    24082622.1384   24082646.8614
 -24650856.747 9 -19193765.09549  20487769.671    20487770.1024   20487781.1084
  -6476154.727 9  -5022560.31546  23503448.090    23503448.0324   23503461.9374
 -17570093.893 9 -13432566.89948  21538291.608    21538291.3324   21538305.1934
  -7307116.069 9  -5447662.58846  23694501.082    23694500.6994   23694525.5924
 -21613224.247 9 -16824471.00248  20932055.618    20932055.5104   20932068.6754
  -5709155.723 9  -4433945.74346  23580424.613    23580424.5424   23580439.9764
 -23578389.911 9 -18345925.25848  20868360.966    20868360.9844   20868373.8524
 00  9 18  1 27 30.0000000  0 10  1  8 10 13 28 31  2 27  3 19        .000000044
 -16131643.591 9 -12549705.12647  22105902.758    22105902.6424   22105918.8874
 -17354506.381 9 -13500468.06148  21569033.013    21569032.7004   21569049.2684
  -8928827.924 9  -6940809.38445  24077384.849    24077384.3844   24077409.0324
 -24644801.486 9 -19189046.63849  20488921.897    20488922.3244   20488933.3234
  -6385334.345 9  -4951791.08746  23520730.665    23520730.5574   23520744.4894
 -17583451.347 9 -13442975.12448  21535749.628    21535749.3514   21535763.1634
  -7379466.446 9  -5504039.07446  23680732.953    23680732.5614   23680757.3564
 -21638816.795 9 -16844413.09748  20927185.349    20927185.2614   20927198.4124
  -5652326.476 9  -4389663.09346  23591238.808    23591238.7564   23591254.1364
 -23558721.379 9 -18330599.01248  20872103.719    20872103.7334   20872116.5814
 00  9 18  1 28  0.0000000  0 10  1  8 10 13 28 31  2 27  3 19        .000000044
 -16049218.841 9 -12485478.14847  22121587.778    22121587.6244   22121603.9594
 -17408734.383 9 -13542723.37148  21558713.510    21558713.1844   21558729.7174
  -8955829.340 9  -6961849.20246  24072246.442    24072246.0624   24072270.4564
 -24638222.245 9 -19183919.89849  20490173.804    20490174.2284   20490185.2074
  -6294440.661 9  -4880964.73646  23538027.140    23538026.9734   23538041.0054
 -17596200.569 9 -13452909.41148  21533323.421    21533323.1414   21533336.8794
  -7451595.641 9  -5560243.20246  23667006.960    23667006.5234   23667031.2674
 -21664258.132 9 -16864237.36448  20922343.935    20922343.8434   20922356.9324
  -5595027.398 9  -4345014.32546  23602142.367    23602142.2174   23602157.6584
 -23538846.633 9 -18315112.07648  20875885.696    20875885.6954   20875898.5134
 00  9 18  1 28 30.0000000  0 10  1  8 10 13 28 31  2 27  3 19        .000000043
 -15966455.868 9 -12420987.62047  22137337.124    22137337.0004   22137353.3194
 -17462837.586 9 -13584881.43848  21548417.778    21548417.4824   21548433.9344
  -8982308.293 9  -6982481.93746  24067207.436    24067207.0394   24067231.4644
 -24631118.984 9 -19178384.83249  20491525.449    20491525.8924   20491536.8664
  -6203475.838 9  -4810082.98746  23555337.158    23555336.9604   23555350.9774
 -17608340.685 9 -13462369.08648  21531013.096    21531012.8204   21531026.5074
  -7523503.247 9  -5616274.64346  23653323.050    23653322.6274   23653347.2874
 -21689547.333 9 -16883943.07348  20917531.455    20917531.3554   20917544.4374
  -5537260.079 9  -4300000.70746  23613135.047    23613134.9474   23613150.2934
 -23518765.074 9 -18299464.01948  20879707.021    20879707.0104   20879719.7994
 00  9 18  1 29  0.0000000  0 10  1  8 10 13 28 31  2 27  3 19        .000000043
 -15883356.477 9 -12356234.94747  22153150.485    22153150.3534   22153166.6984
 -17516815.583 9 -13626941.95348  21538145.923    21538145.6134   21538161.9714
  -9008264.445 9  -7002707.30246  24062267.971    24062267.5404   24062291.9424
 -24623491.128 9 -19172440.99549  20492976.904    20492977.3474   20492988.3174
  -6112441.978 9  -4739147.56046  23572660.257    23572660.0874   23572674.1144
 -17619870.951 9 -13471353.55448  21528818.758    21528818.5094   21528832.1914
  -7595188.749 9  -5672133.00946  23639681.371    23639680.9904   23639705.6334
 -21714683.915 9 -16903529.85748  20912748.010    20912747.9164   20912760.9664
  -5479026.236 9  -4254623.56446  23624216.470    23624216.3964   23624231.8264
 -23498476.455 9 -18283654.60848  20883567.756    20883567.7474   20883580.5224
 00  9 18  1 29 30.0000000  0 10  1  8 10 13 28 31  2 27  3 19        .000000043
 -15799922.045 9 -12291221.20447  22169027.597    22169027.4614   22169043.8314
 -17570668.079 9 -13668904.67348  21527897.929    21527897.6074   21527913.9284
  -9033697.205 9  -7022524.84046  24057428.112    24057427.5704   24057452.0754
 -24615337.779 9 -19166087.68349  20494528.411    20494528.8434   20494539.7894
  -6021340.351 9  -4668159.27646  23589996.289    23589996.1254   23590010.1904
 -17630790.092 9 -13479861.82548  21526740.756    21526740.5084   21526754.1624
  -7666651.783 9  -5727818.04446  23626082.067    23626081.6254   23626106.2284
 -21739667.144 9 -16922997.15348  20907993.751    20907993.6574   20908006.6704
  -5420327.989 9  -4208884.56346  23635386.260    23635386.2334   23635401.6404
 -23477980.126 9 -18267683.37148  20887467.981    20887467.9874   20887480.7594
 00  9 18  1 30  0.0000000  0 10  1  8 10 13 28 31  2 27  3 19        .000000043
 -15716154.368 9 -12225947.78147  22184968.178    22184968.0464   22184984.4194
 -17624395.047 9 -13710769.56848  21517673.794    21517673.4754   21517689.7494
  -9058606.614 9  -7041934.56046  24052687.806    24052687.2514   24052711.7014
 -24606658.801 9 -19159324.78749  20496179.917    20496180.3504   20496191.2844
  -5930173.072 9  -4597119.69946  23607344.846    23607344.6654   23607358.7394
 -17641097.720 9 -13487893.59148  21524779.154    21524778.9064   21524792.5154
  -7737892.122 9  -5783329.54046  23612525.132    23612524.7504   23612549.1784
 -21764496.611 9 -16942344.63748  20903268.731    20903268.6394   20903281.6234
  -5361167.221 9  -4162785.16546  23646644.111    23646644.0594   23646659.4684
 -23457275.865 9 -18251550.10948  20891407.766    20891407.7804   20891420.5234
 00  9 18  1 30 30.0000000  0 10  1  8 10 13 28 31  2 27  3 19        .000000043
 -15632054.514 9 -12160415.52247  22200971.918    22200971.7674   22200988.2134
 -17677995.428 9 -13752535.84848  21507473.823    21507473.4974   21507489.6934
  -9082991.725 9  -7060935.74646  24048047.246    24048046.7244   24048071.2434
 -24597453.196 9 -19152151.52749  20497931.642    20497932.0674   20497942.9944
  -5838942.054 9  -4526030.56646  23624705.523    23624705.3274   23624719.3034
 -17650792.622 9 -13495447.91348  21522934.183    21522933.9234   21522947.5194
  -7808908.720 9  -5838666.68946  23599010.855    23599010.4664   23599034.7784
 -21789171.238 9 -16961571.51248  20898573.197    20898573.0994   20898586.0514
  -5301545.026 9  -4116326.19146  23657989.773    23657989.7444   23658005.1084
 -23436362.713 9 -18235254.06348  20895387.355    20895387.3544   20895400.0554
 00  9 18  1 31  0.0000000  0 10  1  8 10 13 28 31  2 27  3 19        .000000043
 -15547624.536 9 -12094626.01847  22217038.471    22217038.3144   22217054.8224
 -17731469.438 9 -13794203.66148  21497297.846    21497297.5114   21497313.6494
  -9106852.679 9  -7079528.50646  24043506.511    24043505.9284   24043530.4764
 -24587721.524 9 -19144568.34349  20499783.462    20499783.8854   20499794.7994
  -5747649.004 9  -4454892.99146  23642077.987    23642077.8404   23642091.6834
 -17659874.407 9 -13502524.48548  21521205.882    21521205.6194   21521219.1514
  -7879701.594 9  -5893829.50446  23585539.094    23585538.6924   23585562.8854
 -21813690.498 9 -16980677.31748  20893907.227    20893907.1294   20893920.0354
  -5241464.077 9  -4069509.72946  23669422.724    23669422.7194   23669438.0514
 -23415240.884 9 -18218795.40248  20899406.646    20899406.6524   20899419.3234
 00  9 18  1 31 30.0000000  0 10  1  8 10 13 28 31  2 27  3 19        .000000043
 -15462865.968 9 -12028580.45447  22233167.575    22233167.3884   22233183.9274
 -17784816.279 9 -13835772.38848  21487146.109    21487145.7694   21487161.8464
  -9130188.946 9  -7097712.43546  24039065.581    24039065.0924   24039089.4484
 -24577462.251 9 -19136574.03049  20501735.687    20501736.1334   20501747.0164
  -5656295.910 9  -4383708.73646  23659461.815    23659461.6264   23659475.4384
 -17668341.876 9 -13509122.36548  21519594.481    21519594.2154   21519607.7294
  -7950270.246 9  -5948817.59446  23572109.976    23572109.5794   23572133.7134
 -21838053.644 9 -16999661.50149  20889270.981    20889270.8894   20889283.7584
  -5180925.883 9  -4022336.96946  23680942.677    23680942.6954   23680958.0094
 -23393909.407 9 -18202173.37648  20903465.842    20903465.8324   20903478.4894
 00  9 18  1 32  0.0000000  0 10  1  8 10 13 28 31  2 27  3 19        .000000042
 -15377780.124 9 -11962279.87547  22249358.909    22249358.7394   22249375.3154
 -17838035.704 9 -13877241.84648  21477018.640    21477018.2904   21477034.2714
  -9153000.588 9  -7115487.53846  24034724.520    24034724.1074   24034748.1834
 -24566674.983 9 -19128168.28949  20503788.398    20503788.8424   20503799.7124
  -5564884.368 9  -4312478.90846  23676856.838    23676856.7234   23676870.4764
 -17676194.389 9 -13515241.05448  21518100.103    21518099.8104   21518113.3104
  -8020614.038 9  -6003630.45346  23558723.601    23558723.1674   23558747.2684
 -21862259.702 9 -17018523.26849  20884664.667    20884664.5584   20884677.3944
  -5119931.948 9  -3974809.05046  23692549.281    23692549.3104   23692564.7204
 -23372367.500 9 -18185387.39648  20907565.041    20907565.0444   20907577.6994
 00  9 18  1 32 30.0000000  0 10  1  8 10 13 28 31  2 27  3 19        .000000042
 -15292368.386 9 -11895725.34847  22265612.276    22265612.0874   22265628.7524
 -17891126.886 9 -13918611.36348  21466915.514    21466915.1744   21466931.0954
  -9175286.900 9  -7132853.28746  24030483.450    24030483.0134   24030507.0114
 -24555358.797 9 -19119350.40149  20505941.739    20505942.1724   20505953.0174
  -5473416.007 9  -4241204.83846  23694262.665    23694262.5234   23694276.2134
 -17683430.975 9 -13520879.79348  21516722.872    21516722.5934   21516736.0674
  -8090732.484 9  -6058267.73446  23545380.145    23545379.7334   23545403.6974
 -21886307.404 9 -17037261.61949  20880088.446    20880088.3464   20880101.1504
  -5058483.779 8  -3926927.22146  23704242.331    23704242.3454   23704257.8044
 -23350614.626 9 -18168437.02348  20911704.406    20911704.4184   20911717.0734
 00  9 18  1 33  0.0000000  0 10  1  8 10 13 28 31  2 27  3 19        .000000042
 -15206632.337 9 -11828918.11747  22281927.384    22281927.2134   22281943.8744
 -17944089.427 9 -13959880.64148  21456836.845    21456836.5424   21456852.3964
  -9197047.593 9  -7149809.46546  24026342.390    24026341.9204   24026365.8864
 -24543514.282 9 -19110120.83049  20508195.618    20508196.0514   20508206.8724
  -5381892.652 9  -4169887.94746  23711678.939    23711678.7364   23711692.4494
 -17690050.988 9 -13526038.07048  21515462.994    21515462.7164   21515476.1344
  -8160625.093 9  -6112729.02646  23532079.703    23532079.2814   23532103.1104
 -21910196.006 9 -17055875.98449  20875542.526    20875542.4234   20875555.1814
  -4996583.506 8  -3878693.07546  23716021.408    23716021.3814   23716036.8724
 -23328650.426 9 -18151321.95548  20915883.968    20915883.9754   20915896.6134
 00  9 18  1 33 30.0000000  0 10  1  8 10 13 28 31  2 27  3 19        .000000041
 -15120573.635 9 -11761859.45947  22298303.834    22298303.6754   22298320.3524
 -17996922.881 9 -14001049.33948  21446782.805    21446782.5024   21446798.2534
  -9218282.483 9  -7166355.91646  24022301.357    24022300.8574   24022324.8774
 -24531140.282 9 -19100478.67749  20510550.285    20510550.7114   20510561.5144
  -5290315.912 9  -4098529.48746  23729105.368    23729105.1334   23729118.8964
 -17696053.414 9 -13530715.11648  21514320.659    21514320.3864   21514333.7684
  -8230291.479 9  -6167014.03246  23518822.272    23518821.8894   23518845.5844
 -21933924.900 9 -17074365.88349  20871026.956    20871026.8594   20871039.5984
  -4934232.925 8  -3830107.97646  23727886.065    23727886.1274   23727901.6884
 -23306474.483 9 -18134041.88348  20920103.894    20920103.8934   20920116.4974
 00  9 18  1 34  0.0000000  0 10  1  8 10 13 28 31  2 27  3 19        .000000041
 -15034194.404 9 -11694551.03447  22314741.309    22314741.1664   22314757.8644
 -18049627.214 9 -14042117.42448  21436753.364    21436753.0554   21436768.7094
  -9238991.432 9  -7182492.54846  24018360.467    24018359.9664   24018383.9764
 -24518236.453 9 -19090423.66849  20513005.733    20513006.1624   20513016.9434
  -5198687.678 9  -4027130.74046  23746541.709    23746541.3434   23746555.1374
 -17701438.527 9 -13534911.14548  21513295.800    21513295.5164   21513308.8614
  -8299731.818 9  -6221122.91946  23505607.870    23505607.4684   23505631.0554
 -21957493.487 9 -17092730.86349  20866541.933    20866541.8244   20866554.5334
  -4871434.332 8  -3781173.84246  23739836.126    23739836.1444   23739851.6044
 -23284086.620 9 -18116596.68548  20924364.103    20924364.0944   20924376.6414
 00  9 18  1 34 30.0000000  0 10  1  8 10 13 28 31  2 27  3 19        .000000041
 -14947495.921 9 -11626993.83047  22331239.549    22331239.4054   22331256.1304
 -18102201.716 9 -14083084.34248  21426748.600    21426748.2814   21426763.9024
  -9259174.360 9  -7198219.27346  24014519.628    24014519.0354   24014543.0304
 -24504802.931 9 -19079955.91949  20515561.978    20515562.4124   20515573.1754
  -5107009.762 9  -3955693.22946  23763987.421    23763987.1244   23764000.9254
 -17706205.041 9 -13538625.15848  21512388.624    21512388.3444   21512401.6464
  -8368945.236 9  -6275054.97246  23492436.696    23492436.3054   23492459.6844
 -21980900.949 9 -17110970.27549  20862087.540    20862087.4384   20862100.1124
  -4808189.192 8  -3731891.71546  23751871.213    23751871.2024   23751886.6864
 -23261486.265 9 -18098985.93748  20928664.731    20928664.7274   20928677.2534
 00  9 18  1 35  0.0000000  0 10  1  8 10 13 28 31  2 27  3 19        .000000041
 -14860479.653 9 -11559189.01647  22347798.256    22347798.1014   22347814.8504
 -18154645.740 9 -14123949.59248  21416768.700    21416768.3804   21416783.9134
  -9278830.944 9  -7213535.86746  24010778.936    24010778.3744   24010802.2764
 -24490839.249 9 -19069075.06849  20518219.139    20518219.5624   20518230.3204
  -5015283.770 9  -3884218.34545  23781442.220    23781441.9004   23781455.7314
 -17710352.404 9 -13541856.72048  21511599.290    21511599.0204   21511612.2634
  -8437931.138 9  -6328809.75346  23479308.778    23479308.4144   23479331.6214
 -22004146.260 9 -17129083.34149  20857663.971    20857663.8804   20857676.5234
  -4744499.415 8  -3682263.06246  23763990.847    23763990.8524   23764006.3034
 -23238672.725 9 -18081209.06748  20933005.901    20933005.9024   20933018.4164
 00  9 18  1 35 30.0000000  0 10  1  8 10 13 28 31  2 27  3 19        .000000041
 -14773147.551 9 -11491138.08247  22364417.057    22364416.8664   22364433.6314
 -18206958.924 9 -14164712.87948  21406813.662    21406813.3324   21406828.8184
  -9297961.204 9  -7228442.33446  24007138.408    24007137.9054   24007161.7064
 -24476345.047 9 -19057780.82149  20520977.240    20520977.6634   20520988.4134
  -4923511.713 9  -3812707.59845  23798905.752    23798905.4214   23798919.2904
 -17713880.218 9 -13544605.50248  21510927.849    21510927.5954   21510940.7764
  -8506689.461 9  -6382387.21046  23466224.170    23466223.7924   23466246.9694
 -22027228.766 9 -17147069.55349  20853271.457    20853271.3414   20853283.9304
  -4680367.094 8  -3632289.57046  23776194.634    23776194.7534   23776210.0394
 -23215645.472 9 -18063265.68748  20937387.757    20937387.7784   20937400.2654
 00  9 18  1 36  0.0000000  0 10  1  8 10 13 28 31  2 27  3 19        .000000040
 -14685501.228 9 -11422842.29647  22381095.654    22381095.4504   22381112.2574
 -18259140.840 9 -14205373.85248  21396883.562    21396883.2464   21396898.7024
  -9316565.117 9  -7242938.67246  24003598.007    24003597.4664   24003621.2584
 -24461319.746 9 -19046072.73349  20523836.386    20523836.8044   20523847.5514
  -4831694.918 8  -3741161.85545  23816377.789    23816377.5054   23816391.3714
 -17716787.615 9 -13546870.83748  21510374.501    21510374.2384   21510387.3494
  -8575219.886 9  -6435787.08246  23453182.896    23453182.5504   23453205.5794
 -22050147.661 9 -17164928.25449  20848909.990    20848909.8804   20848922.4554
  -4615794.264 9  -3581972.89146  23788482.308    23788482.3474   23788497.6614
 -23192404.026 9 -18045155.39248  20941810.409    20941810.4064   20941822.8944
 00  9 18  1 36 30.0000000  0 10  1  8 10 13 28 31  2 27  3 19        .000000040
 -14597541.972 9 -11354302.67847  22397833.796    22397833.5824   22397850.4104
 -18311190.397 9 -14245931.64448  21386978.689    21386978.3744   21386993.7954
  -9334642.034 9  -7257024.36246  24000157.891    24000157.3074   24000181.1324
 -24445762.787 9 -19033950.35549  20526796.735    20526797.1444   20526807.8824
  -4739835.118 8  -3669582.68645  23833857.912    23833857.6544   23833871.7284
 -17719074.104 9 -13548652.33448  21509939.268    21509939.0094   21509952.0914
  -8643521.646 9  -6489008.76446  23440185.174    23440184.8084   23440207.6704
 -22072901.811 9 -17182658.61149  20844579.890    20844579.7984   20844592.3264
  -4550782.492 9  -3531314.14146  23800853.558    23800853.5524   23800868.7594
 -23168947.611 9 -18026877.57148  20946273.972    20946273.9664   20946286.4184
 00  9 18  1 37  0.0000000  0 10  1  8 10 13 28 31  2 27  3 19        .000000040
 -14509271.660 9 -11285520.65747  22414631.119    22414630.9644   22414647.7364
 -18363107.502 9 -14286386.21448  21377098.998    21377098.6634   21377114.0374
  -9352192.099 8  -7270699.52445  23996818.042    23996817.4994   23996841.1934
 -24429674.373 9 -19021413.85449  20529858.190    20529858.6054   20529869.3264
  -4647933.896 8  -3597971.14645  23851345.952    23851345.8174   23851359.7834
 -17720739.303 9 -13549949.70348  21509622.323    21509622.0394   21509635.0874
  -8711594.576 9  -6542052.13946  23427230.966    23427230.5974   23427253.2984
 -22095490.540 9 -17200260.06149  20840281.312    20840281.2044   20840293.6784
  -4485333.937 9  -3480315.05646  23813307.847    23813307.8904   23813323.0744
 -23145275.999 9 -18008432.04548  20950778.459    20950778.4584   20950790.9064
 00  9 18  1 37 30.0000000  0 10  1  8 10 13 28 31  2 27  3 19        .000000040
 -14420692.084 9 -11216497.65847  22431487.303    22431487.1554   22431503.9214
 -18414891.865 9 -14326737.38348  21367244.546    21367244.2054   21367259.5064
  -9369215.877 9  -7283964.57246  23993578.357    23993577.8734   23993601.5584
 -24413054.271 9 -19008463.04449  20533020.853    20533021.2654   20533031.9634
  -4555993.372 8  -3526329.04145  23868841.578    23868841.4354   23868855.3824
 -17721783.036 9 -13550762.82148  21509423.538    21509423.2674   21509436.2924
  -8779438.517 9  -6594917.03846  23414320.330    23414319.9544   23414342.4484
 -22117913.092 9 -17217732.01549  20836014.335    20836014.2284   20836026.6564
  -4419450.657 9  -3428977.19246  23825844.860    23825844.9314   23825860.1034
 -23121388.685 9 -17989818.44148  20955323.992    20955324.0014   20955336.4304
 00  9 18  1 38  0.0000000  0 10  1  8 10 13 28 31  2 27  3 19        .000000039
 -14331804.744 9 -11147234.85347  22448402.083    22448401.9244   22448418.6444
 -18466542.804 9 -14366984.61048  21357415.485    21357415.1504   21357430.3594
  -9385713.026 9  -7296819.25446  23990438.864    23990438.3664   23990461.9924
 -24395901.794 9 -18995097.39449  20536284.805    20536285.2264   20536295.9104
  -4464014.965 9  -3454657.41745  23886344.358    23886344.1494   23886358.1854
 -17722204.631 9 -13551091.14448  21509343.162    21509342.9024   21509355.9074
  -8847052.944 9  -6647603.08546  23401453.372    23401452.9624   23401475.4174
 -22140168.553 9 -17235073.79149  20831779.103    20831779.0004   20831791.4164
  -4353134.137 9  -3377301.68546  23838464.330    23838464.3654   23838479.4844
 -23097285.119 9 -17971036.31948  20959910.648    20959910.6664   20959923.0784
 00  9 18  1 38 30.0000000  0 10  1  8 10 13 28 31  2 27  3 19        .000000039
 -14242611.314 9 -11077733.52847  22465375.064    22465374.8854   22465391.6134
 -18518059.642 9 -14407127.31148  21347611.967    21347611.6364   21347626.7884
  -9401683.264 9  -7309263.34746  23987399.671    23987399.2194   23987422.6694
 -24378217.685 9 -18981317.49549  20539649.902    20539650.3264   20539660.9844
  -4372000.321 9  -3382957.57946  23903854.097    23903853.8974   23903867.8904
 -17722003.505 9 -13550934.24048  21509381.294    21509381.0364   21509394.0004
  -8914437.566 9  -6700110.08146  23388630.079    23388629.6694   23388652.0444
 -22162256.076 9 -17252284.70349  20827575.886    20827575.7904   20827588.1464
  -4286386.901 9  -3325290.57946  23851165.801    23851165.8024   23851180.7804
 -23072964.784 9 -17952085.28448  20964538.579    20964538.6024   20964550.9904
 00  9 18  1 39  0.0000000  0 10  1  8 10 13 28 31  2 27  3 19        .000000039
 -14153114.087 9 -11007995.49347  22482405.860    22482405.7154   22482422.4374
 -18569442.423 9 -14447165.58448  21337833.942    21337833.6164   21337848.6934
  -9417127.050 9  -7321297.20046  23984460.665    23984460.1944   23984483.6934
 -24360001.156 9 -18967122.72449  20543116.353    20543116.7664   20543127.4164
  -4279951.559 9  -3311231.15146  23921370.446    23921370.2104   23921384.1114
 -17721179.830 9 -13550292.24648  21509537.907    21509537.6374   21509550.5694
  -8981592.643 9  -6752438.21446  23375850.467    23375850.0864   23375872.3764
 -22184175.034 9 -17269364.25649  20823404.750    20823404.6474   20823416.9584
  -4219211.086 9  -3272945.58146  23863948.792    23863948.7724   23863963.5774
 -23048427.475 9 -17932965.17248  20969207.817    20969207.8304   20969220.1594
 00  9 18  1 39 30.0000000  0 10  1  8 10 13 28 31  2 27  3 19        .000000039
 -14063314.213 9 -10938021.63347  22499494.284    22499494.1244   22499510.8354
 -18620690.120 9 -14487098.58448  21328081.649    21328081.3174   21328096.3084
  -9432044.037 9  -7332920.57346  23981621.831    23981621.4004   23981644.8134
 -24341252.064 9 -18952512.97449  20546684.124    20546684.5464   20546695.1734
  -4187869.786 9  -3239478.91346  23938893.025    23938892.7694   23938906.5474
 -17719732.841 9 -13549164.56648  21509813.113    21509812.8474   21509825.7034
  -9048517.342 9  -6804586.83846  23363114.773    23363114.3634   23363136.5634
 -22205924.203 9 -17286311.51649  20819265.883    20819265.7834   20819278.0804
  -4151608.129 9  -3220267.57446  23876812.966    23876812.9774   23876827.7864
 -23023672.136 9 -17913675.19348  20973918.548    20973918.5494   20973930.8274
 00  9 18  1 40  0.0000000  0 10  1  8 10 13 28 31  2 27  3 19        .000000039
 -13973213.550 9 -10867813.39547  22516639.873    22516639.7144   22516656.4944
 -18671802.203 9 -14526925.92948  21318355.115    21318354.7914   21318369.7184
  -9446434.170 9  -7344133.42146  23978883.316    23978882.8654   23978906.1664
 -24321970.137 9 -18937488.03249  20550353.273    20550353.6864   20550364.3164
  -4095756.654 9  -3167702.23246  23956421.468    23956421.1754   23956434.8984
 -17717661.957 9 -13547550.76548  21510207.068    21510206.8144   21510219.6054
  -9115211.332 9  -6856555.68146  23350422.946    23350422.5504   23350444.6064
 -22227502.509 9 -17303125.60949  20815159.554    20815159.4554   20815171.7284
  -4083580.601 9  -3167258.87446  23889758.017    23889757.9754   23889772.7904
 -22998698.350 9 -17894215.01048  20978670.837    20978670.8294   20978683.0774
 00  9 18  1 40 30.0000000  0 10  1  8 10 13 28 31  2 27  3 19        .000000038
 -13882813.974 9 -10797372.24447  22533842.363    22533842.2064   22533859.0264
 -18722778.167 9 -14566647.18048  21308654.481    21308654.1664   21308669.0454
  -9460298.118 9  -7354936.25446  23976244.957    23976244.4824   23976267.7834
 -24302155.032 9 -18922047.63149  20554123.922    20554124.3364   20554134.9684
  -4003613.950 9  -3095902.48346  23973955.568    23973955.3564   23973968.9144
 -17714967.225 9 -13545450.84948  21510719.735    21510719.4894   21510732.2404
  -9181674.453 9  -6908344.63746  23337775.095    23337774.7064   23337796.6414
 -22248909.333 9 -17319806.07349  20811085.862    20811085.7554   20811097.9974
  -4015130.418 9  -3113920.75446  23902783.508    23902783.3884   23902798.2264
 -22973506.099 9 -17874584.60948  20983464.667    20983464.6604   20983476.8844
 00  9 18  1 41  0.0000000  0 10  1  8 10 13 28 31  2 27  3 19        .000000038
 -13792116.957 9 -10726699.32147  22551101.491    22551101.3474   22551118.1644
 -18773617.273 9 -14606261.78648  21298979.947    21298979.6244   21298994.4214
  -9473635.435 8  -7365328.72445  23973706.713    23973706.2084   23973729.5944
 -24281807.097 9 -18906192.03749  20557995.935    20557996.3654   20558006.9574
  -3911442.945 9  -3024080.63546  23991494.913    23991494.8044   23991508.1874
 -17711648.065 9 -13542864.35248  21511351.264    21511351.0024   21511363.7144
  -9247906.105 9  -6959953.24746  23325171.268    23325170.8514   23325192.6974
 -22270143.613 9 -17336352.09349  20807044.989    20807044.8934   20807057.0774
  -3946259.216 9  -3060254.63946  23915889.085    23915889.0554   23915903.5804
 -22948094.113 9 -17854782.99048  20988300.318    20988300.3324   20988312.5474
 00  9 18  1 41 30.0000000  0 10  1  8 10 13 28 31  2 27  3 19        .000000038
 -13701124.532 9 -10655796.22147  22568416.813    22568416.6904   22568433.5134
 -18824319.255 9 -14645769.56448  21289331.463    21289331.1434   21289345.8744
  -9486446.614 9  -7375311.20745  23971268.629    23971268.1074   23971291.3824
 -24260926.027 9 -18889921.02349  20561969.440    20561969.8554   20561980.4424
  -3819245.706 9  -2952238.47046  24009039.399    24009039.1484   24009052.4714
 -17707704.299 9 -13539791.14648  21512101.634    21512101.3434   21512114.0394
  -9313906.222 9  -7011381.42346  23312611.482    23312611.0364   23312632.7924
 -22291204.719 9 -17352763.16449  20803037.062    20803036.9684   20803049.0974
  -3876969.364 9  -3006262.33446  23929074.275    23929074.2174   23929088.7464
 -22922462.384 9 -17834810.13848  20993177.829    20993177.8264   20993190.0164
 00  9 18  1 42  0.0000000  0 10  1  8 10 13 28 31  2 27  3 19        .000000038
 -13609838.178 9 -10584664.07347  22585788.113    22585788.0044   22585804.7644
 -18874883.293 9 -14685169.83948  21279709.250    21279708.9444   21279723.6004
  -9498731.754 9  -7384883.79045  23968930.659    23968930.0754   23968953.3524
 -24239511.549 9 -18873234.37349  20566044.441    20566044.8644   20566055.4264
  -3727023.408 9  -2880376.65445  24026588.686    24026588.3604   24026601.5384
 -17703135.929 9 -13536231.25248  21512970.887    21512970.6014   21512983.2374
  -9379674.377 9  -7062628.85446  23300095.818    23300095.4404   23300117.0224
 -22312091.640 9 -17369038.51949  20799062.291    20799062.1894   20799074.2884
  -3807262.774 9  -2951945.20745  23942338.799    23942338.7444   23942353.2004
 -22896610.120 9 -17814665.43748  20998097.261    20998097.2804   20998109.4474
 00  9 18  1 42 30.0000000  0 10  1  8 10 13 28 31  2 27  3 19        .000000037
 -13518260.130 9 -10513304.65147  22603214.924    22603214.7804   22603231.6004
 -18925308.835 9 -14724462.17848  21270113.392    21270113.0784   21270127.6614
  -9510491.162 8  -7394046.69446  23966692.744    23966692.0654   23966715.4324
 -24217564.284 9 -18856132.56649  20570220.818    20570221.2424   20570231.8014
  -3634778.133 9  -2808496.95245  24044142.210    24044142.0374   24044155.0324
 -17697942.909 9 -13532184.61148  21513958.972    21513958.6874   21513971.2764
  -9445210.833 9  -7113695.74546  23287624.264    23287623.8544   23287645.3674
 -22332803.692 9 -17385177.64449  20795120.820    20795120.7184   20795132.7644
  -3737141.957 9  -2897305.33145  23955682.231    23955682.1584   23955696.3464
 -22870537.078 9 -17794348.69448  21003058.766    21003058.7654   21003070.8854
 00  9 18  1 43  0.0000000  0 10  1  8 10 13 28 31  2 27  3 19        .000000037
 -13426391.770 9 -10441719.00547  22620696.973    22620696.8074   22620713.6404
 -18975595.458 9 -14763646.29148  21260543.930    21260543.6024   21260558.1474
  -9521724.703 9  -7402799.82745  23964554.834    23964554.2054   23964577.4184
 -24195083.983 9 -18838615.40549  20574498.629    20574499.0614   20574509.5944
  -3542510.806 8  -2736599.91145  24061699.869    24061699.6434   24061712.6604
 -17692124.862 9 -13527650.94348  21515066.007    21515065.7204   21515078.2474
  -9510514.853 9  -7164581.52046  23275196.979    23275196.5784   23275217.9494
 -22353339.482 9 -17401179.43349  20791212.879    20791212.7734   20791224.7684
  -3666608.635 9  -2842344.00945  23969104.127    23969103.9654   23969118.0654
 -22844242.580 9 -17773859.38348  21008062.340    21008062.3514   21008074.4554
 00  9 18  1 43 30.0000000  0 10  1  8 10 13 28 31  2 27  3 19        .000000037
 -13334235.056 9 -10369908.68147  22638233.882    22638233.6974   22638250.5234
 -19025742.636 9 -14802721.78448  21251001.051    21251000.7194   21251015.1964
  -9532433.033 9  -7411143.71645  23962516.898    23962516.3354   23962539.3654
 -24172070.194 9 -18820682.52849  20578877.974    20578878.4094   20578888.9374
  -3450223.996 8  -2664687.95545  24079261.106    24079261.0754   24079273.9624
 -17685681.966 9 -13522630.37448  21516291.987    21516291.6824   21516304.1564
  -9575586.471 9  -7215286.20546  23262813.924    23262813.5204   23262834.7554
 -22373698.420 9 -17417043.41649  20787338.576    20787338.4654   20787350.4164
  -3595665.141 8  -2787063.05545  23982603.910    23982603.8204   23982617.8464
 -22817726.144 9 -17753197.13148  21013108.196    21013108.2084   21013120.2934
 00  9 18  1 44  0.0000000  0 10  1  8 10 13 28 31  2 27  3 19        .000000036
 -13241791.470 9 -10297874.82447  22655825.392    22655825.1584   22655842.0594
 -19075749.304 9 -14841687.74648  21241484.914    21241484.5674   21241498.9634
  -9542615.934 8  -7419078.16445  23960578.989    23960578.4674   23960601.3614
 -24148523.123 9 -18802334.10949  20583358.805    20583359.2174   20583369.7354
  -3357918.519 8  -2592761.46145  24096825.997    24096825.7864   24096838.6974
 -17678613.968 9 -13517122.70448  21517636.856    21517636.5404   21517649.0004
  -9640425.213 9  -7265809.41846  23250475.167    23250474.7224   23250495.8694
 -22393879.092 9 -17432768.48549  20783498.210    20783498.1144   20783510.0304
  -3524313.256 8  -2731463.90145  23996181.462    23996181.4094   23996195.3954
 -22790986.939 9 -17732361.28548  21018196.419    21018196.4164   21018208.4714
 00  9 18  1 44 30.0000000  0 10  1  8 10 13 28 31  2 27  3 19        .000000036
 -13149062.995 9 -10225618.96847  22673471.073    22673470.8734   22673487.8164
 -19125615.042 9 -14880543.92048  21231995.581    21231995.2364   21232009.5694
  -9552274.030 9  -7426603.67446  23958740.930    23958740.4404   23958763.1974
 -24124443.139 9 -18783570.43049  20587941.029    20587941.4454   20587951.9564
  -3265595.898 8  -2520821.54145  24114394.184    24114394.0414   24114407.1164
 -17670920.659 9 -13511127.77248  21519100.739    21519100.4274   21519112.8584
  -9705030.786 9  -7316150.94846  23238180.774    23238180.3234   23238201.3964
 -22413880.955 9 -17448354.21049  20779691.895    20779691.7794   20779703.6514
  -3452555.148 8  -2675548.18145  24009836.338    24009836.4974   24009850.2004
 -22764024.576 9 -17711351.54548  21023327.129    21023327.1344   21023339.1674
 00  9 18  1 45  0.0000000  0 10  1  8 10 13 28 31  2 27  3 19        .000000036
 -13056051.515 9 -10153142.59647  22691170.662    22691170.4594   22691187.4044
 -19175339.493 9 -14919290.02348  21222533.125    21222532.7874   21222547.0654
  -9561407.550 9  -7433720.43546  23957002.654    23957002.1534   23957024.8594
 -24099830.401 9 -18764391.62249  20592624.646    20592625.0624   20592635.5514
  -3173258.155 8  -2448870.00445  24131965.188    24131965.2694   24131978.0984
 -17662602.126 9 -13504645.65648  21520683.585    21520683.3014   21520695.6864
  -9769403.302 9  -7366310.88846  23225930.785    23225930.3544   23225951.2194
 -22433703.178 9 -17463799.95949  20775919.724    20775919.6104   20775931.4754
  -3380393.347 8  -2619317.91945  24023567.970    24023568.2204   24023581.8104
 -22736838.756 9 -17690167.68248  21028500.324    21028500.3324   21028512.3424
 00  9 18  1 45 30.0000000  0 10  1  8 10 13 28 31  2 27  3 19        .000000036
 -12962759.209 9 -10080447.38947  22708923.726    22708923.5194   22708940.4474
 -19224922.050 9 -14957925.59748  21213097.668    21213097.3494   21213111.5524
  -9570017.012 8  -7440428.84945  23955364.105    23955363.5274   23955386.2254
 -24074684.569 9 -18744797.41149  20597409.701    20597410.1204   20597420.5924
  -3080906.891 8  -2376907.94445  24149538.996    24149538.8424   24149551.8504
 -17653658.368 9 -13497676.36948  21522385.391    21522385.1434   21522397.4864
  -9833542.532 9  -7416289.03746  23213725.160    23213724.7444   23213745.4674
 -22453344.866 9 -17479105.01049  20772181.895    20772181.7884   20772193.6584
  -3307830.291 8  -2562775.02445  24037375.937    24037376.0534   24037389.7454
 -22709429.040 9 -17668809.35248  21033716.121    21033716.1324   21033728.1274
 00  9 18  1 46  0.0000000  0 10  1  8 10 13 28 31  2 27  3 19        .000000035
 -12869188.055 9 -10007534.90947  22726729.766    22726729.5534   22726746.5114
 -19274362.233 9 -14996450.18948  21203689.358    21203689.0224   21203703.1684
  -9578102.934 9  -7446729.31445  23953825.187    23953824.6624   23953847.3494
 -24049006.297 9 -18724788.32349  20602296.054    20602296.4774   20602306.9404
  -2988543.475 8  -2304936.56445  24167115.132    24167115.0844   24167127.9764
 -17644089.900 9 -13490220.31048  21524206.101    21524205.8424   21524218.1554
  -9897448.611 9  -7466085.53946  23201563.911    23201563.5234   23201584.0824
 -22472805.305 9 -17494268.83749  20768478.616    20768478.5024   20768490.3144
  -3234868.024 8  -2505921.02345  24051260.001    24051260.0094   24051273.8014
 -22681795.251 9 -17647276.44348  21038974.620    21038974.6114   21038986.5784
 00  9 18  1 46 30.0000000  0 10  1  8 10 13 28 31  2 27  3 19        .000000035
 -12775339.281 9  -9934406.10346  22744588.650    22744588.4494   22744605.4504
 -19323658.892 9 -15034862.91448  21194308.342    21194308.0064   21194322.0794
  -9585665.059 9  -7452621.65045  23952385.971    23952385.5294   23952408.1314
 -24022794.918 9 -18704363.82649  20607283.870    20607284.2844   20607294.7364
  -2896168.828 8  -2232956.06045  24184693.408    24184693.3264   24184706.0814
 -17633896.280 9 -13482277.12248  21526145.744    21526145.5004   21526157.7814
  -9961120.872 9  -7515699.84747  23189447.122    23189446.7414   23189467.2074
 -22492082.997 9 -17509290.28249  20764810.112    20764809.9914   20764821.7564
  -3161508.312 8  -2448757.38245  24065219.677    24065219.7364   24065233.6154
 -22653936.286 9 -17625568.08748  21044275.934    21044275.9214   21044287.8464
 00  9 18  1 47  0.0000000  0 10  1  8 10 13 28 31  2 27  3 19        .000000035
 -12681215.054 9  -9861062.65446  22762499.957    22762499.7694   22762516.8434
 -19372811.717 9 -15073163.56848  21184954.686    21184954.3524   21184968.3804
  -9592704.184 9  -7458106.44545  23951046.263    23951045.7364   23951068.4324
 -23996050.646 9 -18683524.09549  20612373.093    20612373.5214   20612383.9464
  -2803784.757 9  -2160968.23645  24202273.396    24202273.3154   24202286.1354
 -17623077.661 9 -13473846.91948  21528204.376    21528204.1354   21528216.4184
 -10024559.251 9  -7565131.91546  23177374.801    23177374.4084   23177394.8474
 -22511177.059 9 -17524168.64149  20761176.507    20761176.3974   20761188.1284
  -3087753.263 8  -2391285.70645  24079254.567    24079254.5294   24079268.5014
 -22625851.948 9 -17603684.14648  21049620.131    21049620.1314   21049632.0234
 00  9 18  1 47 30.0000000  0 10  1  8 10 13 28 31  2 27  3 19        .000000035
 -12586817.078 9  -9787505.89746  22780463.333    22780463.1534   22780480.2364
 -19421819.986 9 -15111351.60448  21175628.555    21175628.2184   21175642.1994
  -9599220.668 8  -7463184.02545  23949806.070    23949805.6154   23949828.1564
 -23968774.635 9 -18662270.02349  20617563.502    20617563.9384   20617574.3384
  -2711393.070 9  -2088974.52545  24219854.863    24219854.8244   24219867.6614
 -17611634.060 9 -13464929.69148  21530381.912    21530381.6574   21530393.9484
 -10087763.495 9  -7614381.54246  23165347.085    23165346.6854   23165367.0374
 -22530086.686 9 -17538903.31249  20757577.989    20757577.8884   20757589.5994
  -3013604.934 8  -2333507.48445  24093364.337    24093364.2324   24093378.2144
 -22597541.562 9 -17581624.08248  21055007.361    21055007.3524   21055019.2214
 00  9 18  1 48  0.0000000  0 10  1  8 10 13 28 31  2 27  3 19        .000000034
 -12492147.115 9  -9713737.20646  22798478.475    22798478.3224   22798495.4054
 -19470682.964 9 -15149426.41048  21166330.026    21166329.7054   21166343.6204
  -9605215.161 9  -7467854.87245  23948665.115    23948664.5654   23948687.0684
 -23940966.473 9 -18640601.28849  20622855.215    20622855.6444   20622866.0304
  -2618995.255 9  -2016976.37545  24237437.578    24237437.5114   24237450.4064
 -17599565.593 9 -13455525.55748  21532678.393    21532678.1574   21532690.4154
 -10150733.463 9  -7663448.61846  23153363.916    23153363.5014   23153383.7684
 -22548810.681 9 -17553493.33849  20754014.837    20754014.7454   20754026.3964
  -2939066.589 8  -2275425.47645  24107548.328    24107548.2114   24107562.1834
 -22569004.432 9 -17559387.33548  21060437.760    21060437.7524   21060449.5914
 00  9 18  1 48 30.0000000  0 10  1  8 10 13 28 31  2 27  3 19        .000000034
 -12397207.442 9  -9639758.34846  22816544.925    22816544.7644   22816561.8844
 -19519400.278 9 -15187387.73148  21157059.250    21157058.9334   21157072.7894
  -9610688.175 9  -7472119.37945  23947623.525    23947622.9864   23947645.4554
 -23912626.332 9 -18618518.01949  20628248.145    20628248.5514   20628258.9344
  -2526592.229 9  -1944973.61645  24255021.190    24255021.0884   24255033.7564
 -17586872.555 9 -13445634.73648  21535093.691    21535093.4454   21535105.6714
 -10213469.007 9  -7712333.02746  23141425.357    23141424.9754   23141445.1524
 -22567348.341 9 -17567938.16849  20750487.185    20750487.0774   20750498.6834
  -2864139.725 8  -2217040.77345  24121806.289    24121806.1814   24121820.0034
 -22540240.154 9 -17536973.56148  21065911.369    21065911.3634   21065923.1994
 00  9 18  1 49  0.0000000  0 10  1  8 10 13 28 31  2 27  3 19        .000000034
 -12301999.633 9  -9565570.54746  22834662.446    22834662.2724   22834679.4754
 -19567970.882 9 -15225234.74348  21147816.438    21147816.1124   21147829.8974
  -9615639.661 9  -7475977.51145  23946681.152    23946680.5684   23946703.0354
 -23883754.206 9 -18596020.21449  20633742.288    20633742.6974   20633753.0604
  -2434185.833 9  -1872968.47446  24272605.485    24272605.3354   24272618.0394
 -17573555.135 9 -13435257.39748  21537627.844    21537627.5814   21537639.7854
 -10275969.879 9  -7761034.58247  23129531.532    23129531.1394   23129551.1974
 -22585698.506 9 -17582236.92749  20746995.131    20746995.0444   20747006.6164
  -2788826.053 9  -2158354.49346  24136137.791    24136137.5904   24136151.4074
 -22511248.089 9 -17514382.28648  21071428.347    21071428.3544   21071440.1694
 00  9 18  1 49 30.0000000  0 10  1  8 10 13 28 31  2 27  3 19        .000000034
 -12206526.121 9  -9491175.69646  22852830.514    22852830.3644   22852847.6124
 -19616394.766 9 -15262967.42948  21138601.481    21138601.1614   21138614.8824
  -9620071.128 9  -7479430.44645  23945837.754    23945837.1724   23945859.5244
 -23854351.540 9 -18573108.99649  20639337.427    20639337.8344   20639348.1834
  -2341777.632 9  -1800961.74846  24290190.100    24290189.8724   24290202.4674
 -17559613.907 9 -13424393.96748  21540280.664    21540280.3944   21540292.5594
 -10338236.591 9  -7809553.65747  23117682.246    23117681.8634   23117701.8424
 -22603860.637 9 -17596389.17249  20743538.938    20743538.8574   20743550.4004
  -2713128.913 9  -2099369.43846  24150542.270    24150542.2384   24150555.9124
 -22482028.234 9 -17491613.51748  21076988.646    21076988.6444   21077000.4534
 00  9 18  1 50  0.0000000  0 10  1  8 10 13 28 31  2 27  3 19        .000000034
 -12110788.282 9  -9416574.87446  22871048.903    22871048.7924   22871066.0064
 -19664670.820 9 -15300584.94848  21129414.685    21129414.3714   21129428.0144
  -9623982.462 9  -7482478.09445  23945093.227    23945092.6774   23945115.0524
 -23824417.842 9 -18549783.98849  20645033.586    20645033.9704   20645044.3144
  -2249369.360 9  -1728955.21645  24307774.734    24307774.5284   24307787.1194
 -17545048.756 9 -13413044.35448  21543052.271    21543052.0054   21543064.0914
 -10400268.686 9  -7857889.92047  23105877.584    23105877.2044   23105897.0514
 -22621833.286 9 -17610393.75849  20740118.792    20740118.6954   20740130.2094
  -2637049.898 8  -2040086.82546  24165019.455    24165019.4154   24165033.0004
 -22452579.683 9 -17468666.53148  21082592.512    21082592.5054   21082604.2934
 00  9 18  1 50 30.0000000  0 10  1  8 10 13 28 31  2 27  3 19        .000000034
 -12014788.045 9  -9341769.58446  22889317.251    22889317.1564   22889334.3924
 -19712798.202 9 -15338086.61948  21120256.202    21120255.8814   21120269.4774
  -9627374.126 8  -7485120.80445  23944447.626    23944447.2244   23944469.3674
 -23793953.152 9 -18526045.21249  20650830.794    20650831.1874   20650841.5104
  -2156962.172 8  -1656949.34945  24325359.060    24325358.8444   24325371.3664
 -17529860.008 9 -13401208.80748  21545942.491    21545942.1854   21545954.2594
 -10462065.877 9  -7906043.14347  23094117.716    23094117.3664   23094136.9764
 -22639615.392 9 -17624249.85249  20736734.895    20736734.7974   20736746.2804
  -2560591.355 9  -1980508.33046  24179568.883    24179568.8334   24179582.2664
 -22422901.903 9 -17445540.93048  21088239.932    21088239.9354   21088251.7224
 00  9 18  1 51  0.0000000  0 10  1  8 10 13 28 31  2 27  3 19        .000000033
 -11918527.418 9  -9266761.38546  22907635.142    22907635.0144   22907652.2354
 -19760776.300 9 -15375471.96648  21111126.130    21111125.8024   21111139.3484
  -9630246.580 8  -7487358.91845  23943900.893    23943900.4634   23943922.4874
 -23762957.304 9 -18501892.54949  20656729.050    20656729.4444   20656739.7584
  -2064557.171 8  -1584945.32645  24342942.951    24342942.7724   24342955.3414
 -17514047.950 9 -13388887.53948  21548951.303    21548950.9924   21548963.0694
 -10523628.017 9  -7954013.23547  23082402.511    23082402.1564   23082421.5904
 -22657205.874 9 -17637956.61649  20733387.429    20733387.3354   20733398.8224
  -2483755.868 9  -1920636.44646  24194190.104    24194189.9914   24194203.4224
 -22392994.322 9 -17422236.25548  21093931.096    21093931.1164   21093942.9004
 00  9 18  1 51 30.0000000  0 10  1  8 10 13 28 31  2 27  3 19        .000000033
 -11822008.513 9  -9191551.93546  22926002.204    22926002.0394   22926019.2854
 -19808604.530 9 -15412740.54348  21102024.593    21102024.2534   21102037.7144
  -9632600.733 8  -7489193.14945  23943452.750    23943452.3344   23943474.4024
 -23731431.604 9 -18477327.02149  20662728.155    20662728.5614   20662738.8464
  -1972155.984 8  -1512944.12745  24360526.100    24360525.8194   24360538.5054
 -17497613.040 9 -13376080.93848  21552078.639    21552078.3574   21552090.4094
 -10584955.414 9  -8001800.41846  23070731.976    23070731.6154   23070750.8954
 -22674604.144 9 -17651513.60649  20730076.594    20730076.4974   20730087.9604
  -2406545.493 9  -1860472.48146  24208882.613    24208882.5394   24208895.8964
 -22362856.595 9 -17398752.24248  21099666.083    21099666.1054   21099677.8594
 00  9 18  1 52  0.0000000  0 10  1  8 10 13 28 31  2 27  3 19        .000000033
 -11725233.049 9  -9116142.57046  22944418.017    22944417.8804   22944435.1444
 -19856282.036 9 -15449891.65948  21092951.744    21092951.3844   21092964.7824
  -9634437.398 8  -7490624.15745  23943103.052    23943102.5554   23943124.7544
 -23699376.391 9 -18452348.88849  20668828.028    20668828.4184   20668838.6994
  -1879759.995 8  -1440946.95245  24378108.221    24378108.1174   24378120.7464
 -17480555.304 9 -13362789.03448  21555324.504    21555324.2204   21555336.2264
 -10646047.726 9  -8049404.43646  23059106.141    23059105.7744   23059124.9754
 -22691808.951 9 -17664919.82449  20726802.567    20726802.4734   20726813.9234
  -2328961.904 9  -1800017.39846  24223646.118    24223646.0994   24223659.3704
 -22332488.135 9 -17375088.42748  21105444.961    21105444.9654   21105456.7374
 00  9 18  1 52 30.0000000  0 10  1  8 10 13 28 31  2 27  3 19        .000000032
 -11628202.933 9  -9040534.77946  22962882.270    22962882.1184   22962899.4924
 -19903808.036 9 -15486924.72748  21083907.689    21083907.3454   21083920.7214
  -9635756.736 8  -7491652.04645  23942851.888    23942851.3494   23942873.5214
 -23666791.843 9 -18426958.29049  20675028.651    20675029.0354   20675039.2964
  -1787370.065 8  -1368954.47145  24395689.212    24395689.2764   24395701.6594
 -17462875.194 9 -13349012.16348  21558688.824    21558688.5414   21558700.4624
 -10706904.683 9  -8096825.06947  23047525.108    23047524.7314   23047543.8894
 -22708819.234 9 -17678174.49049  20723565.533    20723565.4444   20723576.8584
  -2251007.888 8  -1739273.77446  24238480.125    24238480.1494   24238493.3424
 -22301888.157 9 -17351244.18248  21111267.898    21111267.8934   21111279.6744
 00  9 18  1 53  0.0000000  0 10  1  8 10 13 28 31  2 27  3 19        .000000032
 -11530920.334 9  -8964730.24746  22981394.595    22981394.4424   22981411.8014
 -19951181.995 9 -15523839.32148  21074892.571    21074892.2464   21074905.5724
  -9636559.746 8  -7492277.61445  23942698.952    23942698.4654   23942720.5634
 -23633678.429 9 -18401155.59649  20681329.849    20681330.2434   20681340.5014
  -1694988.731 8  -1296968.70845  24413268.638    24413268.5954   24413281.0974
 -17444573.416 9 -13334750.86448  21562171.408    21562171.1304   21562182.9944
 -10767526.602 9  -8144062.56847  23035988.828    23035988.4274   23036007.5184
 -22725634.026 9 -17691276.82249  20720365.708    20720365.6104   20720376.9914
  -2172686.134 8  -1678243.58845  24253384.072    24253384.0024   24253397.1794
 -22271056.635 9 -17327219.53648  21117134.884    21117134.8924   21117146.6424
 00  9 18  1 53 30.0000000  0 10  1  8 10 13 28 31  2 27  3 19        .000000032
 -11433387.311 9  -8888730.58746  22999954.600    22999954.4234   22999971.8494
 -19998403.293 9 -15560634.94748  21065906.551    21065906.2274   21065919.4814
  -9636847.117 8  -7492501.37745  23942644.137    23942643.7134   23942665.7024
 -23600036.121 9 -18374940.77749  20687731.749    20687732.1514   20687742.4014
  -1602617.212 8  -1224990.81145  24430846.175    24430846.0094   24430858.7354
 -17425650.600 9 -13320005.61948  21565772.141    21565771.8774   21565783.7124
 -10827913.327 9  -8191116.81647  23024497.383    23024496.9734   23024515.9274
 -22742252.341 9 -17704226.03849  20717203.264    20717203.1694   20717214.5374
  -2093998.823 8  -1616928.61445  24268357.585    24268357.5864   24268370.5764
 -22239992.905 9 -17303013.94548  21123046.052    21123046.0604   21123057.7894
 00  9 18  1 54  0.0000000  0 10  1  8 10 13 28 31  2 27  3 19        .000000032
 -11335605.161 9  -8812536.78646  23018561.970    23018561.8014   23018579.2254
 -20045470.580 9 -15597310.56448  21056949.789    21056949.4584   21056962.6574
  -9636619.298 8  -7492323.70245  23942687.354    23942686.8534   23942708.8974
 -23565865.883 9 -18348314.58449  20694234.085    20694234.4804   20694244.7354
  -1510255.628 8  -1153020.43845  24448421.760    24448421.6894   24448434.1884
 -17406106.598 9 -13304776.32748  21569491.124    21569490.8634   21569502.6564
 -10888064.243 9  -8237987.31747  23013050.780    23013050.3784   23013069.2004
 -22758672.599 9 -17717020.91249  20714078.519    20714078.4124   20714089.7314
  -2014947.300 8  -1555329.68745  24283400.425    24283400.4434   24283413.2864
 -22208695.918 9 -17278626.60248  21129001.618    21129001.6274   21129013.3294
 00  9 18  1 54 30.0000000  0 10  1  8 10 13 28 31  2 27  3 19        .000000032
 -11237576.447 9  -8736150.88346  23037216.293    23037216.1774   23037233.5594
 -20092383.777 9 -15633866.11048  21048022.331    21048021.9984   21048035.1884
  -9635877.490 8  -7491745.51845  23942828.395    23942827.8154   23942849.8864
 -23531168.251 9 -18321277.43149  20700836.816    20700837.2194   20700847.4764
  -1417906.371 8  -1081059.43245  24465995.075    24465995.0854   24466007.1604
 -17385942.293 9 -13289063.67648  21573328.117    21573327.8264   21573339.6144
 -10947979.879 9  -8284674.49647  23001648.952    23001648.5504   23001667.2944
 -22774894.362 9 -17729661.08549  20710991.533    20710991.4194   20711002.7424
  -1935534.886 8  -1493449.62045  24298511.872    24298511.8704   24298524.7854
 -22177165.750 9 -17254057.55248  21135001.553    21135001.5634   21135013.2384
 00  9 18  1 55  0.0000000  0 10  1  8 10 13 28 31  2 27  3 19        .000000032
 -11139303.011 9  -8659574.27046  23055917.167    23055917.0314   23055934.4624
 -20139141.725 9 -15670300.68348  21039124.445    21039124.1184   21039137.2714
  -9634622.047 8  -7490767.09845  23943067.246    23943066.5804   23943088.6364
 -23495943.082 9 -18293829.21249  20707539.896    20707540.3084   20707550.5604
  -1325570.480 8  -1009109.08945  24483565.727    24483565.5104   24483577.5694
 -17365158.122 9 -13272868.02048  21577283.061    21577282.7884   21577294.5394
 -11007659.828 9  -8331178.01547  22990291.971    22990291.5934   22990310.2534
 -22790916.290 9 -17742145.55449  20707942.551    20707942.4404   20707953.7474
  -1855763.602 8  -1431289.90045  24313691.558    24313691.5234   24313704.7204
 -22145401.565 9 -17229306.14348  21141046.015    21141046.0184   21141057.6934
 00  9 18  1 55 30.0000000  0 10  1  8 10 13 28 31  2 27  3 19        .000000031
 -11040787.451 9  -8582809.00746  23074664.117    23074663.9534   23074681.5064
 -20185744.345 9 -15706614.20848  21030256.102    21030255.7674   21030268.9044
  -9632854.575 8  -7489389.71245  23943403.488    23943402.8574   23943424.7334
 -23460191.870 9 -18265971.09449  20714343.078    20714343.4994   20714353.7494
  -1233250.529 9   -937171.39045  24501133.464    24501133.2894   24501145.2454
 -17343755.521 9 -13256190.48148  21581355.703    21581355.4194   21581367.1484
 -11067104.643 9  -8377498.31747  22978979.708    22978979.3044   22978997.9184
 -22806738.099 9 -17754474.10149  20704931.651    20704931.5544   20704942.8364
  -1775636.409 8  -1368852.94845  24328939.071    24328939.0084   24328951.9084
 -22113403.484 9 -17204372.45048  21147134.989    21147134.9934   21147146.6354
 00  9 18  1 56  0.0000000  0 10  1  8 10 13 28 31  2 27  3 19        .000000031
 -10942031.017 9  -8505856.04546  23093456.932    23093456.7124   23093474.2994
 -20232190.135 9 -15742805.53548  21021417.607    21021417.2764   21021430.3544
  -9630575.152 8  -7487613.40745  23943837.094    23943836.5084   23943858.5104
 -23423914.761 9 -18237703.18649  20721246.363    20721246.7694   20721257.0344
  -1140946.517 8   -865246.20845  24518698.219    24518697.9694   24518710.1014
 -17321734.172 9 -13239030.81248  21585546.051    21585545.7484   21585557.4304
 -11126313.656 9  -8423634.88147  22967712.352    22967711.9344   22967730.4644
 -22822357.942 9 -17766645.26249  20701959.198    20701959.1024   20701970.3344
  -1695155.097 8  -1306140.02145  24344254.013    24344253.7454   24344266.7284
 -22081170.285 9 -17179255.55948  21153268.686    21153268.6874   21153280.2934
 00  9 18  1 56 30.0000000  0 10  1  8 10 13 28 31  2 27  3 19        .000000031
 -10843035.800 9  -8428717.01946  23112295.105    23112294.9014   23112312.5844
 -20278478.563 9 -15778874.24548  21012609.094    21012608.7544   21012621.7774
  -9627784.472 8  -7485438.73645  23944367.960    23944367.3204   23944389.3714
 -23387112.190 9 -18209025.82849  20728249.605    20728250.0114   20728260.2714
  -1048659.219 8   -793333.50245  24536259.831    24536259.4514   24536270.9954
 -17299095.062 9 -13221389.77848  21589853.996    21589853.7264   21589865.3484
 -11185287.164 9  -8469587.95547  22956489.829    22956489.4044   22956507.8574
 -22837775.026 9 -17778658.41649  20699025.317    20699025.2034   20699036.4174
  -1614321.751 8  -1243152.70445  24359635.768    24359635.5854   24359648.4344
 -22048701.516 9 -17153955.10748  21159447.212    21159447.2104   21159458.8114
 00  9 18  1 57  0.0000000  0 10  1  8 10 13 28 31  2 27  3 19        .000000031
 -10743804.151 9  -8351393.76746  23131178.358    23131178.1394   23131195.8444
 -20324609.231 9 -15814820.03748  21003830.572    21003830.2314   21003843.2154
  -9624483.837 8  -7482866.69745  23944995.991    23944995.3654   23945017.1354
 -23349784.682 9 -18179939.42449  20735352.782    20735353.1844   20735363.4454
   -956391.637 8   -721436.41445  24553817.630    24553817.1464   24553829.1254
 -17275838.933 9 -13203267.95848  21594279.357    21594279.0824   21594290.6814
 -11244025.399 9  -8515357.69847  22945312.087    22945311.6824   22945330.0124
 -22852988.519 9 -17790512.93149  20696130.181    20696130.0784   20696141.2664
  -1533139.474 8  -1179893.49945  24375083.965    24375083.8014   24375096.8474
 -22015997.074 9 -17128471.01748  21165670.579    21165670.5714   21165682.1484
 00  9 18  1 57 30.0000000  0 10  1  8 10 13 28 31  2 27  3 19        .000000030
 -10644337.667 9  -8273887.51546  23150106.237    23150106.0554   23150123.7484
 -20370580.734 9 -15850641.79348  20995082.349    20995082.0174   20995094.9484
  -9620673.644 8  -7479897.60345  23945720.953    23945720.3134   23945742.0164
 -23311932.728 9 -18150444.35249  20742555.713    20742556.1074   20742566.3744
   -864143.915 9   -649555.00345  24571371.572    24571371.1244   24571383.3464
 -17251965.934 9 -13184665.47648  21598822.081    21598821.8274   21598833.3744
 -11302528.063 9  -8560943.88847  22934179.145    22934178.7194   22934196.9314
 -22867996.822 9 -17802207.55149  20693274.102    20693273.9954   20693285.1454
  -1451609.670 8  -1116363.28345  24390598.196    24390598.2014   24390610.6734
 -21983055.944 9 -17102802.48948  21171938.949    21171938.9424   21171950.4914
 00  9 18  1 58  0.0000000  0 10  1  8 10 13 28 31  2 27  3 19        .000000030
 -10544638.413 9  -8196199.87346  23169078.465    23169078.3214   23169095.9874
 -20416392.521 9 -15886339.08648  20986364.503    20986364.1634   20986377.0524
  -9616355.171 8  -7476532.45045  23946542.637    23946542.0244   23946563.7474
 -23273557.286 9 -18120541.37449  20749858.288    20749858.6924   20749868.9444
   -771917.226 9   -577689.76945  24588921.521    24588921.1744   24588933.0604
 -17227476.901 9 -13165582.97848  21603482.086    21603481.8214   21603493.3164
 -11360795.242 9  -8606346.59347  22923091.021    22923090.5854   22923108.7374
 -22882799.125 9 -17813741.66149  20690457.208    20690457.0954   20690468.2144
  -1369735.149 8  -1052564.44145  24406178.111    24406178.2754   24406190.7014
 -21949877.788 9 -17076949.27948  21178252.443    21178252.4414   21178263.9714
 00  9 18  1 58 30.0000000  0 10  1  8 10 13 28 31  2 27  3 19        .000000030
 -10444708.792 9  -8118332.71546  23188094.541    23188094.3964   23188111.9744
 -20462043.861 9 -15921911.32948  20977677.175    20977676.8374   20977689.7024
  -9611529.743 8  -7472772.27045  23947460.774    23947460.2584   23947481.8984
 -23234658.683 9 -18090230.72749  20757260.412    20757260.8274   20757271.0734
   -679713.538 9   -505842.32345  24606467.034    24606466.6184   24606478.5144
 -17202372.718 9 -13146021.14548  21608259.146    21608258.8744   21608270.3074
 -11418826.910 9  -8651565.78047  22912047.696    22912047.2804   22912065.3774
 -22897394.511 9 -17825114.55749  20687679.669    20687679.5584   20687690.6344
  -1287518.674 8   -988499.23845  24421823.174    24421823.2644   24421835.8454
 -21916462.472 9 -17050911.26048  21184611.079    21184611.0894   21184622.6054
 00  9 18  1 59  0.0000000  0 10  1  8 10 13 28 31  2 27  3 19        .000000030
 -10344550.649 9  -8040287.49046  23207154.114    23207153.9714   23207171.4854
 -20507534.106 9 -15957358.04048  20969020.523    20969020.1904   20969032.9924
  -9606197.847 8  -7468617.45645  23948475.299    23948474.8264   23948496.3594
 -23195238.071 9 -18059513.32849  20764761.859    20764762.2744   20764772.5214
   -587533.456 9   -434013.25445  24624008.131    24624007.9344   24624019.7174
 -17176654.433 9 -13125980.80048  21613153.100    21613152.7964   21613164.1834
 -11476623.154 9  -8696601.51147  22901049.190    22901048.7744   22901066.8174
 -22911781.789 9 -17836325.27749  20684941.753    20684941.6434   20684952.6754
  -1204962.164 8   -924169.20645  24437532.977    24437532.9084   24437545.4584
 -21882809.271 9 -17024687.89348  21191015.005    21191015.0064   21191026.4934
 00  9 18  1 59 30.0000000  0 10  1  8 10 13 28 31  2 27  3 19        .000000030
 -10244166.263 9  -7962065.96146  23226256.738    23226256.5974   23226274.1204
 -20552862.369 9 -15992678.53848  20960394.653    20960394.3314   20960407.0844
  -9600360.591 8  -7464068.83245  23949586.023    23949585.5274   23949606.9964
 -23155295.598 9 -18028389.28449  20772362.607    20772363.0324   20772373.2764
   -495379.535 8   -362204.57845  24641544.201    24641544.0744   24641555.8254
 -17150322.782 9 -13105462.51348  21618163.712    21618163.4274   21618174.7664
 -11534184.180 9  -8741453.95047  22890095.495    22890095.0674   22890113.0514
 -22925960.179 9 -17847373.23649  20682243.589    20682243.4814   20682254.4774
  -1122068.773 8   -859576.73745  24453306.858    24453306.9584   24453319.2534
 -21848917.709 9 -16998278.78848  21197464.261    21197464.2814   21197475.7194
 00  9 18  2  0  0.0000000  0 10  1  8 10 13 28 31  2 27  3 19        .000000030
 -10143557.497 9  -7883669.60546  23245402.057    23245401.9034   23245419.4434
 -20598027.665 9 -16027872.04548  20951799.841    20951799.5214   20951812.2094
  -9594018.830 8  -7459127.09945  23950792.774    23950792.2024   23950813.7054
 -23114832.556 9 -17996859.60849  20780062.434    20780062.8524   20780073.1114
   -403252.270 8   -290417.30845  24659075.154    24659075.1784   24659086.9544
 -17123378.106 9 -13084466.55648  21623291.021    21623290.7384   21623302.0184
 -11591509.647 9  -8786122.84447  22879186.565    22879186.1494   22879204.0884
 -22939928.203 9 -17858257.28949  20679585.455    20679585.3414   20679596.3124
  -1038840.108 8   -794722.92145  24469144.555    24469144.7434   24469156.6594
 -21814787.272 9 -16971683.56748  21203959.022    21203959.0454   21203970.4344
 00  9 18  2  0 30.0000000  0 10  1  8 10 13 28 31  2 27  3 19        .000000030
 -10042726.232 9  -7805099.88546  23264589.725    23264589.5204   23264607.1054
 -20643029.157 9 -16062937.89948  20943236.177    20943235.8504   20943248.5004
  -9587173.487 8  -7453792.96945  23952095.303    23952094.7304   23952116.2394
 -23073849.123 9 -17964924.42149  20787861.291    20787861.7034   20787871.9764
   -311151.954 8   -218650.25445  24676600.959    24676600.8554   24676612.1104
 -17095821.573 9 -13062993.83248  21628534.761    21628534.4874   21628545.7264
 -11648599.795 9  -8830608.36747  22868322.417    22868322.0304   22868339.9024
 -22953684.781 9 -17868976.59549  20676967.543    20676967.4344   20676978.3724
   -955279.046 8   -729610.40445  24485045.508    24485045.7664   24485057.6374
 -21780417.524 9 -16944901.87248  21210499.291    21210499.3174   21210510.6744
 00  9 18  2  1  0.0000000  0 10  1  8 10 13 28 31  2 27  3 19        .000000029
  -9941674.392 9  -7726358.29046  23283819.289    23283819.0874   23283836.8054
 -20687865.885 9 -16097875.36648  20934703.847    20934703.5374   20934716.1354
  -9579825.895 8  -7448067.47945  23953493.422    23953492.8224   23953514.3484
 -23032346.155 9 -17932584.39949  20795758.993    20795759.4154   20795769.6894
   -219081.075 8   -146906.57845  24694121.198    24694121.1264   24694133.0324
 -17067653.629 9 -13041044.66848  21633894.822    21633894.5574   21633905.7984
 -11705454.367 9  -8874910.31447  22857503.130    22857502.7514   22857520.4744
 -22967228.936 9 -17879530.37549  20674390.091    20674389.9784   20674400.8784
   -871387.502 8   -664240.14245  24501009.434    24501009.5354   24501021.4854
 -21745807.563 9 -16917932.98248  21217085.254    21217085.2884   21217096.6364
 00  9 18  2  1 30.0000000  0 10  1  8 10 13 28 31  2 27  3 19        .000000029
  -9840404.349 9  -7647446.64846  23303090.351    23303090.1764   23303107.8904
 -20732537.269 9 -16132683.99348  20926202.981    20926202.6524   20926215.2074
  -9571976.976 8  -7441951.36445  23954986.893    23954986.2884   23955007.8674
 -22990324.278 9 -17899840.03249  20803755.460    20803755.8904   20803766.1584
   -127040.081 8    -75186.12945  24711635.922    24711636.0214   24711647.3444
 -17038875.503 9 -13018620.03147  21639371.007    21639370.7354   21639381.9564
 -11762073.620 9  -8919028.90147  22846728.583    22846728.1904   22846745.9014
 -22980559.486 9 -17889917.70349  20671853.279    20671853.1644   20671864.0234
   -787168.118 8   -598614.25945  24517035.737    24517035.6604   24517047.5584
 -21710957.210 9 -16890776.78648  21223717.005    21223717.0374   21223728.3524
 00  9 18  2  2  0.0000000  0 10  1  8 10 13 28 31  2 27  3 19        .000000029
  -9738918.488 9  -7568366.83946  23322402.548    23322402.3874   23322420.1724
 -20777042.962 9 -16167363.52248  20917733.656    20917733.3354   20917745.8354
  -9563628.076 8  -7435445.64145  23956575.565    23956574.9584   23956596.4824
 -22947785.208 9 -17866692.65449  20811850.346    20811850.7664   20811861.0384
    -35031.109 8     -3490.57045  24729144.561    24729144.6504   24729155.7524
 -17009488.476 9 -12995720.92847  21644963.086    21644962.8244   21644974.0204
 -11818458.045 9  -8962964.49747  22835998.714    22835998.3584   22836015.9834
 -22993675.656 9 -17900137.97749  20669357.280    20669357.1724   20669367.9944
   -702623.527 8   -532734.85745  24533123.845    24533123.7324   24533135.5494
 -21675866.492 9 -16863433.28948  21230394.453    21230394.4744   21230405.7964
 00  9 18  2  2 30.0000000  0 10  1  8 10 13 28 31  2 27  3 19        .000000029
  -9637217.169 9  -7489119.16846  23341755.700    23341755.4994   23341773.4364
 -20821380.291 9 -16201911.86548  20909296.350    20909296.0364   20909308.4824
  -9554778.736 8  -7428549.96145  23958259.453    23958258.8134   23958280.2894
 -22904727.894 9 -17833141.44549  20820043.832    20820044.2634   20820054.5244
     56946.747 8     68180.78745  24746647.248    24746647.0734   24746658.2224
 -16979491.817 9 -12972346.79747  21650671.174    21650670.9134   21650682.0614
 -11874605.911 9  -9006715.75347  22825313.958    22825313.5854   22825331.1204
 -23006574.690 9 -17910189.05849  20666902.575    20666902.4614   20666913.2534
   -617754.526 8   -466602.67745  24549273.639    24549273.4124   24549285.2924
 -21640533.250 9 -16835900.81548  21237118.100    21237118.1194   21237129.4114
 00  9 18  2  3  0.0000000  0 10  1  8 10 13 28 31  2 27  3 19        .000000030
  -9535304.378 9  -7409706.67246  23361149.140    23361148.9734   23361166.8244
 -20865550.105 9 -16236329.69748  20900890.946    20900890.6254   20900903.0064
  -9545432.047 8  -7421266.73245  23960038.004    23960037.4024   23960058.8964
 -22861154.870 9 -17799188.38149  20828335.473    20828335.8934   20828346.1494
    148889.874 8    139824.92645  24764143.351    24764143.0414   24764154.0734
 -16948888.074 9 -12948499.61447  21656494.783    21656494.5214   21656505.6484
 -11930519.206 9  -9050284.22647  22814673.793    22814673.4114   22814690.8364
 -23019257.316 9 -17920071.50449  20664489.075    20664488.9524   20664499.7144
   -532566.045 8   -400221.86345  24565484.219    24565483.9104   24565496.0364
 -21604958.596 9 -16808180.22248  21243887.688    21243887.6834   21243898.9584
 00  9 18  2  3 30.0000000  0 10  1  8 10 13 28 31  2 27  3 19        .000000030
  -9433182.196 9  -7330131.05146  23380582.373    23380582.2594   23380600.1324
 -20909551.677 9 -16270616.43248  20892517.569    20892517.2424   20892529.5514
  -9535588.985 8  -7413596.71845  23961910.999    23961910.4954   23961931.8024
 -22817067.058 9 -17764834.17949  20836725.055    20836725.4854   20836735.7154
    240797.667 8    211441.67245  24781632.596    24781632.1944   24781642.9124
 -16917678.576 9 -12924180.40747  21662433.622    21662433.3704   21662444.4684
 -11986198.239 9  -9093670.14547  22804078.196    22804077.8064   22804095.1324
 -23031722.560 9 -17929784.57549  20662116.919    20662116.8144   20662127.5364
   -447059.960 8   -333593.43445  24581755.332    24581755.0354   24581766.8304
 -21569142.255 9 -16780271.28448  21250703.231    21250703.2444   21250714.4904
 00  9 18  2  4  0.0000000  0 10  1  8 10 13 28 31  2 27  3 19        .000000030
  -9330852.383 9  -7250393.61646  23400055.146    23400055.0794   23400072.9464
 -20953383.903 9 -16304771.19448  20884176.421    20884176.0964   20884188.3524
  -9525250.291 8  -7405540.50345  23963878.269    23963877.8034   23963899.0904
 -22772464.891 9 -17730079.18249  20845212.523    20845212.9494   20845223.1774
    332668.735 8    283029.69345  24799114.800    24799114.7104   24799125.2714
 -16885864.231 9 -12899389.88547  21668487.605    21668487.3494   21668498.4084
 -12041642.888 9  -9136873.41247  22793527.166    22793526.7704   22793544.0734
 -23043969.028 9 -17939327.16849  20659786.404    20659786.2984   20659796.9974
   -361238.345 8   -266719.02945  24598086.423    24598086.1494   24598097.8254
 -21533083.407 9 -16752173.38848  21257564.945    21257564.9544   21257576.1764
 00  9 18  2  4 30.0000000  0 10  1  8 10 13 28 31  2 27  3 19        .000000030
  -9228316.931 9  -7170495.94846  23419567.072    23419566.8914   23419584.8664
 -20997045.618 9 -16338793.08448  20875867.691    20875867.3684   20875879.5814
  -9514417.344 8  -7397099.14445  23965939.651    23965939.0754   23965960.3794
 -22727349.412 9 -17694924.19749  20853797.667    20853798.0964   20853808.3124
    424503.030 8    354589.35145  24816590.156    24816590.2414   24816600.5994
 -16853445.745 9 -12874128.60747  21674656.553    21674656.2784   21674667.3214
 -12096853.089 9  -9179893.98847  22783020.749    22783020.3544   22783037.5704
 -23055995.347 9 -17948698.21149  20657497.764    20657497.6624   20657508.3454
   -275103.604 8   -199600.56645  24614476.889    24614476.6734   24614488.4034
 -21496781.282 9 -16723885.94248  21264472.941    21264472.9424   21264484.1304
 00  9 18  2  5  0.0000000  0 11  1  8 10 13 28 31  2 11 27  3 19     .000000030
  -9125577.987 9  -7090439.69746  23439117.669    23439117.5164   23439135.4514
 -21040535.984 9 -16372681.45248  20867591.579    20867591.2474   20867603.3994
  -9503091.173 8  -7388273.45245  23968094.851    23968094.3344   23968115.6274
 -22681721.387 9 -17659369.82949  20862480.350    20862480.7754   20862490.9814
    516298.350 8    426118.68045  24834058.058    24834058.1414   24834068.3274
 -16820423.883 9 -12848397.17647  21680940.332    21680940.0584   21680951.0654
 -12151828.584 9  -9222731.67247  22772559.026    22772558.6264   22772575.7334
  -1432826.100 9  -1102105.59042          .000            .0004           .0004
 -23067800.245 9 -17957896.71849  20655251.263    20655251.1674   20655261.8274
   -188657.722 8   -132239.60945  24630926.521    24630926.3354   24630938.2454
 -21460235.233 9 -16695408.42448  21271427.364    21271427.3674   21271438.5394
 00  9 18  2  5 30.0000000  0 10  1  8 10 13 28 31  2 27  3 19        .000000029
  -9022637.702 9  -7010226.55346  23458706.619    23458706.4754   23458724.4054
 -21083853.967 9 -16406435.50648  20859348.271    20859347.9344   20859360.0424
  -9491272.927 8  -7379064.32345  23970343.732    23970343.1874   23970364.5584
 -22635581.500 9 -17623416.61349  20871260.422    20871260.8474   20871271.0284
    608053.966 8    497616.80345  24851518.363    24851518.1054   24851528.8604
 -16786799.968 9 -12822196.59947  21687338.683    21687338.3984   21687349.3524
 -12206569.644 9  -9265386.67547  22762141.889    22762141.4884   22762158.5184
 -23079382.725 9 -17966921.90949  20653047.136    20653047.0334   20653057.6464
   -101903.753 8    -64638.59445  24647434.804    24647434.7464   24647446.7444
 -21423444.949 9 -16666740.59748  21278428.267    21278428.2814   21278439.4244
 00  9 18  2  6  0.0000000  0 11  1  8 10 13 28 31  2 11 27  3 19     .000000021
  -8919498.266 9  -6929858.22946  23478333.478    23478333.2784   23478351.2814
 -21126999.061 9 -16440054.85448  20851137.883    20851137.5484   20851149.5974
  -9478964.204 8  -7369473.01445  23972685.907    23972685.3464   23972706.7314
 -22588931.004 9 -17587065.51249  20880137.689    20880138.1014   20880148.2744
    699768.117 9    569082.68145  24868970.697    24868970.5414   24868980.6654
 -16752575.089 9 -12795527.73847  21693851.385    21693851.0804   21693861.9864
 -12261076.659 9  -9307859.28747  22751769.269    22751768.8694   22751785.8064
  -1551928.590 8  -1194912.43444          .000            .0004   25463439.1454
 -23090741.880 9 -17975773.07649  20650885.462    20650885.3604   20650895.9504
    -14844.293 8      3200.38945  24664001.377    24664001.3284   24664013.1534
 -21386410.293 9 -16637882.35848  21285475.659    21285475.6724   21285486.8074
 00  9 18  2  6 30.0000000  0 11  1  8 10 13 28 31  2 11 27  3 19     .000000021
  -8816161.124 9  -6849335.82646  23497997.914    23497997.7244   23498015.6454
 -21169969.643 9 -16473538.23148  20842960.716    20842960.3994   20842972.3434
  -9466165.527 8  -7359499.93345  23975121.354    23975120.7794   23975142.1604
 -22541770.118 9 -17550316.70449  20889112.080    20889112.4884   20889122.6444
    791441.309 9    640516.74845  24886415.195    24886414.9344   24886425.0524
 -16717749.944 9 -12768391.13647  21700478.268    21700477.9924   21700488.8934
 -12315348.998 9  -9350149.03347  22741441.320    22741440.8994   22741457.7874
  -1611560.739 8  -1241378.85645  25452073.882    25452073.9564   25452089.9754
 -23101875.725 9 -17984448.67049  20648766.669    20648766.5674   20648777.1294
     72518.598 7     71275.84145  24680625.546    24680625.7304   24680637.2394
 -21349129.956 9 -16608832.67148  21292569.784    21292569.7914   21292580.9424
 00  9 18  2  7  0.0000000  0 11  1  8 10 13 28 31  2 11 27  3 19     .000000021
  -8712629.011 9  -6768661.49646  23517699.468    23517699.3254   23517717.2904
 -21212765.203 9 -16506885.20448  20834816.835    20834816.5174   20834828.4084
  -9452878.962 8  -7349146.67145  23977649.656    23977649.0994   23977670.4784
 -22494100.971 9 -17513171.84749  20898183.150    20898183.5694   20898193.7114
    883070.779 9    711916.54445  24903851.490    24903851.0644   24903861.4264
 -16682326.405 9 -12740788.25747  21707219.044    21707218.7854   21707229.6384
 -12369387.662 9  -9392256.68547  22731157.819    22731157.4084   22731174.1764
  -1671243.931 8  -1287885.07645  25440716.525    25440716.4984   25440732.6674
 -23112783.846 9 -17992948.37049  20646690.833    20646690.7344   20646701.2754
    160182.019 8    139585.31945  24697306.867    24697306.9014   24697318.5864
 -21311604.204 9 -16579591.76148  21299710.651    21299710.6574   21299721.8014
 00  9 18  2  7 30.0000000  0 11  1  8 10 13 28 31  2 11 27  3 19     .000000022
  -8608904.023 9  -6687836.88146  23537437.795    23537437.6014   23537455.5264
 -21255385.039 9 -16540095.25448  20826706.370    20826706.0524   20826717.9114
  -9439105.886 8  -7338414.31745  23980270.540    23980269.9354   23980291.2374
 -22445924.256 9 -17475631.49249  20907350.843    20907351.2624   20907361.3714
    974656.083 8    783282.05245  24921279.450    24921278.8194   24921289.2414
 -16646305.625 9 -12712719.99447  21714073.561    21714073.2504   21714084.0954
 -12423192.643 9  -9434182.25947  22720918.774    22720918.3664   22720935.0474
  -1730975.309 8  -1334428.81745  25429350.046    25429349.3984   25429366.4644
 -23123465.050 9 -18001271.26049  20644658.199    20644658.1014   20644668.5974
    248143.419 8    208127.00945  24714045.078    24714045.0844   24714056.6074
 -21273832.655 9 -16550159.31248  21306898.276    21306898.2914   21306909.4284
 00  9 18  2  8  0.0000000  0 11  1  8 10 13 28 31  2 11 27  3 19     .000000022
  -8504988.348 9  -6606863.66146  23557212.382    23557212.1714   23557230.1614
 -21297828.337 9 -16573167.74448  20818629.544    20818629.2234   20818641.0284
  -9424847.179 8  -7327303.55045  23982983.815    23982983.3064   23983004.4184
 -22397240.714 9 -17437696.19849  20916614.974    20916615.3894   20916625.4744
   1066196.616 8    854613.03745  24938698.755    24938698.4104   24938708.2124
 -16609689.089 9 -12684187.50547  21721041.389    21721041.0564   21721051.8734
 -12476764.011 9  -9475925.78747  22710724.199    22710723.7744   22710740.3584
  -1790752.692 8  -1381008.38245  25417974.775    25417974.7024   25417991.3164
 -23133918.227 9 -18009416.47249  20642668.936    20642668.8384   20642679.2894
    336400.699 8    276899.38545  24730839.797    24730839.6774   24730851.2504
 -21235814.502 9 -16520534.69348  21314132.811    21314132.8334   21314143.9674
 00  9 18  2  8 30.0000000  0 11  1  8 10 13 28 31  2 11 27  3 19     .000000022
  -8400883.853 9  -6525743.30146  23577022.891    23577022.7164   23577040.6154
 -21340093.793 9 -16606101.65648  20810586.511    20810586.1914   20810597.9324
  -9410104.289 8  -7315815.50445  23985789.216    23985788.6844   23985809.7864
 -22348051.652 9 -17399366.99448  20925975.287    20925975.6994   20925985.7704
   1157690.527 8    925907.60345  24956109.045    24956108.8354   24956119.0004
 -16572477.443 9 -12655191.30447  21728122.410    21728122.1044   21728132.8774
 -12530101.886 9  -9517487.38347  22700574.041    22700573.6204   22700590.0774
  -1850573.349 8  -1427621.67545  25406591.193    25406591.0644   25406607.9824
 -23144142.155 9 -18017383.05449  20640723.273    20640723.1654   20640733.6234
    424951.389 8    345900.35745  24747690.264    24747690.1914   24747701.4744
 -21197549.449 9 -16490717.70548  21321414.347    21321414.3824   21321425.4804
 00  9 18  2  9  0.0000000  0 11  1  8 10 13 28 31  2 11 27  3 19     .000000022
  -8296592.854 9  -6444477.61946  23596868.829    23596868.6674   23596886.5244
 -21382180.620 9 -16638896.38048  20802577.506    20802577.1964   20802588.8824
  -9394878.775 8  -7303951.38645  23988686.478    23988685.9994   23988706.9854
 -22298358.185 9 -17360644.74948  20935431.559    20935431.9824   20935442.0444
   1249136.640 8    997164.66645  24973510.254    24973510.0204   24973520.2974
 -16534671.984 9 -12625732.37347  21735316.432    21735316.1544   21735326.8894
 -12583206.436 9  -9558867.16847  22690468.299    22690467.8774   22690484.2164
  -1910434.689 8  -1474266.64845  25395199.853    25395199.6304   25395216.5664
 -23154135.832 9 -18025170.21249  20638821.445    20638821.3414   20638831.7704
    513792.910 9    415127.89245  24764595.938    24764595.9784   24764606.8054
 -21159037.108 9 -16460708.03448  21328742.948    21328742.9794   21328754.0574
 00  9 18  2  9 30.0000000  0 11  1  8 10 13 28 31  2 11 27  3 19     .000000022
  -8192117.803 9  -6363068.51346  23616749.820    23616749.5844   23616767.5134
 -21424088.188 9 -16671551.41948  20794602.610    20794602.3074   20794613.9404
  -9379172.138 8  -7291712.39545  23991675.303    23991674.6994   23991695.9064
 -22248161.611 9 -17321530.47248  20944983.608    20944984.0394   20944994.0904
   1340533.629 8   1068383.32445  24990902.219    24990901.9894   24990912.5284
 -16496274.260 9 -12595811.94747  21742623.205    21742622.8964   21742633.6154
 -12636078.272 9  -9600065.62847  22680406.855    22680406.4124   22680422.6814
  -1970334.153 8  -1520941.30745  25383801.208    25383801.0214   25383817.9624
 -23163898.244 9 -18032777.15149  20636963.654    20636963.5384   20636973.9364
    602922.509 9    484579.92545  24781556.372    24781556.1964   24781567.0574
 -21120276.949 9 -16430505.25548  21336118.749    21336118.7724   21336129.7964
 00  9 18  2 10  0.0000000  0 11  1  8 10 13 28 31  2 11 27  3 19     .000000022
  -8087460.560 9  -6281517.45145  23636665.374    23636665.1784   23636683.1524
 -21465815.174 9 -16704065.75848  20786662.039    20786661.7344   20786673.3284
  -9362985.505 8  -7279099.38045  23994755.430    23994754.8774   23994775.9954
 -22197462.764 9 -17282024.81348  20954631.203    20954631.6304   20954641.6744
   1431880.301 8   1139562.57545  25008284.756    25008284.5464   25008295.0444
 -16457285.698 9 -12565431.11847  21750042.375    21750042.0694   21750052.7794
 -12688717.164 9  -9641082.57147  22670389.718    22670389.2874   22670405.4624
  -2030269.160 8  -1567643.63745  25372395.792    25372395.5764   25372412.6164
 -23173428.137 9 -18040202.91849  20635150.069    20635149.9534   20635160.3144
    692338.162 9    554255.06145  24798571.290    24798571.1674   24798581.8514
 -21081268.321 9 -16400108.86448  21343541.800    21343541.8334   21343552.8014
 00  9 18  2 10 30.0000000  0 11  1  8 10 13 28 31  2 11 27  3 19     .000000022
  -7982623.581 8  -6199826.35345  23656615.192    23656615.0174   23656632.9794
 -21507360.843 9 -16736438.80948  20778756.032    20778755.7174   20778767.2414
  -9346320.424 8  -7266113.55445  23997926.694    23997926.1514   23997947.1234
 -22146262.697 9 -17242128.59348  20964374.209    20964374.6464   20964384.6484
   1523176.793 8   1210702.86545  25025657.789    25025657.0994   25025667.1584
 -16417707.507 9 -12534590.84647  21757573.754    21757573.4664   21757584.1514
 -12741123.466 9  -9681918.28547  22660416.839    22660416.4114   22660432.5364
  -2090237.407 7  -1614371.81045  25360983.951    25360983.5284   25361000.7244
 -23182724.370 9 -18047446.60549  20633380.929    20633380.8184   20633391.1674
    782036.895 9    624150.63745  24815640.118    24815640.0114   24815650.9284
 -21042010.817 9 -16369518.52348  21351012.219    21351012.2424   21351023.2164
 00  9 18  2 11  0.0000000  0 11  1  8 10 13 28 31  2 11 27  3 19     .000000022
  -7877608.582 8  -6117996.52645  23676598.802    23676598.6534   23676616.7144
 -21548723.924 9 -16768669.59248  20770884.752    20770884.4364   20770895.9224
  -9329178.181 9  -7252755.90645  24001188.760    24001188.2734   24001209.0974
 -22094562.426 9 -17201842.60848  20974212.438    20974212.8654   20974222.8514
   1614421.506 7   1281802.86745  25043020.990    25043020.3484   25043030.3534
 -16377540.890 9 -12503292.05347  21765217.012    21765216.7744   21765227.4454
 -12793296.939 9  -9722572.57947  22650488.253    22650487.8244   22650503.8584
  -2150235.752 7  -1661123.42544  25349566.346    25349565.8314   25349583.4304
 -23191785.420 9 -18054507.04749  20631656.563    20631656.4624   20631666.7884
    872016.561 9    694265.24445  24832762.402    24832762.0984   24832772.7244
 -21002504.082 9 -16338733.99048  21358530.025    21358530.0684   21358541.0114
 00  9 18  2 11 30.0000000  0 12  1  8 10 13 28 31  2 11 27  7  3 19  .000000022
  -7772417.867 8  -6036029.77545  23696615.839    23696615.7344   23696633.8424
 -21589903.588 9 -16800757.44948  20763048.363    20763048.0514   20763059.4624
  -9311560.377 8  -7239027.70345  24004541.221    24004540.6524   24004561.7004
 -22042363.605 9 -17161168.13948  20984145.483    20984145.8984   20984155.8854
   1705613.319 7   1352861.61245  25060373.826    25060373.0964   25060383.1454
 -16336787.433 9 -12471535.97547  21772971.994    21772971.7864   21772982.4614
 -12845238.077 9  -9763045.83947  22640603.869    22640603.4674   22640619.4014
  -2210261.987 7  -1707896.73844  25338143.372    25338143.1184   25338160.4924
 -23200610.279 9 -18061383.44849  20629977.171    20629977.0644   20629987.3464
  -1576533.124 8  -1185245.56652          .000            .0004           .0005
    962274.513 9    764596.63045  24849937.597    24849937.2774   24849947.7274
 -20962747.734 9 -16307754.95748  21366095.376    21366095.4204   21366106.3474
 00  9 18  2 12  0.0000000  0 12  1  8 10 13 28 31  2 11 27  7  3 19  .000000022
  -7667053.793 9  -5953927.92345  23716666.003    23716665.8834   23716684.0704
 -21630898.999 9 -16832701.72348  20755247.068    20755246.7524   20755258.1074
  -9293468.935 8  -7224930.42745  24007983.908    24007983.3494   24008004.2284
 -21989667.602 9 -17120106.24948  20994173.150    20994173.5664   20994183.5694
   1796751.589 7   1423878.70945  25077716.526    25077716.0094   25077726.0794
 -16295448.802 9 -12439323.92447  21780838.379    21780838.1604   21780848.8284
 -12896947.558 9  -9803338.58247  22630763.613    22630763.2294   22630779.0904
  -2270313.871 7  -1754690.00254  25326715.553    25326715.4104           .0005
 -23209198.150 9 -18068075.19449  20628342.891    20628342.7964   20628353.0294
  -1681778.962 8  -1267254.66145  25136369.557    25136367.8854   25136395.7224
   1052808.258 8    835143.00745  24867165.133    24867165.0224   24867175.0364
 -20922741.265 9 -16276581.02448  21373708.293    21373708.3404   21373719.2614
 00  9 18  2 12 30.0000000  0 12  1  8 10 13 28 31  2 11 27  7  3 19  .000000023
  -7561518.666 9  -5871692.77746  23736748.789    23736748.7914   23736766.7764
 -21671709.535 9 -16864501.96648  20747480.927    20747480.6084   20747491.9404
  -9274905.144 8  -7210465.07745  24011516.449    24011515.9134   24011536.8634
 -21936475.414 9 -17078657.72548  21004295.198    21004295.6194   21004305.6084
   1887835.032 8   1494853.52645  25095048.789    25095048.4704   25095058.0584
 -16253526.445 9 -12406657.02147  21788815.867    21788815.6174   21788826.2824
 -12948425.660 9  -9843451.04647  22620967.363    22620966.9914   22620982.7704
  -2330388.56717  -1801501.05554  25315283.432    25315282.6475           .0005
 -23217547.859 9 -18074581.35149  20626753.939    20626753.8264   20626764.0194
  -1787071.337 8  -1349299.95745  25116332.777    25116333.5644   25116358.0924
   1143615.342 8    905902.35145  24884444.697    24884444.6784   24884454.2824
 -20882484.523 9 -16245212.06648  21381368.832    21381368.8764   21381379.8084
 00  9 18  2 13  0.0000000  0 12  1  8 10 13 28 31  2 11 27  7  3 19  .000000023
  -7455814.759 9  -5789326.12046  23756863.632    23756863.4964   23756881.6674
 -21712334.139 9 -16896157.33248  20739750.191    20739749.8604   20739761.1524
  -9255870.966 8  -7195633.17945  24015138.537    24015138.0764   24015158.8494
 -21882788.026 9 -17036823.33148  21014511.522    21014511.9464   21014521.9364
   1978861.884 9   1565784.10045  25112370.349    25112369.9694   25112379.9284
 -16211021.717 9 -12373536.33547  21796904.178    21796903.9284   21796914.5564
 -12999672.770 9  -9883383.51247  22611215.092    22611214.7224   22611230.4264
  -2390484.01816  -1848328.23153          .000            .0005           .0005
 -23225658.357 9 -18080901.11449  20625210.428    20625210.3344   20625220.5224
  -1892408.356 7  -1431380.02645  25096287.549    25096286.4924   25096313.1534
   1234692.653 8    976872.40445  24901775.684    24901775.6014   24901785.0814
 -20841977.526 9 -16213648.08448  21389077.008    21389077.0404   21389087.9724
 00  9 18  2 13 30.0000000  0 12  1  8 10 13 28 31  2 11 27  7  3 19  .000000023
  -7349943.675 9  -5706829.18546  23777010.280    23777010.1394   23777028.3264
 -21752771.072 9 -16927666.46048  20732055.143    20732054.8174   20732066.0494
  -9236367.442 8  -7180435.56045  24018849.914    24018849.5764   24018870.2294
 -21828606.786 9 -16994604.12148  21024821.835    21024822.2484   21024832.2194
   2069831.399 8   1636669.59445  25129681.150    25129680.7644   25129690.8464
 -16167935.885 9 -12339962.84947  21805103.049    21805102.7924   21805113.3524
 -13050688.418 9  -9923135.61347  22601506.863    22601506.4934   22601522.1024
  -2450596.700 7   -946462.29142          .000            .0004           .0004
 -23233527.808 9 -18087033.06549  20623712.838    20623712.7314   20623722.9004
  -1997786.756 8  -1513492.35345  25076234.418    25076233.3454   25076259.5984
   1326037.989 8   1048051.03145  24919157.810    24919157.7364   24919167.2274
 -20801218.922 9 -16181888.03148  21396833.057    21396833.1014   21396844.0194
 00  9 18  2 14  0.0000000  0 12  1  8 10 13 28 31  2 11 27  7  3 19  .000000023
  -7243907.760 9  -5624203.77946  23797188.320    23797188.0994   23797206.3214
 -21793019.815 9 -16959028.95948  20724395.914    20724395.5804   20724406.7834
  -9216396.273 9  -7164873.54145  24022650.258    24022649.8764   24022670.4564
 -21773932.937 9 -16952001.05948  21035225.841    21035226.2564   21035236.2164
   2160744.354 8   1707511.39445  25146981.034    25146980.7684   25146989.9194
 -16124270.453 9 -12305937.72947  21813412.205    21813411.9394   21813422.4514
 -13101473.002 9  -9962707.67447  22591842.596    22591842.2244   22591857.7404
  -2510724.157 7   -993298.33652          .000            .0004           .0005
 -23241155.260 9 -18092976.44949  20622261.317    20622261.2164   20622271.3424
  -2103204.755 7  -1595635.50245  25056173.700    25056172.4034   25056199.0354
   1417648.942 8   1119436.58545  24936590.413    24936590.1594   24936599.7524
 -20760208.337 9 -16149931.62848  21404637.062    21404637.0884   21404647.9864
 00  9 18  2 14 30.0000000  0 12  1  8 10 13 28 31  2 11 27  7  3 19  .000000023
  -7137709.418 9  -5541451.81046  23817397.238    23817396.9794   23817415.2724
 -21833079.299 9 -16990243.98748  20716772.701    20716772.3774   20716783.5374
  -9195958.893 9  -7148948.23545  24026539.363    24026538.8244   24026559.5404
 -21718767.860 9 -16909015.22248  21045723.365    21045723.7794   21045733.7304
   2251597.823 8   1778307.04345  25164269.540    25164269.3394   25164278.4814
 -16080027.186 9 -12271462.36347  21821831.386    21821831.1214   21821841.5494
 -13152026.872 9 -10002099.95347  22582222.270    22582221.8944   22582237.3184
  -2570864.055 7  -1040122.28552          .000            .0004           .0005
 -23248539.760 9 -18098730.52349  20620856.028    20620855.9294   20620866.0174
  -2208660.087 7  -1677807.77945  25036105.817    25036104.8464   25036131.2654
   1509523.051 8   1191027.13645  24954072.934    24954072.8064   24954082.4544
 -20718945.581 9 -16117778.74148  21412489.025    21412489.0524   21412499.9194
 00  9 18  2 15  0.0000000  0 12  1  8 10 13 28 31  2 11 27  7  3 19  .000000024
  -7031350.668 9  -5458574.85246  23837636.583    23837636.3784   23837654.7244
 -21872948.440 9 -17021310.70148  20709185.739    20709185.4104   20709196.5204
  -9175056.607 9  -7132660.64745  24030516.868    24030516.3304   24030536.9234
 -21663112.920 9 -16865647.67048  21056314.116    21056314.5374   21056324.4704
   2342391.462 8   1849055.85545  25181546.548    25181546.3804   25181555.5924
 -16035207.524 9 -12236537.84347  21830360.247    21830359.9674   21830370.3324
 -13202350.196 9 -10041312.58147  22572645.819    22572645.4234   22572660.7664
  -2631013.742 7   -919141.77942          .000            .0004           .0004
 -23255680.063 9 -18104294.29349  20619497.195    20619497.0894   20619507.1674
  -2314150.351 7  -1760007.23545  25016031.399    25016030.1254   25016056.5254
   1601658.022 7   1262821.20745  24971604.988    24971604.9694   24971614.4644
 -20677430.124 9 -16085428.93948  21420389.117    21420389.1534   21420399.9974
 00  9 18  2 15 30.0000000  0 12  1  8 10 13 28 31  2 11 27  7  3 19  .000000024
  -6924834.074 9  -5375574.88646  23857906.054    23857905.8064   23857924.1414
 -21912626.440 9 -17052228.46648  20701635.132    20701634.8074   20701645.8914
  -9153691.704 9  -7116012.58345  24034582.482    24034581.9354   24034602.4604
 -21606969.494 9 -16821899.48848  21066997.791    21066998.2114   21067008.1184
   2433123.816 9   1919756.62645  25198811.942    25198811.5784   25198821.3854
 -15989813.710 9 -12201165.91847  21838998.376    21838998.0564   21839008.3814
 -13252443.372 9 -10080345.88447  22563113.116    22563112.7534   22563127.9914
  -2691170.519 8   -965994.20852          .000            .0004           .0005
 -23262575.238 9 -18109667.04749  20618185.014    20618184.9284   20618194.9684
  -2419673.564 8  -1842232.35045  24995950.639    24995949.6244   24995975.9634
   1694050.776 7   1334816.06745  24989186.231    24989186.2184   24989195.7744
 -20635661.990 9 -16052882.25148  21428337.291    21428337.3014   21428348.0884
 00  9 18  2 16  0.0000000  0 12  1  8 10 13 28 31  2 11 27  7  3 19  .000000024
  -6818161.623 9  -5292453.45045  23878205.156    23878204.9934   23878223.2204
 -21952112.283 9 -17082996.48048  20694121.085    20694120.7694   20694131.8204
  -9131865.624 9  -7099005.13145  24038735.810    24038735.2704   24038755.7334
 -21550338.762 9 -16777771.58448  21077774.241    21077774.6604   21077784.5504
   2523794.829 8   1990410.02144  25216065.760    25216065.2424   25216074.4414
 -15943846.778 9 -12165347.42847  21847745.519    21847745.1814   21847755.4984
 -13302306.703 9 -10119200.07447  22553624.198    22553623.8324   22553639.0014
  -2751331.871 8  -1012809.90952          .000            .0004           .0005
 -23269223.968 9 -18114847.77149  20616919.710    20616919.6244   20616929.6414
  -2525227.223 8  -1924481.24245  24975863.986    24975863.3414   24975888.9984
   1786699.313 7   1407010.13145  25006816.492    25006816.5314   25006825.7684
 -20593640.751 9 -16020138.34148  21436333.582    21436333.5854   21436344.3764
 00  9 18  2 16 30.0000000  0 12  1  8 10 13 28 31  2 11 27  7  3 19  .000000024
  -6711335.074 9  -5209211.94245  23898533.515    23898533.3714   23898551.6394
 -21991404.285 9 -17113613.43848  20686643.949    20686643.6254   20686654.6334
  -9109579.811 9  -7081639.45945  24042976.603    24042976.1344   24042996.5464
 -21493222.015 9 -16733264.96148  21088643.133    21088643.5364   21088653.4194
   2614403.085 9   2061014.71544  25233307.632    25233307.3954   25233315.6664
 -15897307.923 9 -12129083.28647  21856601.439    21856601.1304   21856611.4204
 -13351939.986 9 -10157875.01847  22544179.045    22544178.6604   22544193.7684
  -2811494.536 8   -890876.48542          .000            .0004           .0004
 -23275624.620 9 -18119835.18549  20615701.664    20615701.5674   20615711.5444
  -2630808.688 8  -2006751.79845  24955772.043    24955771.4504   24955796.8644
   1879601.110 7   1479401.62645  25024494.931    25024494.9344   25024503.9884
 -20551365.372 9 -15987196.39848  21444378.300    21444378.2964   21444389.0444
 00  9 18  2 17  0.0000000  0 12  1  8 10 13 28 31  2 11 27  7  3 19  .000000024
  -6604357.074 8  -5125852.44145  23918890.765    23918890.6174   23918908.6894
 -22030502.048 9 -17144079.04748  20679203.766    20679203.4464   20679214.4064
  -9086836.318 9  -7063917.15445  24047304.466    24047303.9984   24047324.3864
 -21435620.863 9 -16688380.88448  21099604.233    21099604.6484   21099614.5084
   2704947.40818   2131569.21953          .000            .0005           .0005
 -15850199.163 9 -12092375.06047  21865565.853    21865565.5544   21865575.8104
 -13401343.781 9 -10196371.14947  22534777.549    22534777.1594   22534792.1774
  -2871656.278 8   -937739.16242          .000            .0004           .0004
 -23281776.401 9 -18124628.65749  20614530.946    20614530.8474   20614540.7834
  -2736415.868 8  -2089042.42045  24935675.139    24935674.4334   24935699.8344
   1972753.340 8   1551988.22845  25042220.802    25042220.6734   25042229.8634
 -20508835.576 9 -15954056.20048  21452471.384    21452471.3834   21452482.1144
 00  9 18  2 17 30.0000000  0 12  1  8 10 13 28 31  2 11 27  7  3 19  .000000024
  -6497229.901 8  -5042376.70645  23939276.333    23939276.2444   23939294.1474
 -22069404.738 9 -17174392.64648  20671800.709    20671800.3914   20671811.3084
  -9063637.222 9  -7045839.84045  24051719.038    24051718.5124   24051738.9924
 -21377536.453 9 -16643120.23948  21110657.249    21110657.6664   21110667.5214
   2795427.72018   2202073.89652          .000            .0005           .0005
 -15802522.059 9 -12055223.98647  21874638.440    21874638.1334   21874648.3644
 -13450518.734 9 -10234688.96047  22525419.617    22525419.2574   22525434.1724
  -2931814.476 8   -984556.53652          .000            .0004           .0005
 -23287678.375 9 -18129227.47649  20613407.747    20613407.6554   20613417.5894
  -2842046.933 8  -2171351.68945  24915573.719    24915572.9794   24915598.0554
   2066153.535 8   1624768.02145  25059993.933    25059993.5774   25060002.9734
 -20466051.247 9 -15920717.67048  21460612.918    21460612.9074   21460623.6174
 00  9 18  2 18  0.0000000  0 12  1  8 10 13 28 31  2 11 27  7  3 19  .000000024
  -6389955.450 8  -4958786.20245  23959689.856    23959689.7124   23959707.6864
 -22108110.935 9 -17204553.14748  20664435.005    20664434.6804   20664445.5724
  -9039983.517 9  -7027408.28645  24056220.124    24056219.6064   24056240.1464
 -21318970.721 9 -16597484.54548  21121801.894    21121802.3014   21121812.1514
   2885843.15818   2272528.03253          .000            .0005           .0005
 -15754278.317 9 -12017631.37947  21883818.875    21883818.5584   21883828.7354
 -13499464.873 9 -10272828.48347  22516105.197    22516104.8364   22516119.6504
  -2991966.092 8   -862608.90242          .000            .0004           .0004
 -23293328.944 9 -18133630.40249  20612332.365    20612332.2794   20612342.1914
  -2947699.026 8  -2253677.36845  24895468.265    24895467.5884   24895492.7214
   2159799.593 8   1697739.62645  25077813.834    25077813.6624   25077822.5424
 -20423011.773 9 -15887180.32848  21468802.958    21468802.9574   21468813.6514
 00  9 18  2 18 30.0000000  0 12  1  8 10 13 28 31  2 11 27  7  3 19  .000000025
  -6282536.602 8  -4875083.18745  23980131.014    23980130.9014   23980148.7204
 -22146619.956 9 -17234559.99348  20657106.865    20657106.5434   20657117.3834
  -9015877.568 9  -7008624.33246  24060807.239    24060806.7114   24060827.2804
 -21259925.183 9 -16551474.97348  21133037.840    21133038.2524   21133048.1014
   2976191.089 8   5336955.05842          .000            .0004           .0004
 -15705470.127 9 -11979598.94347  21893106.667    21893106.3584   21893116.5404
 -13548183.045 9 -10310790.37047  22506834.233    22506833.8644   22506848.5954
  -3052108.701 8   -909455.17742          .000            .0004           .0004
 -23298727.230 9 -18137836.73149  20611305.013    20611304.9214   20611314.8314
  -3053370.436 8  -2336018.12645  24875359.101    24875358.5604   24875383.4784
   2253687.815 8   1770899.84545  25095679.782    25095679.5734   25095688.3284
 -20379717.141 9 -15853444.16948  21477041.589    21477041.5844   21477052.2854
 00  9 18  2 19  0.0000000  0 12  1  8 10 13 28 31  2 11 27  7  3 19  .000000025
  -6174975.145 8  -4791269.03545  24000599.233    24000599.1214   24000616.8404
 -22184930.398 9 -17264412.10148  20649816.486    20649816.1704   20649826.9644
  -8991321.104 9  -6989489.34345  24065480.116    24065479.5954   24065500.2304
 -21200400.686 9 -16505092.18648  21144364.930    21144365.3704   21144375.1854
   3066471.141 8   5407403.84852          .000            .0004           .0005
 -15656098.924 9 -11941127.79347  21902501.595    21902501.3244   21902511.4724
 -13596673.149 9 -10348574.54147  22497606.609    22497606.2324   22497620.8834
  -3112239.746 8   -956218.81152          .000            .0004           .0005
 -23303871.863 9 -18141845.41549  20610325.946    20610325.8484   20610335.7144
  -3159058.439 8  -2418371.87145  24855246.829    24855246.3414   24855271.0384
   2347816.137 8   1844246.92945  25113591.484    25113591.2444   25113599.8414
 -20336166.602 9 -15819508.60248  21485328.883    21485328.9074   21485339.5814
 00  9 18  2 19 30.0000000  0 12  1  8 10 13 28 31  2 11 27  7  3 19  .000000024
  -6067272.906 8  -4707345.22545  24021094.158    24021094.1534   24021111.8974
 -22223041.142 9 -17294108.58548  20642564.108    20642563.8014   20642574.5394
  -8966315.311 9  -6970004.22245  24070238.472    24070237.9714   24070258.5114
 -21140398.556 9 -16458337.21448  21155782.898    21155783.3264   21155793.1204
   3156683.842 7   5477802.08252          .000            .0004           .0005
 -15606166.350 9 -11902219.21547  21912003.342    21912003.0964   21912013.2424
 -13644935.141 9 -10386180.96147  22488422.400    22488422.0404   22488436.6104
  -3172356.178 8   1001412.814 1          .000            .000            .000
 -23308761.501 9 -18145655.40949  20609395.423    20609395.3234   20609405.1524
  -3264760.422 8  -2500736.54145  24835131.964    24835131.6374   24835155.7674
   2442183.013 8   1917779.96945  25131548.570    25131548.3424   25131556.6514
 -20292359.762 9 -15785373.31748  21493664.974    21493665.0164   21493675.6714
 00  9 18  2 20  0.0000000  0 12  1  8 10 13 28 31  2 11 27  7  3 19  .000000025
  -5959432.662 8  -4623313.81545  24041615.442    24041615.4064   24041633.3124
 -22260951.265 9 -17323648.73948  20635349.936    20635349.6154   20635360.3054
  -8940862.193 9  -6950170.53445  24075081.988    24075081.4484   24075101.9664
 -21079920.913 9 -16411211.71448  21167291.391    21167291.8094   21167301.5764
   3246828.25717   5355347.28142          .000            .0005           .0004
 -15555674.245 9 -11862874.64347  21921611.611    21921611.3554   21921621.4644
 -13692969.721 9 -10423610.18847  22479281.500    22479281.1384   22479295.6054
  -3232455.803 8   -881167.72942          .000            .0004           .0004
 -23313395.144 9 -18149265.92049  20608513.555    20608513.4634   20608523.2534
  -3370474.359 8  -2583110.51345  24815014.798    24815014.6644   24815038.6344
   2536784.936 9   1991496.08245  25149550.337    25149550.3094   25149558.5244
 -20248296.508 9 -15751038.21848  21502049.877    21502049.9214   21502060.5434
 00  9 18  2 20 30.0000000  0 11  1  8 10 13 31  2 11 27  7  3 19     .000000025
  -5851456.842 8  -4539176.77945  24062162.634    24062162.5024   24062180.4734
 -22298660.032 9 -17353031.99548  20628174.056    20628173.7334   20628184.3854
  -8914964.152 9  -6929990.14745  24080010.140    24080009.5764   24080030.0754
 -21018969.402 9 -16363716.96148  21178890.021    21178890.4494   21178900.1974
 -15504624.815 9 -11823095.78247  21931325.969    21931325.7004   21931335.7794
 -13740777.462 9 -10460862.65847  22470183.779    22470183.4074   22470197.8054
  -3292536.019 8   -927981.21352          .000            .0004           .0005
 -23317772.197 9 -18152676.50549  20607680.535    20607680.4404   20607690.2224
  -3476198.263 8  -2665492.26945  24794895.728    24794895.5934   24794919.3524
   2631619.135 8   2065393.13445  25167596.443    25167596.4174   25167604.3394
 -20203976.624 9 -15716503.13348  21510483.576    21510483.6124   21510494.2254
 00  9 18  2 21  0.0000000  0 11  1  8 10 13 31  2 11 27  7  3 19     .000000025
  -5743347.411 8  -4454935.64045  24082735.180    24082735.0194   24082753.0374
 -22336166.216 9 -17382257.40148  20621036.714    20621036.3944   20621047.0024
  -8888622.587 9  -6909464.15645  24085022.691    24085022.0474   24085042.5984
 -20957545.103 9 -16315853.80148  21190578.630    21190579.0474   21190588.7884
 -15453019.848 9 -11782884.02747  21941146.049    21941145.7414   21941155.7984
 -13788358.443 9 -10497938.43747  22461129.146    22461128.7754   22461143.1054
  -3352593.949 8   -974777.28552          .000            .0004           .0005
 -23321890.988 9 -18155885.82649  20606896.673    20606896.5834   20606906.3474
  -3581929.479 8  -2747879.72745  24774775.237    24774775.1114   24774798.7144
   2726683.448 8   2139469.51345  25185686.337    25185686.3624   25185694.0674
 -20159399.458 9 -15681767.57748  21518966.233    21518966.2804   21518976.8714
 00  9 18  2 21 30.0000000  0 11  1  8 10 13 31  2 11 27  7  3 19     .000000026
  -5635106.623 8  -4370592.15545  24103332.760    24103332.5104   24103350.6154
 -22373468.625 9 -17411324.02148  20613938.177    20613937.8484   20613948.4164
  -8861839.715 9  -6888594.29345  24090119.222    24090118.5884   24090139.2364
 -20895649.916 9 -16267623.72148  21202356.863    21202357.2844   21202367.0034
 -15400860.832 9 -11742240.56347  21951071.495    21951071.2104   21951081.2724
 -13835713.048 9 -10534837.82847  22452117.629    22452117.2734   22452131.4864
  -3412626.865 8   -852851.83642          .000            .0004           .0004
 -23325750.403 9 -18158893.04649  20606162.164    20606162.0714   20606171.7964
  -3687665.706 8  -2830271.05645  24754653.791    24754653.5414   24754677.4244
   2821975.300 8   2213723.19245  25203819.355    25203819.6404   25203827.3414
 -20114564.937 9 -15646831.48748  21527497.871    21527497.9134   21527508.4794
 00  9 18  2 22  0.0000000  0 11  1  8 10 13 31  2 11 27  7  3 19     .000000026
  -5526736.730 8  -4286148.04845  24123954.896    24123954.6434   24123972.6534
 -22410566.139 9 -17440230.98248  20606878.599    20606878.2754   20606888.7984
  -8834617.314 9  -6867381.93545  24095299.397    24095298.7624   24095319.3564
 -20833285.521 9 -16219028.02948  21214224.352    21214224.7684   21214234.4634
 -15348149.614 9 -11701166.80847  21961102.043    21961101.7564   21961111.8104
 -13882841.632 9 -10571561.09847  22443149.109    22443148.7424   22443162.8864
  -3472632.108 8   -899615.80652          .000            .0004           .0005
 -23329349.304 9 -18161697.27449  20605477.215    20605477.1154   20605486.8134
  -3793404.445 8  -2912664.36145  24734531.895    24734531.7124   24734555.4164
   2917492.672 8   2288152.50744  25221995.398    25221995.7674   25222003.2934
 -20069472.501 9 -15611694.43348  21536078.581    21536078.6334   21536089.1794
 00  9 18  2 22 30.0000000  0 11  1  8 10 13 31  2 11 27  7  3 19     .000000026
  -5418240.129 9  -4201605.17345  24144601.127    24144600.9204   24144618.8604
 -22447457.744 9 -17468977.49948  20599858.188    20599857.8854   20599868.3404
  -8806957.116 9  -6845828.42645  24100562.834    24100562.2184   24100582.7684
 -20770453.192 9 -16170067.71748  21226180.915    21226181.3404   21226191.0064
 -15294888.222 9 -11659664.33547  21971237.285    21971237.0194   21971247.0264
 -13929744.709 9 -10608108.64947  22434223.526    22434223.1814   22434237.2194
  -3532607.308 8   -946354.22452          .000            .0004           .0005
 -23332686.379 9 -18164297.46449  20604842.107    20604842.0054   20604851.6784
  -3899143.583 8  -2995057.98245  24714410.004    24714409.8224   24714433.6714
   3013232.403 8   2362755.21854  25240213.787    25240213.0654           .0005
 -20024121.918 9 -15576356.23348  21544708.454    21544708.4994   21544719.0424
 00  9 18  2 23  0.0000000  0 11  1  8 10 13 31  2 11 27  7  3 19     .000000026
  -5309618.718 9  -4116965.08545  24165271.062    24165270.8814   24165288.9434
 -22484142.137 9 -17497562.56148  20592877.262    20592876.9484   20592887.3744
  -8778860.853 9  -6823935.11545  24105909.356    24105908.6974   24105929.1924
 -20707154.339 9 -16120743.86948  21238226.218    21238226.6424   21238236.3104
 -15241078.409 9 -11617734.52247  21981476.896    21981476.6314   21981486.6334
 -13976422.280 9 -10644480.48647  22425340.841    22425340.4504   22425354.4554
  -3592549.324 8   -825346.09642          .000            .0004           .0004
 -23335760.293 9 -18166692.61249  20604257.061    20604256.9604   20604266.5934
  -4004880.331 8  -3077449.73445  24694288.664    24694288.5994   24694312.1074
   3109192.504 8   2437529.43244  25258474.169    25258473.1044   25258482.3484
 -19978512.631 9 -15540816.45448  21553387.529    21553387.5704   21553398.0824
 00  9 18  2 23 30.0000000  0 11  1  8 10 13 31  2 11 27  7  3 19     .000000026
  -5200875.070 9  -4032229.75146  24185964.300    24185964.1554   24185982.1974
 -22520618.726 9 -17525985.70448  20585935.855    20585935.5344   20585945.9074
  -8750330.886 9  -6801703.84345  24111338.329    24111337.8184   24111358.1664
 -20643390.874 9 -16071057.99148  21250359.944    21250360.3724   21250370.0234
 -15186722.225 9 -11575378.96047  21991820.451    21991820.1604   21991830.1634
 -14022875.247 9 -10680677.30347  22416500.888    22416500.5004   22416514.4494
  -3652456.132 8   -872025.96852          .000            .0004           .0005
 -23338570.291 9 -18168882.10449  20603722.238    20603722.1404   20603731.7534
  -4110613.017 8  -3159838.30045  24674168.154    24674168.1104   24674191.0364
   3205370.197 8   2512473.30044  25276776.257    25276775.6824   25276783.5184
 -19932644.786 9 -15505075.21348  21562115.855    21562115.8884   21562126.3764
 00  9 18  2 24  0.0000000  0 11  1  8 10 13 31  2 11 27  7  3 19     .000000027
  -5092011.260 9  -3947400.79145  24206680.449    24206680.2644   24206698.3084
 -22556886.046 9 -17554245.78249  20579034.271    20579033.9524   20579044.2834
  -8721369.125 8  -6779136.11645  24116849.483    24116848.8734   24116869.2344
 -20579164.438 9 -16021011.35748  21262581.791    21262582.2214   21262591.8534
 -15131821.621 9 -11532599.17847  22002267.621    22002267.3084   22002277.3594
 -14069103.589 9 -10716699.08347  22407703.693    22407703.3304   22407717.2064
  -3712324.434 8   -918675.93944          .000            .0004   25052316.6534
 -23341114.866 9 -18170864.77849  20603237.942    20603237.8454   20603247.4084
  -4216338.787 8  -3242221.46245  24654048.826    24654048.6384   24654071.4934
   3301762.671 7   2587584.35944  25295119.235    25295118.7034   25295126.1934
 -19886517.475 9 -15469131.79348  21570893.539    21570893.5614   21570904.0304
 00  9 18  2 24 30.0000000  0 11  1  8 10 13 31  2 11 27  7  3 19     .000000027
  -4983029.687 8  -3862480.05245  24227418.957    24227418.7874   24227436.7204
 -22592942.868 9 -17582341.83749  20572172.748    20572172.4324   20572182.7044
  -8691977.038 8  -6756233.06945  24122442.490    24122441.9314   24122462.3304
 -20514476.603 9 -15970605.19048  21274891.414    21274891.8594   21274901.4544
 -15076378.494 9 -11489396.64247  22012817.985    22012817.6734   22012827.7124
 -14115107.793 9 -10752546.21647  22398949.173    22398948.8114   22398962.5764
  -3772151.495 8   -965293.85645  25040920.086    25040909.0334   25040930.0564
 -23343392.841 9 -18172639.71449  20602804.370    20602804.2864   20602813.8284
  -4322055.399 8  -3324597.53045  24633931.251    24633930.8764   24633954.0344
   3398367.841 7   2662861.12954  25313502.515    25313502.3494           .0005
 -19840130.445 9 -15432985.98948  21579720.669    21579720.7004   21579731.1354
 00  9 18  2 25  0.0000000  0 11  1  8 10 13 31  2 11 27  7  3 19     .000000027
  -4873932.395 8  -3777469.14045  24248179.344    24248179.3054   24248197.1564
 -22628788.295 9 -17610273.17949  20565351.454    20565351.1444   20565361.3574
  -8662156.638 9  -6732996.28145  24128117.069    24128116.5034   24128136.9304
 -20449329.179 9 -15919840.90748  21287288.539    21287288.9574   21287298.5584
 -15020394.955 9 -11445773.02247  22023471.191    22023470.8994   22023480.9234
 -14160888.217 9 -10788218.97747  22390237.208    22390236.8424   22390250.5194
  -3831934.911 8  -1011877.76645  25029543.297    25029532.3884   25029556.7024
 -23345403.124 9 -18174206.05749  20602421.767    20602421.6704   20602431.1844
  -4427760.493 8  -3406964.64045  24613815.864    24613815.5614   24613838.7054
   3495183.34916   2738301.89254  25331925.474    25331925.4355           .0005
 -19793483.532 9 -15396637.67848  21588597.250    21588597.2554   21588607.6814
 00  9 18  2 25 30.0000000  0 11  1  8 10 13 31  2 11 27  7  3 19     .000000033
  -4764729.895 8  -3692376.26645  24268959.859    24268959.8094   24268977.7064
 -22664429.215 9 -17638045.16749  20558569.124    20558568.7994   20558578.9724
  -8631918.673 9  -6709434.09245  24133871.077    24133870.6394   24133890.8704
 -20383731.949 9 -15868726.11248  21299771.224    21299771.6354   21299781.2154
 -14963881.066 9 -11401736.14747  22034225.325    22034225.0634   22034235.0824
 -14206453.660 9 -10823724.21547  22381566.178    22381565.8154   22381579.4134
  -3891680.226 8  -1058431.98945  25018173.680    25018171.9304   25018187.0704
 -23347152.922 9 -18175569.43949  20602088.696    20602088.5914   20602098.0824
  -4533459.852 8  -3489327.25945  24593701.578    24593701.1464   24593724.3094
   3592197.452 7   2813897.40144  25350386.130    25350386.3524   25350392.4694
 -19746584.493 9 -15360092.89248  21597521.781    21597521.7774   21597532.2174
 00  9 18  2 26  0.0000000  0 11  1  8 10 13 31  2 11 27  7  3 19     .000000030
  -4655412.740 8  -3607194.00145  24289762.145    24289762.0294   24289779.7434
 -22699853.060 9 -17665647.99249  20551828.076    20551827.7464   20551837.8824
  -8601253.429 9  -6685538.95745  24139706.402    24139705.9494   24139726.1954
 -20317674.902 9 -15817253.02448  21312341.437    21312341.8534   21312351.4074
 -14906827.362 9 -11357278.64447  22045082.222    22045081.9584   22045091.9634
 -14251792.849 9 -10859053.14847  22372938.174    22372937.7884   22372951.3304
  -3951373.033 8  -1104945.30645  25006813.997    25006813.1134   25006827.1544
 -23348629.298 9 -18176719.78249  20601807.670    20601807.5764   20601817.0324
  -4639139.486 8  -3571674.50945  24573591.086    24573590.7284   24573613.6294
   3689419.963 7   2889655.11544  25368887.084    25368886.7554   25368893.6884
 -19699421.303 9 -15323342.28548  21606496.581    21606496.5844   21606506.9854
 00  9 18  2 26 30.0000000  0 11  1  8 10 13 31  2 11 27  7  3 19     .000000029
  -4545984.747 8  -3521925.40245  24310585.466    24310585.2624   24310603.1694
 -22735060.335 9 -17693082.07049  20545128.212    20545127.8744   20545137.9704
  -8570164.127 8  -6661313.39745  24145622.402    24145621.9444   24145642.1244
 -20251161.451 9 -15765424.29648  21324998.439    21324998.8514   21325008.4014
 -14849237.193 9 -11312403.11747  22056041.196    22056040.9114   22056050.9294
 -14296907.674 9 -10894207.24747  22364352.879    22364352.5024   22364365.9644
  -4011012.214 7  -1151416.86145  24995464.460    24995463.3424   24995478.0494
 -23349832.517 9 -18177657.25149  20601578.636    20601578.5344   20601587.9694
  -4744798.565 8  -3654005.74045  24553484.522    24553484.1084   24553506.8464
   3786847.021 8   2965572.31744  25387427.123    25387426.5204   25387433.0264
 -19651995.246 9 -15286386.84848  21615521.414    21615521.4064   21615531.7994
 00  9 18  2 27  0.0000000  0 11  1  8 10 13 31  2 11 27  7  3 19     .000000028
  -4436448.894 8  -3436572.73745  24331429.277    24331429.1244   24331447.2464
 -22770050.346 9 -17720346.86349  20538469.715    20538469.3844   20538479.4324
  -8538653.784 9  -6636759.74045  24151618.536    24151618.0434   24151638.1924
 -20184193.854 9 -15713241.69048  21337741.904    21337742.3194   21337751.8864
 -14791113.189 9 -11267111.62147  22067101.774    22067101.4844   22067111.4764
 -14341798.968 9 -10929187.18047  22355810.148    22355809.7564   22355823.1334
  -4070595.547 7  -1197844.85345  24984125.736    24984124.7214   24984139.6404
 -23350762.032 9 -18178381.44849  20601401.664    20601401.5674   20601410.9764
  -4850435.510 8  -3736319.72045  24533382.120    24533381.5944   24533404.3224
   3884475.499 8   3041646.51445  25406004.988    25406004.5184   25406011.4464
 -19604306.898 9 -15249227.01648  21624596.171    21624596.1544   21624606.5264
 00  9 18  2 27 30.0000000  0 11  1  8 10 13 31  2 11 27  7  3 19     .000000027
  -4326808.425 8  -3351138.54745  24352293.169    24352293.0184   24352311.2814
 -22804822.742 9 -17747442.08749  20531852.610    20531852.2754   20531862.2934
  -8506725.346 9  -6611880.27945  24157694.244    24157693.6574   24157713.7794
 -20116774.593 9 -15660707.14148  21350571.290    21350571.7074   21350581.2544
 -14732458.714 9 -11221406.76747  22078263.334    22078263.0374   22078273.0104
 -14386468.103 9 -10963993.99947  22347309.669    22347309.2904   22347322.6004
  -4130121.058 7  -1244227.83745  24972798.140    24972797.2534   24972812.3504
 -23351417.567 9 -18178892.15149  20601276.886    20601276.7734   20601286.1354
  -4956048.682 8  -3818615.17545  24513284.264    24513283.7074   24513306.2494
   3982301.251 8   3117874.34845  25424620.696    25424620.2514   25424627.1864
 -19556356.659 9 -15211863.11648  21633720.743    21633720.7274   21633731.0954
 00  9 18  2 28  0.0000000  0 11  1  8 10 13 31  2 11 27  7  3 19     .000000027
  -4217065.459 8  -3265624.45645  24373176.592    24373176.3914   24373194.5184
 -22839376.467 9 -17774366.91149  20525277.121    20525276.7974   20525286.7834
  -8474380.853 9  -6586676.62145  24163849.092    24163848.5364   24163868.5944
 -20048905.847 9 -15607822.33448  21363486.234    21363486.6564   21363496.2174
 -14673275.824 9 -11175290.16447  22089525.394    22089525.1304   22089535.0444
 -14430915.513 9 -10998628.04547  22338851.386    22338850.9864   22338864.2414
  -4189586.184 8  -1290563.85945  24961481.784    24961481.1064   24961496.1514
 -23351797.857 9 -18179188.37449  20601204.420    20601204.3134   20601213.6574
  -5061635.708 8  -3900890.26145  24493191.317    24493190.8784   24493213.1654
   4080322.302 8   3194254.32845  25443273.461    25443273.2494   25443280.0284
 -19508144.135 9 -15174294.83448  21642895.213    21642895.2064   21642905.5384
 00  9 18  2 28 30.0000000  0 11  1  8 10 13 31  2 11 27  7  3 19     .000000027
  -4107222.430 8  -3180032.41045  24394079.096    24394079.0004   24394096.9504
 -22873710.454 9 -17801120.52349  20518743.474    20518743.1404   20518753.0684
  -8441622.511 8  -6561150.47345  24170082.657    24170082.0814   24170102.1884
 -19980589.293 9 -15554588.59348  21376486.401    21376486.8164   21376496.3594
 -14613566.253 9 -11128763.18047  22100887.689    22100887.4244   22100897.3424
 -14475141.836 9 -11033089.82147  22330435.161    22330434.7524   22330447.9204
  -4248988.264 8  -1336850.80945  24950177.596    24950176.9344   24950191.7564
 -23351901.880 9 -18179269.33049  20601184.557    20601184.4374   20601193.7594
  -5167194.213 8  -3983143.12645  24473103.761    24473103.2544   24473125.3704
   4178536.142 8   3270784.44445  25461962.582    25461962.5604   25461969.4474
 -19459669.308 9 -15136522.16448  21652119.619    21652119.6204   21652129.9384
 00  9 18  2 29  0.0000000  0 11  1  8 10 13 31  2 11 27  7  3 19     .000000026
  -3997281.794 8  -3094364.30345  24415000.110    24414999.8384   24415017.7554
 -22907823.962 9 -17827702.32349  20512251.795    20512251.4544   20512261.3334
  -8408452.679 9  -6535303.68445  24176394.544    24176393.9914   24176413.9964
 -19911827.045 9 -15501007.56648  21389571.365    21389571.7784   21389581.3094
 -14553332.748 9 -11081827.92647  22112349.699    22112349.4794   22112359.3184
 -14519147.684 9 -11067379.80147  22322060.906    22322060.5104   22322073.5654
  -4308325.048 7  -1383086.90645  24938885.839    24938885.2094   24938899.9234
 -23351728.663 9 -18179134.26449  20601217.433    20601217.3244   20601226.6384
  -5272722.246 8  -4065372.23845  24453022.110    24453021.5564   24453043.3844
   4276940.052 9   3347462.80546  25480688.432    25480688.3474   25480695.1664
 -19410932.153 9 -15098545.08248  21661393.923    21661393.9294   21661404.2464
 00  9 18  2 29 30.0000000  0 11  1  8 10 13 31  2 11 27  7  3 19     .000000026
  -3887245.932 8  -3008621.98345  24435939.178    24435938.8524   24435956.8504
 -22941715.780 9 -17854111.37649  20505802.280    20505801.9394   20505811.7744
  -8374873.514 9  -6509137.94245  24182784.312    24182783.8284   24182803.6434
 -19842620.977 9 -15447080.69648  21402740.798    21402741.2114   21402750.7424
 -14492577.342 9 -11034485.99147  22123911.060    22123910.8154   22123920.6214
 -14562933.709 9 -11101498.49047  22313728.483    22313728.0784   22313741.0684
  -4367593.645 8  -1429269.90245  24927607.175    24927606.6894   24927621.3044
 -23351277.111 9 -18178782.30849  20601303.282    20601303.1754   20601312.4754
  -5378217.577 8  -4147575.83945  24432946.553    24432946.0754   24432967.7034
   4375530.916 8   3424286.81146  25499449.701    25499449.6384   25499456.5504
 -19361932.556 9 -15060363.51148  21670718.185    21670718.2144   21670728.4784
 00  9 18  2 30  0.0000000  0 11  1  8 10 13 31  2 11 27  7  3 19     .000000026
  -3777116.984 8  -2922807.12445  24456895.934    24456895.7434   24456913.6564
 -22975384.708 9 -17880346.74249  20499395.192    20499394.8554   20499404.6304
  -8340887.061 9  -6482654.82745  24189251.666    24189251.0604   24189270.9124
 -19772973.021 9 -15392809.50748  21415994.314    21415994.7354   21416004.2294
 -14431302.444 9 -10986739.25347  22135571.254    22135570.9634   22135580.7544
 -14606500.168 9 -11135446.09747  22305437.803    22305437.3974   22305450.3474
  -4426791.431 8  -1475397.72445  24916342.013    24916341.5954   24916355.7874
 -23350546.053 9 -18178212.55649  20601442.309    20601442.1984   20601451.5024
  -5483677.727 8  -4229752.02945  24412877.708    24412877.1974   24412898.7004
   4474307.036 9   3501255.10746  25518246.047    25518246.0864   25518253.1424
 -19312670.046 9 -15021977.07348  21680092.498    21680092.5054   21680102.7464
 00  9 18  2 30 30.0000000  0 11  1  8 10 13 31  2 11 27  7  3 19     .000000026
  -3666897.371 8  -2836921.61745  24477869.964    24477869.7944   24477887.7394
 -23008829.500 9 -17906407.46149  20493030.743    20493030.4004   20493040.1684
  -8306495.459 9  -6455856.01445  24195796.003    24195795.4004   24195815.3134
 -19702884.580 9 -15338195.08948  21429331.664    21429332.0824   21429341.5494
 -14369510.050 9 -10938589.27047  22147329.942    22147329.6434   22147339.4294
 -14649847.578 9 -11169223.01147  22297188.875    22297188.4784   22297201.3694
  -4485915.332 8  -1521467.94745  24905090.859    24905090.6754   24905104.3474
 -23349534.228 9 -18177424.01849  20601634.786    20601634.6854   20601643.9494
  -5589100.115 8  -4311898.74445  24392815.998    24392815.4254   24392836.9844
   4573265.841 9   3578365.76046  25537077.434    25537077.4794   25537084.3174
 -19263144.251 9 -14983385.46648  21689516.906    21689516.9104   21689527.1084
 00  9 18  2 31  0.0000000  0 11  1  8 10 13 31  2 11 27  7  3 19     .000000026
  -3556589.240 8  -2750967.11145  24498860.766    24498860.5734   24498878.4944
 -23042049.130 9 -17932292.73349  20486709.133    20486708.7974   20486718.5134
  -8271700.931 9  -6428743.24145  24202417.095    24202416.4264   24202436.3854
 -19632358.091 9 -15283239.32748  21442752.393    21442752.8114   21442762.2504
 -14307202.002 9 -10890037.49647  22159186.714    22159186.4154   22159196.2004
 -14692976.137 9 -11202829.39948  22288981.545    22288981.1604   22288993.9474
  -4544962.654 8  -1567478.47545  24893854.227    24893854.1444   24893867.9114
 -23348240.453 9 -18176415.75549  20601880.908    20601880.7954   20601890.0374
  -5694482.329 8  -4394014.14345  24372761.864    24372761.3894   24372783.0974
   4672404.723 8   3655616.76045  25555943.061    25555943.0094   25555949.8554
 -19213354.884 9 -14944588.48648  21698991.423    21698991.4314   21699001.6174
 00  9 18  2 31 30.0000000  0 11  1  8 10 13 31  2 11 27  7  3 19     .000000027
  -3446194.910 8  -2664945.43545  24519868.102    24519867.7904   24519885.7844
 -23075042.515 9 -17958001.72249  20480430.579    20480430.2534   20480439.9224
  -8236505.951 9  -6401318.41545  24209114.369    24209113.7594   24209133.6014
 -19561395.205 9 -15227943.51548  21456256.153    21456256.5534   21456265.9874
 -14244380.797 9 -10841085.83947  22171141.120    22171140.8494   22171150.6054
 -14735886.666 9 -11236265.89348  22280815.732    22280815.3434   22280828.0334
  -4603930.878 8  -1613427.38845  24882632.499    24882632.2934   24882646.2054
 -23346663.834 9 -18175187.10949  20602180.821    20602180.7174   20602189.9514
  -5799822.129 8  -4476096.45845  24352715.944    24352715.6574   24352736.8894
   4771720.804 8   3733005.81445  25574842.317    25574842.2464   25574849.0444
 -19163302.038 9 -14905586.20548  21708516.133    21708516.1174   21708526.2844
 00  9 18  2 32  0.0000000  0 11  1  8 10 13 31  2 11 27  7  3 19     .000000027
  -3335716.763 8  -2578858.46745  24540891.279    24540890.9854   24540909.2734
 -23107808.368 9 -17983533.40249  20474195.323    20474195.0004   20474204.6354
  -8200912.648 9  -6373583.20845  24215887.471    24215886.8514   24215906.5664
 -19489997.687 9 -15172309.03448  21469842.579    21469842.9874   21469852.3754
 -14181049.260 9 -10791736.52747  22183192.668    22183192.4154   22183202.1124
 -14778579.809 9 -11269532.99948  22272691.297    22272690.9084   22272703.5544
  -4662817.411 8  -1659312.67345  24871426.488    24871426.1814   24871440.2414
 -23344803.338 9 -18173737.27849  20602534.789    20602534.6824   20602543.8964
  -5905117.538 8  -4558144.19045  24332678.441    24332677.9684   24332699.2614
   4871213.131 8   3810532.22254  25593775.234    25593774.7394           .0005
 -19112985.475 9 -14866378.43548  21718090.991    21718090.9894   21718101.1014
 00  9 18  2 32 30.0000000  0 11  1  8 10 13 31  2 11 27  7  3 19     .000000027
  -3225156.996 8  -2492707.90145  24561929.984    24561929.5304   24561947.8574
 -23140345.611 9 -18008886.95849  20468003.601    20468003.2664   20468012.8574
  -8164923.168 9  -6345539.29145  24222735.952    24222735.3194   24222754.9904
 -19418167.852 9 -15116337.67448  21483511.316    21483511.7344   21483521.1184
 -14117209.119 9 -10741990.89747  22195341.028    22195340.7464   22195350.4054
 -14821055.755 9 -11302630.87848  22264608.185    22264607.7734   22264620.3464
  -4721619.487 8  -1705132.13445  24860236.594    24860236.4774   24860249.9884
 -23342657.509 9 -18172065.09549  20602943.044    20602942.9404   20602952.1304
  -6010365.911 8  -4640155.27445  24312649.879    24312649.2944   24312670.6754
   4970878.475 7   3888193.49454  25612740.864    25612740.5504           .0005
 -19062404.999 9 -14826965.01948  21727716.088    21727716.0754   21727726.1904
 00  9 18  2 33  0.0000000  0 11  1  8 10 13 31  2 11 27  7  3 19     .000000030
  -3114512.651 8  -2406491.44545  24582984.806    24582984.2954   24583002.7954
 -23172647.631 9 -18034057.22249  20461856.599    20461856.2624   20461865.8224
  -8128534.349 8  -6317184.19645  24229660.399    24229659.7464   24229679.3864
 -19345901.782 9 -15060026.39548  21497263.040    21497263.4344   21497272.8114
 -14052857.065 9 -10691846.37647  22207586.777    22207586.4884   22207596.1494
 -14863309.712 9 -11335555.78148  22256567.327    22256566.9204   22256579.3954
  -4780328.719 8  -1750879.20145  24849064.383    24849064.2524   24849077.7864
 -23340219.830 9 -18170165.50749  20603406.866    20603406.7584   20603415.8984
  -6115559.308 8  -4722123.52945  24292631.811    24292631.3324   24292652.5424
   5070719.48017   3965991.62653          .000            .0005           .0005
 -19011554.911 9 -14787341.50847  21737392.469    21737392.4574   21737402.5284
 00  9 18  2 33 30.0000000  0 11  1  8 10 13 31  2 11 27  7  3 19     .000000032
  -3003792.288 8  -2320215.72045  24604054.127    24604053.6584   24604072.0324
 -23204719.589 9 -18059048.20849  20455753.398    20455753.0674   20455762.6074
  -8091754.849 8  -6288524.67545  24236659.110    24236658.6214   24236678.1404
 -19273208.185 9 -15003381.97148  21511096.127    21511096.5384   21511105.9024
 -13988002.241 9 -10641310.08547  22219928.203    22219927.8944   22219937.5454
 -14905348.529 9 -11368313.04248  22248567.384    22248566.9784   22248579.3764
  -4838948.950 8  -1796556.91845  24837909.021    24837908.7044   24837922.4014
 -23337495.416 9 -18168042.47549  20603925.228    20603925.1204   20603934.2284
  -6220701.924 8  -4804052.20645  24272623.398    24272622.9144   24272643.9334
   5170727.10616   4043919.55053          .000            .0005           .0005
 -18960441.212 9 -14747512.58947  21747119.056    21747119.0634   21747129.0694
 00  9 18  2 34  0.0000000  0 10  1  8 10 13 31  2 11 27  7 19        .000000033
  -2892998.848 8  -2233883.04645  24625137.325    24625136.9434   24625155.1424
 -23236561.109 9 -18083859.63249  20449694.023    20449693.7024   20449703.2054
  -8054587.760 9  -6259563.13245  24243731.636    24243731.0954   24243750.6394
 -19200090.021 9 -14946406.71648  21525009.965    21525010.3954   21525019.7614
 -13922647.418 9 -10590384.19247  22232364.768    22232364.4654   22232374.0824
 -14947173.510 9 -11400903.68148  22240608.169    22240607.7584   22240620.0824
  -4897478.020 8  -1842163.60045  24826771.013    24826770.9834   24826783.9704
 -23334483.899 9 -18165695.73249  20604498.221    20604498.1034   20604507.1754
  -6325792.092 8  -4885940.01545  24252624.957    24252624.5284   24252645.4154
 -18909064.411 9 -14707478.66147  21756895.729    21756895.7254   21756905.7094
 00  9 18  2 34 30.0000000  0 10  1  8 10 13 31  2 11 27  7 19        .000000034
  -2782134.276 8  -2147494.92845  24646234.091    24646233.7974   24646251.8884
 -23268170.427 9 -18108490.12649  20443678.862    20443678.5364   20443688.0234
  -8017034.836 8  -6230300.93045  24250877.617    24250876.9774   24250896.5364
 -19126548.596 9 -14889101.64848  21539004.397    21539004.8174   21539014.1994
 -13856794.568 9 -10539070.22447  22244896.077    22244895.7794   22244905.3874
 -14988784.551 9 -11433327.60648  22232689.642    22232689.2304   22232701.4954
  -4955912.986 8  -1887696.95945  24815650.933    24815650.8334   24815664.2174
 -23331183.894 9 -18163124.17549  20605126.107    20605125.9984   20605135.0534
  -6430827.008 8  -4967784.77345  24232637.019    24232636.7454   24232657.2954
 -18857424.142 9 -14667239.42947  21766722.491    21766722.4824   21766732.4424
 00  9 18  2 35  0.0000000  0 10  1  8 10 13 31  2 11 27  7 19        .000000034
  -2671199.953 8  -2061052.49145  24667344.067    24667343.6344   24667362.0534
 -23299545.582 9 -18132938.14849  20437708.236    20437707.9194   20437717.3864
  -7979097.660 9  -6200739.30945  24258096.708    24258096.1194   24258115.4364
 -19052584.536 9 -14831467.25048  21553079.256    21553079.6644   21553089.0454
 -13790445.034 9 -10487369.21247  22257521.949    22257521.6784   22257531.2654
 -15030181.251 9 -11465584.51248  22224811.906    22224811.5044   22224823.7434
  -5014250.101 9  -1933154.13145  24804549.472    24804549.2984   24804562.3794
 -23327593.306 9 -18160326.18549  20605809.269    20605809.1654   20605818.2044
  -6535803.388 8  -5049583.92045  24212660.182    24212659.9164   24212680.2914
 -18805519.266 9 -14626794.02047  21776599.582    21776599.5844   21776609.5164
 00  9 18  2 35 30.0000000  0 10  1  8 10 13 31  2 11 27  7 19        .000000034
  -2560197.718 8  -1974557.10445  24688467.001    24688466.2994   24688484.8004
 -23330685.029 9 -18157202.49549  20431782.480    20431782.1624   20431791.5834
  -7940777.944 8  -6170879.57245  24265388.562    24265388.0214   24265407.3124
 -18978199.514 9 -14773504.82848  21567234.210    21567234.6144   21567243.9974
 -13723600.818 9 -10435282.73447  22270241.950    22270241.6434   22270251.1914
 -15071363.741 9 -11497674.51248  22216974.910    22216974.4994   22216986.6924
  -5072486.304 8  -1978532.68445  24793467.335    24793467.0714   24793480.0994
 -23323710.528 9 -18157300.52649  20606548.052    20606547.9344   20606556.9424
  -6640718.444 8  -5131335.27245  24192695.026    24192694.7774   24192715.1134
 -18753349.152 9 -14586141.91947  21786527.169    21786527.1914   21786537.1174
 00  9 18  2 36  0.0000000  0 10  1  8 10 13 31  2 11 27  7 19        .000000034
  -2449130.203 8  -1888010.80345  24709602.345    24709601.7284   24709620.0844
 -23361587.534 9 -18181282.21849  20425901.836    20425901.4934   20425910.8814
  -7902078.003 8  -6140723.56045  24272752.725    24272752.2434   24272771.5564
 -18903396.282 9 -14715216.53048  21581468.729    21581469.1504   21581478.4724
 -13656264.144 9 -10382812.51647  22283055.664    22283055.3324   22283064.8794
 -15112332.764 9 -11529598.18248  22209178.580    22209178.1874   22209190.2854
  -5130618.961 8  -2023830.59345  24782404.824    24782404.4094   24782417.5154
 -23319534.623 9 -18154046.47349  20607342.615    20607342.5044   20607351.4714
  -6745569.969 8  -5213037.11445  24172741.991    24172741.6404   24172761.9524
 -18700913.760 9 -14545283.11547  21796505.239    21796505.2434   21796515.1894
 00  9 18  2 36 30.0000000  0 10  1  8 10 13 31  2 11 27  7 19        .000000034
  -2337999.427 8  -1801415.21545  24730749.791    24730749.1594   24730767.4854
 -23392252.115 9 -18205176.54549  20420066.429    20420066.0934   20420075.4514
  -7863000.532 9  -6110273.36645  24280188.759    24280188.3264   24280207.6054
 -18828176.984 9 -14656604.02948  21595782.453    21595782.8514   21595792.1904
 -13588437.509 9 -10329960.51647  22295962.568    22295962.2374   22295971.7764
 -15153088.846 9 -11561355.91748  22201422.745    22201422.3664   22201434.4004
  -5188645.391 8  -2069045.75445  24771362.530    24771362.0634   24771374.7014
 -23315064.409 9 -18150563.08549  20608193.194    20608193.0854   20608202.0204
  -6850355.641 8  -5294687.65545  24152801.466    24152801.0654   24152821.3824
 -18648212.635 9 -14504217.25147  21806533.874    21806533.9014   21806543.8284
 00  9 18  2 37  0.0000000  0 10  1  8 10 13 31  2 11 27  7 19        .000000033
  -2226807.510 8  -1714771.93545  24751908.808    24751908.2914   24751926.2474
 -23422677.122 9 -18228884.19949  20414276.661    20414276.3214   20414285.6304
  -7823547.825 8  -6079530.75945  24287696.252    24287695.7684   24287714.9524
 -18752542.673 9 -14597668.14448  21610175.117    21610175.5074   21610184.8194
 -13520123.335 9 -10276728.61147  22308962.271    22308961.9674   22308971.4814
 -15193632.299 9 -11592947.97148  22193707.380    22193707.0074   22193718.9754
  -5246562.707 9  -2114175.89845  24760340.952    24760340.5834   24760352.9884
 -23310298.508 9 -18146849.30449  20609100.033    20609099.9174   20609108.8404
  -6955072.741 8  -5376284.74745  24132873.957    24132873.4114   24132893.8034
 -18595245.287 9 -14462943.93347  21816613.200    21816613.2134   21816623.1284
 00  9 18  2 37 30.0000000  0 10  1  8 10 13 31  2 11 27  7 19        .000000033
  -2115556.510 9  -1628082.61245  24773079.104    24773078.7744   24773096.0764
 -23452861.330 9 -18252404.21149  20408532.679    20408532.3374   20408541.6164
  -7783721.856 8  -6048497.30845  24295274.690    24295274.1824   24295293.3374
 -18676495.554 9 -14538410.58548  21624646.336    21624646.7394   21624656.0304
 -13451323.686 9 -10223118.41547  22322054.349    22322054.0344   22322063.5504
 -15233963.475 9 -11624374.61948  22186032.425    22186032.0504   22186043.9664
  -5304367.736 8  -2159218.55345  24749340.798    24749340.3294   24749352.8364
 -23305235.450 9 -18142903.96649  20610063.430    20610063.3104   20610072.2144
  -7059718.683 8  -5457826.40645  24112959.938    24112959.4174   24112979.7574
 -18542011.576 9 -14421463.08147  21826743.190    21826743.2204   21826753.1154
 00  9 18  2 38  0.0000000  0 10  1  8 10 13 31  2 11 27  7 19        .000000033
  -2004248.833 9  -1541349.08545  24794260.120    24794259.8024   24794277.0344
 -23482803.414 9 -18275735.56049  20402834.763    20402834.4324   20402843.6794
  -7743525.219 8  -6017175.02545  24302923.658    24302923.1064   24302942.2404
 -18600037.865 9 -14478833.10348  21639195.718    21639196.1264   21639205.4074
 -13382041.377 9 -10169132.13047  22335238.257    22335237.9374   22335247.4794
 -15274083.068 9 -11655636.40248  22178397.754    22178397.3754   22178409.2284
  -5362058.205 8  -2204171.94845  24738362.487    24738362.1794   24738374.4434
 -23299874.540 9 -18138726.54349  20611083.476    20611083.3644   20611092.2464
  -7164291.308 8  -5539310.96345  24093059.842    24093059.3934   24093079.7514
 -18488511.535 9 -14379774.68947  21836923.907    21836923.9134   21836933.8214
 00  9 18  2 38 30.0000000  0 10  1  8 10 13 31  2 11 27  7 19        .000000032
  -1892887.070 8  -1454573.40345  24815451.418    24815451.0714   24815468.1944
 -23512502.615 9 -18298877.65749  20397183.049    20397182.7154   20397191.9244
  -7702960.424 8  -5985565.86245  24310642.746    24310642.2124   24310661.3074
 -18523171.666 9 -14418937.29848  21653822.826    21653823.2504   21653832.4854
 -13312278.617 9 -10114771.45247  22348513.591    22348513.3074   22348522.8304
 -15313991.704 9 -11686733.80548  22170803.189    22170802.8034   22170814.6124
  -5419631.173 8  -2249033.84745  24727406.546    24727406.3124   24727418.4674
 -23294214.632 9 -18134316.14149  20612160.453    20612160.3384   20612169.1824
  -7268788.286 8  -5620736.53745  24073174.206    24073173.8504   24073193.7614
 -18434745.102 9 -14337878.71647  21847155.265    21847155.2594   21847165.1524
 00  9 18  2 39  0.0000000  0 10  1  8 10 13 31  2 11 27  7 19        .000000033
  -1781473.218 8  -1367757.14745  24836652.556    24836652.2834   24836669.3674
 -23541957.194 9 -18321829.14249  20391577.939    20391577.6054   20391586.7714
  -7662029.536 8  -5953671.45745  24318431.470    24318430.9204   24318449.9614
 -18445899.361 9 -14358725.06548  21668527.170    21668527.5914   21668536.8234
 -13242037.149 9 -10060037.75047  22361880.001    22361879.7434   22361889.2634
 -15353689.602 9 -11717667.00048  22163248.732    22163248.3534   22163260.1204
  -5477083.718 8  -2293801.87345  24716473.505    24716473.4324   24716485.1494
 -23288254.405 9 -18129671.74149  20613294.574    20613294.4634   20613303.2624
  -7373206.887 8  -5702101.04545  24053303.593    24053303.2164   24053322.7884
 -18380711.790 9 -14295774.78547  21857437.410    21857437.4214   21857447.2854
 00  9 18  2 39 30.0000000  0 10  1  8 10 13 31  2 11 27  7 19        .000000032
  -1670010.149 8  -1280902.56745  24857863.100    24857862.8704   24857880.0474
 -23571166.567 9 -18344589.56049  20386019.473    20386019.1334   20386028.2794
  -7620735.362 8  -5921493.95145  24326289.270    24326288.7904   24326307.5654
 -18368223.030 9 -14298197.99948  21683308.484    21683308.9084   21683318.0884
 -13171320.578 9 -10004933.85447  22375336.812    22375336.5574   22375346.1004
 -15393177.807 9 -11748436.80548  22155734.226    22155733.8554   22155745.5344
  -5534413.441 8  -2338474.12745  24705563.885    24705563.6154   24705575.3354
 -23281993.286 9 -18124792.87249  20614485.965    20614485.8594   20614494.6184
  -7477545.345 8  -5783403.12445  24033448.294    24033447.7214   24033467.1404
 -18326412.192 9 -14253463.36147  21867770.233    21867770.2484   21867780.1114
