     2              OBSERVATION DATA    G (GPS)             RINEX VERSION / TYPE
teqc  1997Sep28     CORS/NGS/NOAA       19980919 02:35:23UTCPGM / RUN BY / DATE
HP-UX 10.20|PA-RISC|cc A.10.32.03|=+|=|                     COMMENT
BIT 2 OF LLI FLAGS DATA COLLECTED UNDER A-S CONDITION       COMMENT
ppt1                                                        MARKER NAME
xxx                                                         MARKER NUMBER
CORS/NGS/NOAA       U.S. Coast Guard                        OBSERVER / AGENCY
05402               ASHTECH Z-XII3      1C01                REC # / TYPE / VERS
11092               ASHTECH L1/L2 P                         ANT # / TYPE
 -2725252.3748 -4295978.5284  3833958.9631                  APPROX POSITION XYZ 
        0.0000        0.0000        0.0000                  ANTENNA: DELTA H/E/N
     1     1                                                WAVELENGTH FACT L1/2
     7    C1    L1    L2    P1    P2    D1    D2            # / TYPES OF OBSERV
    30.0000                                                 INTERVAL
  1998     9    18     0     0   30.000000                  TIME OF FIRST OBS
                                                            END OF HEADER
 98  9 18  0  0 30.0000000  0  8G 4G22G19G16G25G18G15G14
  24453908.5204   -8641649.68847  -6472860.46645  24453908.1634   24453919.8384
      1647.3844       1283.6754
  21628189.7464  -18891333.94748 -14435677.78247  21628188.8814   21628197.3644
      1230.3954        958.7474
  24258851.1644  -11137725.66847  -8073944.10645  24258850.8554   24258864.6484
      3706.6774       2888.3154
  21253227.9234  -28928557.38349 -22246466.82147  21253227.3524   21253236.8044
      2462.6114       1918.9164
  24258988.0894  -15696301.10047 -11937523.20945  24258988.9024   24258997.6604
     -2373.3234      -1849.3404
  22964656.7864  -18768263.39448 -14352516.50846  22964656.6404   22964667.0384
      3227.1234       2514.6404
  24761945.8734  -14790254.27347 -11204059.54445  24761944.6824   24761962.2784
     -2856.8814      -2226.1354
  20571549.2204  -38258866.09549 -29561642.33147  20571549.1624   20571557.4434
      -352.1054       -274.3684
 98  9 18  0  1  0.0000000  0  8G 4G22G19G16G25G18G15G14
  24444567.4564   -8690733.21947  -6511107.35445  24444568.0304   24444579.4144
      1628.3324       1268.8304
  21621234.0024  -18927882.70348 -14464157.31347  21621233.6944   21621242.4074
      1209.8214        942.7184
  24237716.3344  -11248789.77747  -8160487.40245  24237716.1554   24237729.0014
      3701.0794       2883.9544
  21239220.7614  -29002165.14849 -22303823.48947  21239220.3294   21239230.1164
      2448.1884       1907.6784
  24272552.0004  -15625021.97747 -11881981.10645  24272552.2154   24272562.3064
     -2375.0944      -1850.7194
  22946253.3224  -18864974.44548 -14427875.69746  22946253.1884   22946263.2904
      3223.7584       2512.0144
  24778259.1924  -14704524.63247 -11137257.57845  24778258.9304   24778275.2904
     -2854.8064      -2224.5134
  20573620.7174  -38247980.37249 -29553159.97247  20573620.6734   20573628.9644
      -369.9974       -288.3094
 98  9 18  0  1 30.0000000  0  8G 4G22G19G16G25G18G15G14
  24435326.3094   -8739299.64647  -6548951.29645  24435326.8694   24435337.0854
      1607.8734       1252.8874
  21614388.4574  -18963860.02848 -14492191.56547  21614387.7694   21614395.7654
      1186.9264        924.8764
  24216606.0994  -11359723.45847  -8246929.06345  24216606.0434   24216619.0484
      3692.8424       2877.5324
  21225285.4894  -29075395.58149 -22360886.13547  21225285.1764   21225294.3394
      2432.2714       1895.2754
  24286115.3514  -15553745.26047 -11826440.86945  24286115.7364   24286125.7764
     -2378.0754      -1853.0534
  22927859.4574  -18961634.29948 -14503194.98946  22927858.9394   22927868.8724
      3218.4574       2507.8854
  24794551.9994  -14618911.55447 -11070546.43345  24794551.4214   24794567.3264
     -2854.2704      -2224.1004
  20575783.0064  -38236616.45749 -29544304.99547  20575782.8824   20575791.4574
      -389.0094       -303.1234
 98  9 18  0  2  0.0000000  0  8G 4G22G19G16G25G18G15G14
  24426197.8994   -8787270.04747  -6586330.81545  24426197.9354   24426208.2154
      1593.8204       1241.9414
  21607675.8934  -18999133.01948 -14519676.98847  21607675.2254   21607683.9184
      1168.3524        910.4034
  24195544.6894  -11470401.72547  -8333171.72145  24195544.5624   24195557.7154
      3689.4054       2874.8614
  21211440.3794  -29148152.34349 -22417579.69247  21211439.8854   21211449.3314
      2421.9014       1887.1954
  24299694.1704  -15482389.23047 -11770838.83745  24299694.2174   24299704.1454
     -2375.2494      -1850.8424
  22909496.7324  -19058128.82748 -14578385.45346  22909497.0434   22909506.4014
      3218.3504       2507.8034
  24810841.2474  -14533314.86347 -11003848.04445  24810840.0184   24810854.3424
     -2848.3664      -2219.4994
  20578051.4554  -38224698.03949 -29535017.94147  20578051.2044   20578059.3474
      -401.9044       -313.1724
 98  9 18  0  2 30.0000000  0  8G 4G22G19G16G25G18G15G14
  24417156.9284   -8834783.49747  -6623354.27045  24417156.6944   24417165.9284
      1575.0094       1227.2834
  21601075.3504  -19033819.18848 -14546705.15247  21601074.5704   21601083.1864
      1145.7644        892.8024
  24174509.4074  -11580937.85447  -8419303.62646  24174510.3154   24174523.2374
      3680.9914       2868.3004
  21197661.8934  -29220560.04049 -22474001.24947  21197661.2364   21197670.9094
      2406.6424       1875.3044
  24313264.1314  -15411079.42447 -11715272.81245  24313264.1644   24313274.0874
     -2377.5154      -1852.6094
  22891143.3354  -19154581.67748 -14653543.42546  22891142.6344   22891152.6034
      3213.3714       2503.9254
  24827102.0144  -14447863.92347 -10937263.23045  24827102.1164   24827116.1924
     -2846.8334      -2218.3004
  20580400.4094  -38212352.75949 -29525398.26847  20580400.2174   20580408.9754
      -419.6514       -327.0004
 98  9 18  0  3  0.0000000  0  8G 4G22G19G16G25G18G15G14
  24408202.9364   -8881827.19847  -6660011.65745  24408203.7674   24408214.2504
      1559.6774       1215.3304
  21594585.7314  -19067923.26748 -14573279.73947  21594584.7284   21594593.2934
      1126.7174        877.9614
  24153510.3424  -11691291.26747  -8505293.15046  24153510.2264   24153524.1984
      3674.8294       2863.4954
  21183954.1564  -29292591.60249 -22530129.71447  21183953.7774   21183963.6924
      2394.1654       1865.5814
  24326834.7784  -15339765.79747 -11659703.81045  24326835.3594   24326844.3214
     -2378.0584      -1853.0344
  22872801.0744  -19250966.68848 -14728648.54246  22872801.0944   22872810.9044
      3211.0264       2502.0954
  24843338.0444  -14362546.68247 -10870782.59845  24843338.0684   24843354.6054
     -2842.2804      -2214.7554
  20582834.8504  -38199559.46149 -29515429.48747  20582834.7844   20582843.4144
      -434.5734       -338.6274
 98  9 18  0  3 30.0000000  0  7G 4G22G19G16G25G18G14
  24399359.5034   -8928307.53347  -6696230.07645  24399359.6244   24399369.4934
      1540.7724       1200.6054
  21588223.5984  -19101353.75648 -14599329.45647  21588223.0904   21588231.6444
      1103.9724        860.2374
  24132563.4344  -11801368.19647  -8591067.25746  24132563.5244   24132576.8224
      3665.7564       2856.4284
  21170339.3054  -29364138.12449 -22585880.22747  21170338.7234   21170348.8434
      2377.4514       1852.5574
  24340428.4914  -15268333.16847 -11604042.07145  24340428.7644   24340438.1984
     -2382.1454      -1856.2124
  22854492.4324  -19347181.32648 -14803620.91146  22854492.0264   22854501.4624
      3205.2284       2497.5774
  20585375.2614  -38186210.96249 -29505028.08247  20585375.0634   20585383.5554
      -453.5044       -353.3794
 98  9 18  0  4  0.0000000  0  7G 4G22G19G16G25G18G14
  24390605.7104   -8974313.67247  -6732079.00645  24390605.4004   24390615.3524
      1524.6064       1188.0034
  21581972.8634  -19134205.08248 -14624927.87447  21581971.8334   21581980.2234
      1084.8094        845.3084
  24111647.5894  -11911281.69547  -8676713.99546  24111647.3014   24111660.8654
      3660.5254       2852.3564
  21156803.1424  -29435272.86949 -22641309.87847  21156802.6534   21156812.0174
      2363.3804       1841.5954
  24354027.7324  -15196867.96047 -11548354.96045  24354027.9014   24354037.2304
     -2383.6954      -1857.4264
  22836198.7094  -19443315.56148 -14878530.62846  22836198.5044   22836208.0274
      3202.4334       2495.4024
  20588006.4534  -38172381.48449 -29494251.89547  20588006.2744   20588015.1854
      -470.1204       -366.3264
 98  9 18  0  4 30.0000000  0  7G 4G22G19G16G25G18G14
  24381959.2184   -9019748.46547  -6767482.71245  24381959.3554   24381969.4164
      1503.4464       1171.5184
  21575842.5644  -19166420.00848 -14650030.39547  21575841.7854   21575849.6824
      1062.0004        827.5314
  24090774.3674  -12020967.03947  -8762182.95146  24090774.2204   24090788.0524
      3651.0634       2844.9784
  21143363.8884  -29505897.64849 -22696342.15847  21143363.2714   21143372.4394
      2344.2194       1826.6644
  24367652.4344  -15125270.65047 -11492564.91445  24367652.6994   24367661.7244
     -2390.1394      -1862.4424
  22817933.7434  -19539295.50248 -14953320.11146  22817933.6974   22817944.0974
      3195.5514       2490.0364
  20590749.7134  -38157965.35249 -29483018.56947  20590749.6224   20590758.6464
      -491.6904       -383.1334
 98  9 18  0  5  0.0000000  0  7G 4G22G19G16G25G18G14
  24373417.9584   -9064621.23847  -6802448.46945  24373418.8544   24373430.3254
      1490.0774       1161.1054
  21569829.4094  -19198016.42548 -14674650.95947  21569828.9204   21569837.3764
      1046.3724        815.3544
  24069941.4054  -12130445.33847  -8847490.58646  24069941.2194   24069955.3764
      3649.6994       2843.9174
  21130018.8754  -29576024.91949 -22750986.77147  21130018.3894   21130027.6244
      2333.0584       1817.9674
  24381297.5424  -15053562.77247 -11436688.72745  24381297.8984   24381307.2054
     -2388.1094      -1860.8594
  22799693.5704  -19635147.10348 -15028009.58446  22799693.5934   22799703.8534
      3196.6594       2490.8994
  20593603.3604  -38142967.67949 -29471332.09647  20593603.4884   20593612.6464
      -506.1624       -394.4124
 98  9 18  0  5 30.0000000  0  7G 4G22G19G16G25G18G14
  24364957.8074   -9109084.16147  -6837094.87845  24364957.7664   24364970.0884
      1474.1494       1148.6894
  21563910.3794  -19229119.73648 -14698887.28847  21563909.9804   21563918.5104
      1026.9934        800.2524
  24049116.0804  -12239881.81248  -8932765.63546  24049116.0474   24049129.9234
      3645.8524       2840.9204
  21116739.3264  -29645808.98549 -22805363.94747  21116738.9064   21116748.1024
      2319.1274       1807.1114
  24394930.2574  -14981924.79647 -11380867.00345  24394930.2184   24394939.7584
     -2387.8574      -1860.6634
  22781448.1284  -19731030.11248 -15102723.53346  22781448.0174   22781456.9554
      3195.5064       2490.0054
  20596543.1734  -38127521.60949 -29459296.22847  20596543.1114   20596552.2244
      -523.5204       -407.9374
 98  9 18  0  6  0.0000000  0  7G 4G22G19G16G25G18G14
  24356601.9924   -9152998.42647  -6871313.75145  24356602.0034   24356612.7484
      1454.6464       1133.4894
  21558117.4304  -19259565.37148 -14722611.13747  21558116.7274   21558124.8704
      1003.8794        782.2434
  24028328.9624  -12349126.27448  -9017891.05146  24028328.5434   24028340.8274
      3638.3494       2835.0754
  21103552.6264  -29715105.59049 -22859361.28947  21103552.1684   21103561.3164
      2301.8764       1793.6694
  24408575.6204  -14910217.83147 -11324991.53045  24408575.4634   24408585.5774
     -2391.2344      -1863.2984
  22763223.3574  -19826803.38148 -15177351.96946  22763222.7714   22763231.8814
      3190.7654       2486.3074
  20599594.2594  -38111486.95349 -29446801.72047  20599594.0724   20599603.1644
      -544.1474       -424.0104
 98  9 18  0  6 30.0000000  0  7G 4G22G19G16G25G18G14
  24348348.9284   -9196371.12947  -6905110.64145  24348348.5814   24348359.5804
      1436.6024       1119.4264
  21552448.5814  -19289354.99348 -14745823.80647  21552447.7384   21552456.1714
       982.0194        765.2094
  24007576.2614  -12458184.12748  -9102871.05646  24007575.6264   24007587.5244
      3632.1044       2830.2074
  21090455.8294  -29783931.14849 -22912991.58047  21090455.1764   21090464.2894
      2286.5954       1781.7624
  24422230.7124  -14838458.60447 -11269075.32045  24422230.6354   24422239.8594
     -2392.5734      -1864.3434
  22745016.0904  -19922482.48648 -15251907.03146  22745015.5874   22745025.0204
      3187.7264       2483.9384
  20602753.6644  -38094880.66849 -29433861.78747  20602753.8874   20602763.2724
      -562.9684       -438.6754
 98  9 18  0  7  0.0000000  0  7G 4G22G19G16G25G18G14
  24340191.8014   -9239236.86247  -6938512.49345  24340192.4694   24340202.3014
      1419.1434       1105.8234
  21546899.1434  -19318516.83848 -14768547.30947  21546898.4514   21546906.7124
       960.2024        748.2094
  23986851.1254  -12567088.97848  -9187731.83846  23986851.0834   23986863.7574
      3626.3264       2825.7074
  21077436.7934  -29852345.50749 -22966301.45847  21077436.2554   21077445.2214
      2272.3844       1770.6894
  24435885.3524  -14766705.24547 -11213163.67645  24435884.7454   24435894.7784
     -2393.0554      -1864.7184
  22726820.0944  -20018100.54048 -15326414.52046  22726819.8874   22726829.8994
      3184.7124       2481.5914
  20606016.5614  -38077739.46949 -29420505.03947  20606016.2224   20606025.1404
      -581.6214       -453.2104
 98  9 18  0  7 30.0000000  0  7G 4G22G19G16G25G18G14
  24332133.9904   -9281579.04647  -6971506.37545  24332134.0574   24332145.1694
      1405.6204       1095.2874
  21541473.5094  -19347030.19848 -14790765.49547  21541472.5954   21541480.9134
       942.8554        734.6944
  23966158.3374  -12675830.48548  -9272465.33746  23966158.1354   23966170.0974
      3625.0834       2824.7404
  21064497.5844  -29920339.90749 -23019284.09847  21064497.2994   21064506.2834
      2262.5024       1762.9884
  24449540.0624  -14694949.52347 -11157250.20145  24449540.1724   24449549.6604
     -2388.7854      -1861.3854
  22708640.5484  -20113634.59848 -15400856.56246  22708640.1314   22708650.1614
      3186.2984       2482.8274
  20609381.3094  -38060057.54449 -29406726.94747  20609381.1964   20609390.0934
      -595.0234       -463.6534
 98  9 18  0  8  0.0000000  0  7G 4G22G19G16G25G18G14
  24324187.7494   -9323331.25347  -7004040.54745  24324188.2304   24324199.5874
      1384.1564       1078.5624
  21536177.1174  -19374860.10848 -14812451.12547  21536176.3604   21536185.1974
       918.9554        716.0714
  23945506.4554  -12784355.70648  -9357030.29846  23945506.0804   23945518.5704
      3616.4174       2817.9834
  21051649.3504  -29987858.02149 -23071895.60247  21051648.8864   21051658.1674
      2245.1984       1749.5044
  24463204.2774  -14623142.53347 -11101296.77345  24463204.4674   24463213.9394
     -2391.9234      -1863.8334
  22690485.5964  -20209038.16748 -15475196.93746  22690485.3034   22690495.3444
      3180.4944       2478.3014
  20612856.4664  -38041795.86749 -29392497.10247  20612856.3224   20612865.1754
      -615.8284       -479.8654
 98  9 18  0  8 30.0000000  0  7G 4G22G19G16G25G18G14
  24316334.7484   -9364604.44347  -7036201.45545  24316334.4424   24316344.5234
      1365.7524       1064.2184
  21530986.0124  -19402139.24948 -14833707.58347  21530985.4744   21530994.0934
       898.2254        699.9144
  23924874.2064  -12892776.01248  -9441513.50746  23924874.5864   23924886.1434
      3610.1044       2813.0624
  21038869.0064  -30055021.03149 -23124230.40247  21038868.4474   21038877.5774
      2230.7554       1738.2504
  24476855.6864  -14551405.42947 -11045397.80345  24476855.4614   24476864.6424
     -2392.2244      -1864.0744
  22672332.9834  -20304431.53948 -15549529.35746  22672332.8674   22672342.4464
      3177.4724       2475.9494
  20616418.0494  -38023078.47849 -29377912.15147  20616418.1194   20616426.8504
      -633.4714       -493.6144
 98  9 18  0  9  0.0000000  0  7G 4G22G19G16G25G18G14
  24308598.1514   -9405257.61347  -7067879.22845  24308598.3064   24308608.7314
      1342.3794       1046.0084
  21525925.7454  -19428731.92148 -14854429.12847  21525925.2494   21525934.0234
       872.3784        679.7754
  23904291.0774  -13000938.91348  -9525796.13246  23904291.1594   23904304.2814
      3598.6234       2804.1164
  21026184.4044  -30121677.89749 -23176170.80547  21026183.8484   21026193.0194
      2210.6124       1722.5544
  24490523.5124  -14479582.10347 -10989431.63745  24490523.0764   24490533.4514
     -2398.2754      -1868.7834
  22654210.4834  -20399660.91048 -15623733.97146  22654210.8724   22654220.9154
      3168.9924       2469.3424
  20620093.2834  -38003766.58749 -29362863.95647  20620093.2264   20620101.6904
      -656.0374       -511.1954
 98  9 18  0  9 30.0000000  0  7G 4G22G19G16G25G18G14
  24300958.1354   -9445406.10347  -7099163.74945  24300958.8604   24300969.5654
      1332.4144       1038.2474
  21520977.3364  -19454734.62748 -14874690.95647  21520976.7674   21520985.6554
       859.3594        669.6314
  23883738.9754  -13108941.34248  -9609953.70746  23883739.0384   23883751.8434
      3599.8064       2805.0394
  21013582.5714  -30187902.08849 -23227774.05747  21013582.0184   21013591.1494
      2202.4424       1716.1884
  24504191.4884  -14407756.81647 -10933463.92645  24504191.3964   24504201.1814
     -2391.8694      -1863.7954
  22636102.1004  -20494825.23048 -15697887.90246  22636101.7934   22636111.3414
      3173.5404       2472.8874
  20623859.5224  -37983973.72149 -29347440.98147  20623859.3734   20623868.4064
      -665.4304       -518.5154
 98  9 18  0 10  0.0000000  0  7G 4G22G19G16G25G18G14
  24293413.5064   -9485055.55947  -7130059.40345  24293413.6664   24293425.5004
      1314.3974       1024.2034
  21516142.7714  -19480141.58148 -14894488.56247  21516142.1544   21516150.6974
       837.9024        652.9104
  23863221.0074  -13216764.43848  -9693971.54446  23863220.9604   23863233.2844
      3591.9844       2798.9434
  21001067.0914  -30253669.89749 -23279021.69047  21001066.6314   21001076.1974
      2185.7044       1703.1454
  24517864.9374  -14335900.89347 -10877472.35745  24517864.5244   24517874.4224
     -2394.9214      -1866.1754
  22618008.1134  -20589912.03848 -15771981.44346  22618007.9834   22618016.1934
      3169.0164       2469.3624
  20627721.6214  -37963679.46349 -29331627.30247  20627721.4434   20627730.1804
      -683.8454       -532.8654
 98  9 18  0 10 30.0000000  0  7G 4G22G19G16G25G18G14
  24285958.7654   -9524228.23047  -7160583.55145  24285958.9764   24285971.0724
      1294.9804       1009.0744
  21511421.4404  -19504951.84748 -14913821.21847  21511420.7494   21511429.6004
       814.1854        634.4284
  23842737.6014  -13324406.46648  -9777848.29346  23842737.2304   23842749.2054
      3582.2314       2791.3444
  20988637.6774  -30318987.42749 -23329918.45447  20988637.2504   20988646.1284
      2166.8454       1688.4514
  24531544.9604  -14264012.68747 -10821455.64545  24531545.7934   24531554.7764
     -2399.5674      -1869.7874
  22599930.2554  -20684907.37748 -15846003.70546  22599930.1284   22599939.3994
      3162.0294       2463.9164
  20631677.1664  -37942891.83749 -29315429.18447  20631677.1854   20631686.0734
      -704.1314       -548.6724
 98  9 18  0 11  0.0000000  0  7G 4G22G19G16G25G18G14
  24278600.5664   -9562900.65147  -7190717.88645  24278600.4904   24278611.1194
      1282.2764        999.1754
  21506819.5384  -19529135.10148 -14932665.28947  21506819.1524   21506827.7154
       796.9434        620.9934
  23822292.4604  -13431842.62348  -9861564.61446  23822292.7604   23822304.6824
      3579.2744       2789.0384
  20976299.7134  -30383822.63249 -23380439.38547  20976299.2854   20976308.5234
      2154.7094       1678.9954
  24545234.0114  -14192079.88347 -10765404.17145  24545232.5974   24545242.7254
     -2396.8124      -1867.6404
  22581877.5164  -20779775.28448 -15919926.65746  22581877.4414   22581886.4754
      3161.5114       2463.5134
  20635734.2324  -37921573.92549 -29298817.85747  20635734.1004   20635742.5754
      -717.9204       -559.4194
 98  9 18  0 11 30.0000000  0  7G 4G22G19G16G25G18G14
  24271337.5414   -9601066.93147  -7220457.85045  24271337.8244   24271348.2074
      1263.6134        984.6374
  21502339.8954  -19552674.89748 -14951007.96947  21502339.1744   21502348.0984
       774.0684        603.1714
  23801888.6914  -13539069.51048  -9945117.86546  23801888.5974   23801900.4694
      3570.8844       2782.5024
  20964054.3284  -30448174.14149 -23430583.40447  20964053.9334   20964062.9454
      2137.2674       1665.4024
  24558926.9684  -14120118.50647 -10709330.44345  24558926.6024   24558937.0284
     -2398.9494      -1869.3064
  22563850.8654  -20874509.32448 -15993745.30446  22563850.5904   22563859.5504
      3155.6564       2458.9514
  20639891.7874  -37899726.61049 -29281794.00447  20639891.5924   20639899.8294
      -737.0104       -574.2924
 98  9 18  0 12  0.0000000  0  7G 4G22G19G16G25G18G14
  24264170.2044   -9638734.36947  -7249809.07945  24264170.1034   24264179.9284
      1248.3404        972.7364
  21497976.7434  -19575604.46748 -14968875.15147  21497976.0014   21497984.7314
       755.6974        588.8554
  23781517.6914  -13646118.87848 -10028532.79646  23781517.6384   23781529.2874
      3566.7934       2779.3174
  20951891.4484  -30512090.00949 -23480387.96847  20951890.9824   20951900.0934
      2125.0424       1655.8774
  24572616.5614  -14048175.90347 -10653271.33445  24572617.6434   24572627.2644
     -2396.1434      -1867.1194
  22545843.3254  -20969135.87548 -16067480.20246  22545843.0844   22545852.7754
      3153.9644       2457.6334
  20644143.2674  -37877383.59749 -29264383.89947  20644143.2304   20644151.7474
      -751.1644       -585.3204
 98  9 18  0 12 30.0000000  0  7G 4G22G19G16G25G18G14
  24257104.2214   -9675862.08947  -7278739.76345  24257104.2804   24257114.7804
      1226.8814        956.0114
  21493734.1004  -19597900.92748 -14986248.99747  21493733.3604   21493741.6924
       731.1014        569.6884
  23761183.5244  -13752974.68848 -10111796.90846  23761183.6554   23761194.8324
      3557.3034       2771.9174
  20939812.8844  -30575563.48149 -23529847.80647  20939812.3624   20939821.5844
      2106.7684       1641.6364
  24586302.3674  -13976256.09047 -10597230.01145  24586302.5984   24586312.5204
     -2398.3714      -1868.8654
  22527858.1354  -21063646.89748 -16141125.07246  22527857.7434   22527867.6574
      3147.0904       2452.2744
  20648487.9584  -37854552.64249 -29246593.57647  20648487.7704   20648495.9714
      -770.8194       -600.6374
 98  9 18  0 13  0.0000000  0  7G 4G22G19G16G25G18G14
  24250147.6304   -9712416.45147  -7307223.67845  24250147.4644   24250157.9354
      1206.8304        940.3884
  21489616.7684  -19619535.86248 -15003107.37547  21489616.0204   21489624.4794
       708.0604        551.7354
  23740888.2134  -13859624.79248 -10194900.73746  23740887.9754   23740900.0824
      3549.7674       2766.0474
  20927824.8544  -30638558.69049 -23578934.97147  20927824.5094   20927833.8554
      2089.7294       1628.3594
  24599989.9084  -13904330.57747 -10541184.23045  24599990.0754   24600000.4884
     -2399.8834      -1870.0344
  22509897.7284  -21158029.82448 -16214670.13846  22509897.3684   22509907.1664
      3142.0394       2448.3394
  20652931.9604  -37831200.10649 -29228396.82947  20652931.7144   20652940.0704
      -789.0834       -614.8694
 98  9 18  0 13 30.0000000  0  7G 4G22G19G16G25G18G14
  24243311.2784   -9748342.24547  -7335217.79745  24243312.1624   24243322.9294
      1187.8314        925.5844
  21485635.4894  -19640457.80848 -15019410.16847  21485634.7694   21485643.2924
       686.5264        534.9544
  23720639.4304  -13966033.52248 -10277816.48146  23720639.1504   23720650.7764
      3543.9034       2761.4774
  20915939.9064  -30701016.01249 -23627602.99247  20915939.5354   20915948.7174
      2073.6944       1615.8644
  24613690.2534  -13832334.95547 -10485083.82945  24613690.0744   24613699.8334
     -2400.4104      -1870.4474
  22491969.3024  -21252244.71948 -16288084.25746  22491969.2194   22491978.9984
      3138.7634       2445.7874
  20657483.9034  -37807277.68749 -29209756.01447  20657483.7734   20657492.5454
      -806.2104       -628.2154
 98  9 18  0 14  0.0000000  0  7G 4G22G19G16G25G18G14
  24236577.6994   -9783727.81847  -7362790.97345  24236577.7804   24236589.3344
      1169.3724        911.2024
  21481772.4064  -19660757.54048 -15035228.12147  21481771.7434   21481780.4174
       665.0214        518.1974
  23700420.5524  -14072284.35548 -10360609.18546  23700420.4304   23700432.3854
      3537.6664       2756.6174
  20904144.3194  -30763005.51849 -23675906.48847  20904143.7574   20904152.3264
      2057.0364       1602.8844
  24627391.3294  -13760336.81247 -10428981.43845  24627391.1724   24627401.0904
     -2401.2474      -1871.0954
  22474054.1244  -21346393.22048 -16361446.65346  22474053.7284   22474062.9004
      3136.0274       2443.6554
  20662131.0054  -37782856.97949 -29190726.92747  20662130.8054   20662139.6704
      -823.6114       -641.7744
 98  9 18  0 14 30.0000000  0  7G 4G22G19G16G25G18G14
  24229948.3304   -9818567.33447  -7389938.65945  24229948.1964   24229958.9614
      1154.0604        899.2664
  21478034.5784  -19680403.35048 -15050536.52447  21478033.7424   21478042.1214
       645.6734        503.1204
  23680237.8784  -14178342.46848 -10443251.71346  23680237.9124   23680249.8634
      3533.8734       2753.6614
  20892447.6804  -30824470.45149 -23723801.23147  20892447.0704   20892455.6654
      2041.5864       1590.8464
  24641100.5984  -13688296.20647 -10372845.94545  24641099.8354   24641110.0264
     -2400.5774      -1870.5794
  22456155.4154  -21440447.90748 -16434735.95346  22456155.2504   22456164.8484
      3135.1124       2442.9394
  20666881.1244  -37757895.58149 -29171276.51547  20666881.0634   20666889.7244
      -839.7534       -654.3524
 98  9 18  0 15  0.0000000  0  7G 4G22G19G16G25G18G14
  24223410.7844   -9852923.60147  -7416709.77645  24223410.8534   24223420.0914
      1138.9924        887.5344
  21474410.0014  -19699445.88048 -15065374.84047  21474409.6854   21474417.9594
       626.7214        488.3544
  23660084.4824  -14284249.08948 -10525776.20146  23660084.5074   23660096.3864
      3529.4054       2750.1804
  20880844.6444  -30885446.26549 -23771314.83547  20880844.0054   20880852.4924
      2026.5124       1579.0984
  24654812.6434  -13616240.47147 -10316698.68145  24654812.1044   24654821.7764
     -2400.0384      -1870.1604
  22438269.1614  -21534439.22648 -16507975.86846  22438269.2224   22438278.5324
      3133.9574       2442.0434
  20671731.0044  -37732410.90149 -29151418.35747  20671730.8404   20671739.7554
      -856.0904       -667.0824
 98  9 18  0 15 30.0000000  0  7G 4G22G19G16G25G18G14
  24216958.0274   -9886829.09847  -7443129.64445  24216958.4614   24216967.5204
      1122.8024        874.9124
  21470895.4034  -19717919.52048 -15079769.86647  21470894.6004   21470902.8954
       606.4884        472.5884
  23639958.6344  -14390009.37548 -10608186.66446  23639958.7014   23639970.7424
      3522.8784       2745.0964
  20869324.8674  -30945980.23549 -23818484.14747  20869324.4744   20869333.4254
      2010.7204       1566.7954
  24668518.4264  -13544209.15747 -10260570.43945  24668518.4554   24668528.6454
     -2400.3404      -1870.3944
  22420389.9454  -21628395.11948 -16581188.18746  22420390.0064   22420398.8384
      3131.3244       2439.9884
  20676671.9414  -37706444.28049 -29131184.66047  20676671.9774   20676681.0414
      -873.3224       -680.5104
 98  9 18  0 16  0.0000000  0  7G 4G22G19G16G25G18G14
  24210597.7794   -9920254.14747  -7469175.14245  24210598.0034   24210607.2844
      1104.3514        860.5394
  21467493.9234  -19735791.76448 -15093696.27347  21467493.2834   21467501.9444
       584.1884        455.2104
  23619870.9424  -14495573.42748 -10690444.21446  23619870.5554   23619882.2794
      3513.9454       2738.1324
  20857894.9174  -31006044.13649 -23865287.17347  20857894.7284   20857903.0784
      1992.7214       1552.7704
  24682224.3494  -13472184.49747 -10204447.38345  24682225.2914   24682235.8614
     -2402.2504      -1871.8804
  22402526.2014  -21722269.22648 -16654336.76646  22402525.8804   22402535.1834
      3125.8194       2435.6994
  20681710.6634  -37679967.81449 -29110553.67647  20681710.3824   20681719.1814
      -892.6524       -695.5724
 98  9 18  0 16 30.0000000  0  7G 4G22G19G16G25G18G14
  24204336.4934   -9953161.28747  -7494817.06945  24204336.0554   24204346.3864
      1090.1564        849.4704
  21464209.8834  -19753048.17648 -15107142.81447  21464209.2914   21464217.8414
       567.1764        441.9564
  23599822.4964  -14600926.58448 -10772537.43546  23599822.6744   23599834.5244
      3510.5484       2735.4874
  20846556.5684  -31065629.93249 -23911717.65147  20846556.2474   20846564.3784
      1980.6594       1543.3704
  24695931.0794  -13400156.56347 -10148321.77345  24695932.1554   24695941.8634
     -2398.7614      -1869.1614
  22384687.6534  -21816012.41848 -16727383.33946  22384687.5904   22384696.6194
      3124.7864       2434.8974
  20686848.7414  -37652964.21249 -29089511.94547  20686848.6824   20686857.8054
      -906.6414       -706.4734
 98  9 18  0 17  0.0000000  0  7G 4G22G19G16G25G18G14
  24198175.7664   -9985530.74247  -7520040.02245  24198175.8114   24198186.5514
      1071.5894        835.0004
  21461043.0184  -19769692.11448 -15120112.10147  21461042.3804   21461050.4214
       546.3364        425.7154
  23579814.4664  -14706070.41648 -10854467.55146  23579814.2504   23579826.2684
      3503.0044       2729.6084
  20835305.9234  -31124752.31849 -23957787.02947  20835305.2844   20835313.9264
      1964.6074       1530.8624
  24709635.4184  -13328138.74847 -10092204.06945  24709637.0314   24709645.2274
     -2398.5134      -1868.9614
  22366872.9574  -21909627.81948 -16800330.33046  22366872.8324   22366882.5304
      3120.1734       2431.3014
  20692087.1114  -37625439.23449 -29068063.94447  20692086.7894   20692095.5344
      -924.1704       -720.1314
 98  9 18  0 17 30.0000000  0  7G 4G22G19G16G25G18G14
  24192116.7694  -10017368.86347  -7544848.94745  24192117.5694   24192127.5174
      1052.1204        819.8324
  21457990.2674  -19785734.04348 -15132612.28547  21457989.6414   21457997.8954
       524.3144        408.5574
  23559842.1414  -14811021.72848 -10936247.65146  23559842.0544   23559855.0184
      3495.2104       2723.5354
  20824143.6444  -31183409.08349 -24003493.58747  20824143.1374   20824152.1144
      1946.9014       1517.0664
  24723333.5644  -13256158.52147 -10036115.63345  24723333.0894   24723344.1684
     -2398.9014      -1869.2744
  22349079.8074  -22003132.89448 -16873191.35646  22349079.6714   22349089.1114
      3114.7484       2427.0764
  20697416.6084  -37597429.70649 -29046238.37047  20697416.5544   20697425.6774
      -942.0014       -734.0254
 98  9 18  0 18  0.0000000  0  7G 4G22G19G16G25G18G14
  24186178.7194  -10048575.24747  -7569165.60045  24186179.3094   24186189.8894
      1032.7904        804.7694
  21455072.5334  -19801065.87448 -15144559.14947  21455071.9814   21455080.3904
       502.4084        391.4874
  23539922.7674  -14915699.67148 -11017814.74046  23539922.8004   23539935.2684
      3487.9494       2717.8794
  20813093.1174  -31241480.07849 -24048743.70247  20813092.5754   20813101.4524
      1929.3014       1503.3534
  24737043.3754  -13184114.53947  -9979977.51145  24737043.0174   24737053.5784
     -2399.5194      -1869.7514
  22331325.7994  -22096430.47548 -16945890.70946  22331325.8084   22331335.1034
      3109.6934       2423.1354
  20702859.7664  -37568826.60549 -29023950.27647  20702859.6884   20702869.1774
      -960.2584       -748.2524
 98  9 18  0 18 30.0000000  0  7G 4G22G19G16G25G18G14
  24180342.6184  -10079243.95847  -7593063.28245  24180342.7724   24180354.1554
      1014.5424        790.5494
  21452274.1884  -19815771.63848 -15156018.17147  21452273.5234   21452282.0504
       480.6904        374.5624
  23520038.9064  -15020190.60248 -11099236.10746  23520038.9444   23520050.6424
      3480.8544       2712.3514
  20802135.4774  -31299062.50349 -24093613.11347  20802135.2354   20802143.9024
      1912.2204       1490.0414
  24750751.7164  -13112077.32047  -9923844.66545  24750752.5954   24750762.1844
     -2400.0204      -1870.1524
  22313591.8864  -22189623.04848 -17018508.23546  22313591.6794   22313601.1344
      3106.1014       2420.3354
  20708399.4004  -37539716.12749 -29001266.82147  20708399.3094   20708408.3764
      -977.6414       -761.7984
 98  9 18  0 19  0.0000000  0  7G 4G22G19G16G25G18G14
  24174608.5304  -10109378.24747  -7616544.53545  24174608.4434   24174620.1364
       996.6014        776.5724
  21449599.0214  -19829829.09948 -15166972.03147  21449598.2704   21449606.8074
       458.8744        357.5634
  23500195.1404  -15124468.53248 -11180491.50446  23500195.2364   23500206.9564
      3473.4104       2706.5444
  20791276.1774  -31356129.12549 -24138080.60647  20791275.7674   20791284.5294
      1894.5934       1476.3054
  24764460.5564  -13040037.15747  -9867709.52245  24764460.4834   24764471.0544
     -2400.3304      -1870.3874
  22295876.5524  -22282717.01848 -17091048.93746  22295876.3984   22295885.3504
      3102.4674       2417.5034
  20714036.9754  -37510091.53949 -28978182.76247  20714036.9214   20714045.4424
      -994.9454       -775.2814
 98  9 18  0 19 30.0000000  0  7G 4G22G19G16G25G18G14
  24168968.9134  -10139015.21347  -7639638.28045  24168969.3374   24168979.1604
       977.1254        761.3904
  21447041.4414  -19843271.07448 -15177446.28047  21447040.7434   21447048.8094
       435.4524        339.3114
  23480386.6804  -15228563.83848 -11261604.60446  23480386.7584   23480398.5564
      3464.3294       2699.4714
  20780508.3844  -31412713.64149 -24182172.43147  20780507.9664   20780516.9684
      1875.9034       1461.7434
  24778164.6604  -12968022.20047  -9811594.01545  24778164.5684   24778175.1144
     -2402.3854      -1871.9884
  22278174.8814  -22375740.36148 -17163534.60046  22278174.6494   22278183.2844
      3097.1584       2413.3674
  20719766.2444  -37479986.51249 -28954724.33747  20719765.8584   20719774.7334
     -1014.1264       -790.2284
 98  9 18  0 20  0.0000000  0  7G 4G22G19G16G25G18G14
  24163433.4644  -10168104.01347  -7662304.89145  24163433.7544   24163444.4594
       958.7374        747.0704
  21444608.6224  -19856055.16148 -15187407.88847  21444607.9644   21444616.6384
       413.7044        322.3674
  23460624.3554  -15332414.37048 -11342526.97846  23460624.3594   23460636.3104
      3455.6584       2692.7154
  20769839.0034  -31468783.64449 -24225863.33347  20769838.4474   20769847.2974
      1858.8104       1448.4234
  24791873.6044  -12895978.52047  -9755456.13145  24791874.0024   24791883.1134
     -2403.7084      -1873.0134
  22260497.3514  -22468637.85648 -17235922.20346  22260497.0744   22260505.3744
      3092.5904       2409.8084
  20725598.6114  -37449334.29449 -28930839.52847  20725598.5704   20725607.6984
     -1032.5274       -804.5654
 98  9 18  0 20 30.0000000  0  7G 4G22G19G16G25G18G14
  24158017.1774  -10196568.91247  -7684485.32845  24158017.2744   24158028.0164
       941.3374        733.5094
  21442312.1434  -19868122.62648 -15196811.09747  21442311.4174   21442320.3904
       393.3834        306.5304
  23440925.7384  -15435928.96148 -11423187.57546  23440925.9574   23440937.7334
      3447.9214       2686.6874
  20759279.8154  -31524270.12449 -24269099.54547  20759279.7194   20759288.5134
      1842.6404       1435.8234
  24805601.8314  -12823839.69847  -9699244.11645  24805601.3474   24805611.8314
     -2402.8884      -1872.3824
  22242858.8794  -22561323.81948 -17308144.97246  22242858.8464   22242867.8144
      3088.9764       2406.9934
  20731547.1514  -37418073.85449 -28906480.77747  20731547.3324   20731555.9454
     -1048.9904       -817.3944
 98  9 18  0 21  0.0000000  0  6G 4G22G19G16G18G14
  24152694.7244  -10224536.15147  -7706278.00545  24152695.1474   24152704.9534
       924.5274        720.4104
  21440126.5404  -19879607.73848 -15205760.52247  21440125.8794   21440134.5554
       373.6954        291.1904
  23421265.4264  -15539244.53948 -11503693.10946  23421265.5064   23421277.5184
      3441.2894       2681.5214
  20748809.1944  -31579294.77849 -24311975.89247  20748808.7584   20748817.7684
      1827.1564       1423.7584
  22225240.3474  -22653912.80748 -17380292.17746  22225240.1294   22225248.5814
      3085.0614       2403.9414
  20737586.3654  -37386340.35949 -28881753.41347  20737586.2114   20737594.5914
     -1065.1844       -830.0134
 98  9 18  0 21 30.0000000  0  6G 4G22G19G16G18G14
  24147475.1214  -10251963.46147  -7727649.96445  24147475.3654   24147485.6104
       907.0444        706.7884
  21438061.3854  -19890460.62148 -15214217.29747  21438060.6604   21438069.1084
       352.9164        274.9984
  23401650.5114  -15642321.55248 -11584012.75046  23401650.5354   23401662.1714
      3433.7404       2675.6364
  20738433.3954  -31633822.38549 -24354464.93147  20738432.8384   20738441.4544
      1811.1294       1411.2704
  22207650.7444  -22746346.22248 -17452318.16746  22207650.6794   22207659.2924
      3080.3914       2400.3034
  20743724.2984  -37354083.25849 -28856618.05247  20743724.3354   20743733.1874
     -1082.0344       -843.1434
 98  9 18  0 22  0.0000000  0  6G 4G22G19G16G18G14
  24142366.8554  -10278811.71647  -7748570.69845  24142366.7564   24142377.2124
       881.4754        686.8644
  21436124.9734  -19900634.79948 -15222145.21947  21436124.3074   21436132.9524
       324.1664        252.5974
  23382087.6744  -15745126.71248 -11664120.56846  23382087.7004   23382098.7644
      3418.9064       2664.0824
  20728158.7904  -31687812.60549 -24396535.22747  20728158.5164   20728167.5814
      1786.9754       1392.4494
  22190097.8074  -22838585.56048 -17524192.93046  22190097.6924   22190106.4174
      3067.8554       2390.5354
  20749969.1534  -37321268.17449 -28831047.89047  20749968.9704   20749977.7194
     -1106.8334       -862.4664
 98  9 18  0 22 30.0000000  0  6G 4G22G19G16G18G14
  24137357.9104  -10305132.69447  -7769080.54446  24137358.5294   24137369.5424
       871.4834        679.0784
  21434309.6734  -19910175.92148 -15229579.85047  21434309.0284   21434317.4164
       310.3274        241.8124
  23362561.9634  -15847733.87348 -11744074.09046  23362562.0584   23362573.1514
      3420.1924       2665.0804
  20717978.4514  -31741310.66549 -24438222.01547  20717978.0084   20717987.4864
      1777.8884       1385.3664
  22172569.9414  -22930695.33348 -17595966.73546  22172569.6324   22172578.7314
      3071.3974       2393.2954
  20756309.1474  -37287950.35049 -28805085.98247  20756308.8984   20756317.6004
     -1116.0234       -869.6284
 98  9 18  0 23  0.0000000  0  5G 4G22G19G18G14
  24132438.3774  -10330984.68647  -7789224.96545  24132439.0864   24132449.9964
       853.2484        664.8694
  21432604.7414  -19919135.11648 -15236561.03347  21432604.0624   21432612.4114
       288.1724        224.5504
  23343059.8814  -15950219.54748 -11823932.94946  23343059.8364   23343070.5394
      3413.5384       2659.8944
  22155053.2714  -23022747.34148 -17667695.52346  22155052.9934   22155061.5654
      3066.7584       2389.6794
  20762735.7394  -37254178.13249 -28778770.00847  20762735.6674   20762744.5374
     -1134.0994       -883.7134
 98  9 18  0 23 30.0000000  0  6G 4G22G19G16G18G14
  24127622.0504  -10356294.85247  -7808947.18945  24127622.1594   24127633.1894
       835.9994        651.4284
  21431024.4814  -19927438.70548 -15243031.36447  21431023.6794   21431032.2624
       267.4654        208.4144
  23323593.2124  -16052515.40448 -11903643.91946  23323592.9154   23323603.7514
      3408.2254       2655.7604
  20697880.0274     -60835.58259    -35805.58547  20697884.9694   20697894.7134
      1743.5694       1358.6274
  22137557.9144  -23114681.50648 -17739332.48846  22137558.0184   22137567.2954
      3064.2114       2387.6954
  20769262.6584  -37219880.22149 -28752044.39847  20769262.5294   20769271.3764
     -1150.3134       -896.3464
 98  9 18  0 24  0.0000000  0  6G 4G22G19G16G18G14
  24122901.2304  -10381106.88047  -7828281.25445  24122901.4244   24122912.4384
       819.4324        638.5104
  21429557.6354  -19935147.18948 -15249037.97247  21429556.9914   21429565.6434
       247.7734        193.0674
  23304151.3374  -16154680.61948 -11983253.08646  23304151.1064   23304162.6174
      3404.0724       2652.5214
  20687984.1774    -112877.46349    -76357.72147  20687982.6364   20687992.2014
      1727.1684       1345.8454
  22120073.9644  -23206561.89648 -17810927.54846  22120074.0334   22120082.8074
      3062.4594       2386.3284
  20775877.9774  -37185113.27349 -28724953.30847  20775878.0374   20775887.4184
     -1166.1264       -908.6704
 98  9 18  0 24 30.0000000  0  6G 4G22G19G16G18G14
  24118296.6854  -10405299.22147  -7847132.44245  24118297.1154   24118307.3104
       799.0554        622.6484
  21428229.7234  -19942126.03648 -15254476.03147  21428229.1664   21428237.4564
       223.2204        173.9384
  23284759.1034  -16256584.42348 -12062658.55146  23284759.4254   23284771.1754
      3395.1224       2645.5474
  20678200.4804    -164288.64249   -116418.36547  20678200.0584   20678208.9124
      1705.9704       1329.3274
  22102625.9864  -23298253.15548 -17882375.23046  22102625.8984   22102634.5774
      3055.9044       2381.2254
  20782607.0174  -37149751.08249 -28697398.39347  20782607.1074   20782616.4884
     -1185.5504       -923.8044
 98  9 18  0 25  0.0000000  0  6G 4G22G19G16G18G14
  24113779.3794  -10429037.65547  -7865629.93545  24113780.0914   24113790.2334
       783.4554        610.4874
  21427011.9054  -19948526.30848 -15259463.25247  21427011.0614   21427019.4684
       203.4284        158.5154
  23265390.6754  -16358368.37748 -12141970.62846  23265390.7874   23265402.7784
      3390.4674       2641.9184
  20668508.3664    -215219.66849   -156104.87047  20668508.0174   20668517.0154
      1689.6254       1316.5904
  22085186.1144  -23389896.00848 -17953785.19846  22085186.2374   22085195.1024
      3053.6314       2379.4514
  20789416.4994  -37113969.54549 -28669516.70947  20789416.5684   20789425.7334
     -1199.7514       -934.8694
 98  9 18  0 25 30.0000000  0  6G 4G22G19G16G18G14
  24109370.4654  -10452212.51947  -7883688.29245  24109370.2494   24109380.0334
       760.1884        592.3594
  21425926.0384  -19954233.45948 -15263910.37947  21425925.1274   21425933.6594
       175.8984        137.0644
  23246068.3154  -16459908.42448 -12221092.65146  23246068.6244   23246079.4184
      3377.4354       2631.7644
  20658927.1304    -265571.69249   -195340.20647  20658926.6034   20658935.3604
      1665.9624       1298.1534
  22067778.8574  -23481374.67148 -18025067.22346  22067778.6994   22067787.8314
      3043.5154       2371.5694
  20796324.1254  -37077671.23949 -28641232.34847  20796323.9954   20796332.9564
     -1221.4714       -951.7944
 98  9 18  0 26  0.0000000  0  6G 4G22G19G16G18G14
  24105052.7704  -10474897.82347  -7901365.16245  24105053.2464   24105063.5584
       750.2294        584.5904
  21424956.6944  -19959326.21648 -15267878.75847  21424956.0094   21424964.5564
       161.8374        126.1074
  23226783.2574  -16561253.06048 -12300062.40446  23226783.2134   23226794.2514
      3376.9164       2631.3624
  20649440.2634    -315423.61649   -234185.85347  20649439.9304   20649448.9184
      1655.6964       1290.1524
  22050392.3814  -23572742.43648 -18096262.82746  22050392.1824   22050401.3584
      3045.7584       2373.3174
  20803317.6624  -37040919.14249 -28612594.39247  20803317.3534   20803326.4754
     -1230.4924       -958.8224
 98  9 18  0 26 30.0000000  0  6G 4G22G19G16G18G14
  24100825.7544  -10497100.17247  -7918665.69445  24100827.0424   24100837.9704
       735.4534        573.0804
  21424101.8814  -19963816.72248 -15271377.84847  21424101.3784   21424109.8454
       143.4194        111.7554
  23207539.4424  -16662378.06848 -12378861.02046  23207539.3784   23207551.1654
      3370.4554       2626.3244
  20640046.1874    -364789.92549   -272653.09447  20640045.7554   20640055.0604
      1641.1974       1278.8544
  22033028.7394  -23663985.23548 -18167361.06846  22033028.9844   22033037.5284
      3042.8904       2371.0814
  20810396.2144  -37003719.58449 -28583607.76347  20810396.2654   20810405.5374
     -1243.8444       -969.2284
 98  9 18  0 27  0.0000000  0  6G 4G22G19G16G18G14
  24096690.5774  -10518839.16247  -7935605.17745  24096691.3174   24096701.9424
       715.7004        557.6834
  21423352.0924  -19967757.55148 -15274448.62347  21423351.5534   21423360.1324
       121.2974         94.5164
  23188334.2444  -16763301.54648 -12457502.59446  23188334.4244   23188345.8404
      3359.9164       2618.1144
  20630735.4164    -413718.60149   -310779.32047  20630734.9524   20630744.0994
      1622.7274       1264.4624
  22015682.6674  -23755143.62448 -18238393.53046  22015682.5284   22015690.5604
      3036.2844       2365.9344
  20817555.4584  -36966098.38849 -28554292.57947  20817555.4654   20817564.6854
     -1262.3954       -983.6844
 98  9 18  0 27 30.0000000  0  6G 4G22G19G16G18G14
  24092666.4144  -10539990.01747  -7952086.37845  24092666.8974   24092677.4114
       698.5364        544.3144
  21422726.1844  -19971046.36448 -15277011.33147  21422725.5874   21422734.2464
       102.1444         79.5924
  23169187.2054  -16863922.63548 -12535908.54046  23169187.1544   23169197.3374
      3352.3514       2612.2174
  20621528.1714    -462100.95549   -348479.84647  20621527.9624   20621537.2754
      1606.8534       1252.0934
  21998372.7904  -23846104.70548 -18309272.24146  21998372.7924   21998381.6474
      3031.8324       2362.4654
  20824821.7244  -36927916.50449 -28524540.50347  20824821.5394   20824830.3634
     -1278.9014       -996.5444
 98  9 18  0 28  0.0000000  0  6G 4G22G19G16G18G14
  24088741.8394  -10560613.89647  -7968156.94545  24088741.7854   24088753.6444
       679.0144        529.1044
  21422213.0594  -19973742.31748 -15279112.07147  21422212.5424   21422221.0234
        80.1834         62.4794
  23150083.9924  -16964310.09148 -12614132.43746  23150083.8514   23150094.3634
      3343.0684       2604.9854
  20612415.3454    -509989.98349   -385795.96347  20612415.1404   20612424.1704
      1588.3244       1237.6544
  21981092.4974  -23936913.66748 -18380032.40946  21981092.1764   21981100.9634
      3025.0084       2357.1464
  20832183.7004  -36889228.13649 -28494393.76647  20832183.6444   20832192.8714
     -1297.4914      -1011.0294
 98  9 18  0 28 30.0000000  0  6G 4G22G19G16G18G14
  24084924.1754  -10580677.32847  -7983790.80846  24084924.6124   24084935.4164
       660.3514        514.5614
  21421823.3424  -19975794.41748 -15280711.10147  21421822.5464   21421830.7234
        58.4234         45.5234
  23131025.5924  -17064462.04948 -12692172.82546  23131025.4184   23131036.0004
      3335.7304       2599.2664
  20603404.8194    -557341.56549   -422693.28747  20603404.3354   20603413.3894
      1570.1564       1223.4974
  21963844.0384  -24027555.73448 -18450662.53246  21963843.7984   21963852.1674
      3019.7254       2353.0314
  20839645.0134  -36850019.36949 -28463841.52347  20839644.8514   20839653.6814
     -1314.6874      -1024.4304
 98  9 18  0 29  0.0000000  0  6G 4G22G19G16G18G14
  24081221.8664  -10600130.43047  -7998949.09045  24081222.3354   24081232.9614
       638.1874        497.2914
  21421569.8544  -19977125.08648 -15281747.98447  21421569.0134   21421577.7304
        31.9464         24.8924
  23112015.4284  -17164358.47348 -12770014.09446  23112015.3754   23112026.4394
      3325.4864       2591.2824
  20594510.8854    -604079.36449   -459112.34247  20594510.5024   20594519.5144
      1547.3014       1205.6894
  21946633.9984  -24117991.95748 -18521132.27046  21946633.9544   21946642.8864
      3010.8504       2346.1144
  20847216.9574  -36810227.15949 -28432834.64747  20847216.8894   20847225.9414
     -1336.4454      -1041.3844
 98  9 18  0 29 30.0000000  0  6G 4G22G19G16G18G14
  24077602.8994  -10619152.59847  -8013771.57045  24077603.0924   24077612.4594
       627.5454        488.9954
  21421426.3034  -19977878.96649 -15282335.41447  21421425.6184   21421433.9174
        16.1164         12.5584
  23093025.1084  -17264154.60848 -12847777.21646  23093024.7874   23093036.2004
      3325.1864       2591.0524
  20585706.6914    -650346.09849   -495164.33247  20585706.3454   20585715.3624
      1535.0334       1196.1294
  21929435.2764  -24208373.87148 -18591559.69446  21929435.2404   21929443.6504
      3012.5394       2347.4294
  20854869.5414  -36770011.94549 -28401498.16047  20854869.6084   20854878.7334
     -1346.6724      -1049.3544
 98  9 18  0 30  0.0000000  0  6G 4G22G19G16G18G14
  24074076.6084  -10637674.21447  -8028204.01345  24074077.1004   24074088.8034
       609.6894        475.0854
  21421406.9424  -19977980.12549 -15282414.23047  21421406.1564   21421414.6724
        -6.6294         -5.1684
  23074071.7014  -17363756.42348 -12925388.92046  23074071.5684   23074082.7354
      3317.5194       2585.0764
  20577005.8024    -696069.28049   -530792.77347  20577005.4104   20577014.4794
      1515.7334       1181.0904
  21912257.8984  -24298641.79148 -18661898.28246  21912257.7384   21912266.6744
      3008.0254       2343.9154
  20862613.2294  -36729320.59249 -28369790.65647  20862613.2324   20862622.2654
     -1363.4574      -1062.4334
 98  9 18  0 30 30.0000000  0  6G 4G22G19G16G18G14
  24070640.0544  -10655736.85547  -8042278.79845  24070640.4664   24070651.2104
       593.8474        462.7404
  21421500.1434  -19977491.26549 -15282033.29447  21421499.3544   21421507.9044
       -26.2214        -20.4334
  23055148.0624  -17463199.99848 -13002877.32746  23055148.0434   23055159.5134
      3311.6344       2580.4914
  20568401.0624    -741286.92449   -566027.29147  20568400.7704   20568409.9024
      1498.4724       1167.6404
  21895089.9204  -24388858.34148 -18732196.84246  21895090.0304   21895098.9904
      3005.9624       2342.3074
  20870437.2194  -36688204.19049 -28337751.94947  20870437.2154   20870446.2824
     -1378.1324      -1073.8684
 98  9 18  0 31  0.0000000  0  6G 4G22G19G16G18G14
  24067310.3964  -10673233.30047  -8055912.40645  24067310.2084   24067322.2184
       571.9684        445.6854
  21421719.5104  -19976337.74349 -15281134.43547  21421718.8754   21421726.9634
       -51.0654        -39.7924
  23036277.2914  -17562365.22848 -13080148.83446  23036277.1814   23036288.9254
      3298.8684       2570.5434
  20559911.3674    -785901.51549   -600791.89947  20559911.0944   20559919.9304
      1475.6134       1149.8274
  21877952.7444  -24478918.03848 -18802373.17646  21877952.5564   21877961.1484
      2997.5514       2335.7534
  20878363.4584  -36646552.01449 -28305295.74747  20878363.5404   20878372.5344
     -1398.9044      -1090.0534
 98  9 18  0 31 29.9990000  0  6G 4G22G19G16G18G14
  24064079.1174  -10690220.53947  -8069149.23545  24064079.3104   24064089.6124
       560.6774        436.8914
  21422049.5884  -19974604.81449 -15279784.09347  21422048.8414   21422056.8914
       -64.1864        -50.0164
  23017452.7004  -17661287.36748 -13157230.91846  23017452.5804   23017464.3134
      3296.9174       2569.0244
  20551521.1294    -829993.61949   -635149.37647  20551520.6304   20551529.7194
      1464.2764       1140.9944
  21860834.9514  -24568868.68748 -18872464.54746  21860834.7714   21860844.0654
      2999.8594       2337.5534
  20886375.5964  -36604448.36649 -28272487.75247  20886375.5034   20886384.4694
     -1407.7284      -1096.9304
 98  9 18  0 31 59.9990000  0  6G 4G22G19G16G18G14
  24060940.2784  -10706711.54947  -8081999.39645  24060940.3384   24060950.7134
       540.2504        420.9754
  21422483.5674  -19972323.02949 -15278006.06247  21422482.9784   21422491.4664
       -86.5564        -67.4474
  22998664.0144  -17760023.34548 -13234167.94546  22998664.0354   22998675.3934
      3286.9844       2561.2834
  20543224.6124    -873590.75149   -669121.16047  20543224.1814   20543233.2254
      1443.5604       1124.8534
  21843733.2784  -24658735.62448 -18942490.67846  21843733.5164   21843742.7684
      2992.5984       2331.8924
  20894467.9704  -36561924.69349 -28239352.46947  20894467.8754   20894476.6044
     -1425.8534      -1111.0524
 98  9 18  0 32 29.9990000  0  6G 4G22G19G16G18G14
  24057895.2804  -10722710.03647  -8094465.75345  24057895.7234   24057907.1444
       522.9874        407.5234
  21423023.0604  -19969485.49748 -15275794.99847  21423022.4154   21423031.4754
      -106.0844        -82.6614
  22979910.0124  -17858576.86448 -13310962.80446  22979909.6264   22979920.3104
      3279.9724       2555.8214
  20535024.5634    -916682.59849   -702699.21447  20535024.0754   20535033.2454
      1425.9734       1111.1474
  21826652.9324  -24748496.88248 -19012434.47346  21826652.8584   21826661.6194
      2987.9634       2328.2814
  20902642.4164  -36518966.75349 -28205878.79247  20902642.3964   20902651.2334
     -1441.4374      -1123.1964
 98  9 18  0 32 59.9990000  0  6G 4G22G19G16G18G14
  24054964.4374  -10738110.93447  -8106466.45345  24054964.4904   24054975.5474
       506.6654        394.8034
  21423693.8614  -19965959.62248 -15273047.56147  21423693.3894   21423702.0584
      -126.0654        -98.2324
  22961213.4374  -17956827.44848 -13387521.61046  22961213.1304   22961223.9804
      3273.0544       2550.4274
  20526941.8134    -959157.32049   -735796.39247  20526941.3194   20526950.2724
      1408.7194       1097.7034
  21809618.5344  -24838013.34748 -19082187.50846  21809618.4924   21809627.3624
      2982.8034       2324.2604
  20910925.0044  -36475442.38249 -28171963.73847  20910924.8664   20910933.5544
     -1457.0734      -1135.3814
 98  9 18  0 33 29.9990000  0  6G 4G22G19G16G18G14
  24052124.3914  -10753038.99347  -8118098.71545  24052124.5954   24052134.4964
       490.5754        382.2664
  21424476.3644  -19961849.00448 -15269844.46947  21424475.5644   21424484.3564
      -145.8544       -113.6534
  22942551.2844  -18054895.05248 -13463937.83746  22942551.2654   22942562.6784
      3267.0424       2545.7444
  20518953.6544   -1001134.41749   -768505.81147  20518953.2574   20518962.2314
      1391.7644       1084.4924
  21792609.0484  -24927396.94848 -19151837.01446  21792609.1344   21792617.7874
      2978.3684       2320.8044
  20919292.3574  -36431472.29549 -28137701.37847  20919292.1234   20919300.5204
     -1472.1994      -1147.1674
 98  9 18  0 33 59.9990000  0  6G 4G22G19G16G18G14
  24049379.4944  -10767456.71947  -8129333.32545  24049379.8794   24049391.5184
       468.1934        364.8254
  21425378.6854  -19957109.24748 -15266151.14647  21425377.7874   21425386.3544
      -172.5174       -134.4304
  22923930.1894  -18152749.89348 -13540188.27446  22923930.1384   22923941.0124
      3253.9474       2535.5414
  20511067.8314   -1042572.51649   -800795.23347  20511067.5624   20511076.9834
      1368.5324       1066.3884
  21775629.6174  -25016627.85448 -19221367.53146  21775629.3324   21775637.6564
      2967.8584       2312.6164
  20927753.0054  -36387009.63149 -28103055.19247  20927753.0944   20927761.4724
     -1494.3864      -1164.4564
 98  9 18  0 34 29.9990000  0  6G 4G22G19G16G18G14
  24046743.7814  -10781313.97947  -8140131.19145  24046744.3714   24046754.6834
       453.4204        353.3114
  21426412.2794  -19951675.46748 -15261917.02247  21426411.5734   21426420.0424
      -191.6654       -149.3494
  22905366.3894  -18250300.52548 -13616201.67446  22905366.5554   22905377.3144
      3247.3654       2530.4094
  20503295.0974   -1083420.43849   -832624.77547  20503294.6074   20503303.8494
      1352.5034       1053.8984
  21758687.8394  -25105652.88048 -19290737.61946  21758687.9784   21758697.2804
      2965.0774       2310.4464
  20936320.6914  -36341987.14949 -28067972.78147  20936320.6394   20936329.1794
     -1509.0664      -1175.8954
 98  9 18  0 34 59.9990000  0  6G 4G22G19G16G18G14
  24044223.7114  -10794558.78447  -8150451.82145  24044223.7814   24044235.5784
       435.3404        339.2254
  21427586.4834  -19945504.36548 -15257108.36547  21427585.9264   21427594.6164
      -213.6924       -166.5134
  22886871.4264  -18347491.27448 -13691934.64746  22886871.5654   22886882.2104
      3238.1734       2523.2504
  20495645.8024   -1123617.09749   -863946.84147  20495645.6344   20495654.7994
      1333.4014       1039.0144
  21741793.9444  -25194430.03548 -19359914.55446  21741793.7874   21741803.3104
      2959.5434       2306.1364
  20945000.7734  -36296371.04949 -28032427.81247  20945000.8354   20945009.4834
     -1525.8444      -1188.9684
 98  9 18  0 35 29.9990000  0  6G 4G22G19G16G18G14
  24041778.4814  -10807405.48247  -8160462.24945  24041779.0284   24041790.0004
       419.2504        326.6884
  21428858.2174  -19938823.66148 -15251902.62047  21428857.5044   21428865.7714
      -233.5734       -182.0054
  22868401.2164  -18444556.01748 -13767569.43146  22868401.0654   22868411.8524
      3231.0184       2517.6744
  20488077.3814   -1163389.46549   -894938.29347  20488077.1544   20488086.2824
      1316.0524       1025.4954
  21724902.6304  -25283194.38548 -19429081.51946  21724902.7124   21724911.4704
      2956.1144       2303.4644
  20953748.0084  -36250407.60049 -27996612.18247  20953747.9504   20953756.0974
     -1540.3014      -1200.2314
 98  9 18  0 35 59.9990000  0  6G 4G22G19G16G18G14
  24039440.0134  -10819694.77447  -8170038.32645  24039440.3004   24039451.2704
       404.6474        315.3074
  21430260.3834  -19931452.41048 -15246158.78147  21430259.8394   21430268.5754
      -253.0524       -197.1844
  22849987.8814  -18541314.88948 -13842965.87946  22849988.1794   22849999.4944
      3224.4404       2512.5474
  20480626.2314   -1202546.29549   -925450.10447  20480625.9854   20480634.7684
      1299.1404       1012.3164
  21708050.2034  -25371756.81448 -19498091.14446  21708049.8924   21708058.9124
      2952.6364       2300.7554
  20962594.2894  -36203918.44349 -27960386.90747  20962594.2494   20962602.8764
     -1554.3374      -1211.1714
 98  9 18  0 36 29.9990000  0  6G 4G22G19G16G18G14
  24037196.1364  -10831490.03547  -8179229.44945  24037196.5964   24037206.2874
       382.0834        297.7254
  21431782.4584  -19923455.72048 -15239927.58547  21431781.6834   21431790.3494
      -279.2754       -217.6174
  22831620.6344  -18637838.41948 -13918178.94046  22831620.4054   22831631.6774
      3211.3274       2502.3304
  20473281.9954   -1241140.27249   -955523.33147  20473281.6444   20473290.6654
      1274.3304        992.9844
  21691226.9934  -25460162.23348 -19566978.42946  21691226.8624   21691235.7774
      2941.5884       2292.1444
  20971529.2604  -36156963.37649 -27923798.58747  20971529.3264   20971538.2234
     -1575.4484      -1227.6214
 98  9 18  0 36 59.9990000  0  6G 4G22G19G16G18G14
  24035038.2214  -10842824.36947  -8188061.40545  24035038.3534   24035049.6984
       370.7784        288.9214
  21433411.3434  -19914897.08549 -15233258.51447  21433410.7254   21433419.0474
      -293.9344       -229.0404
  22813282.8444  -18734203.70948 -13993268.69146  22813282.6564   22813294.0354
      3210.4894       2501.6784
  20466035.3874   -1279220.08849   -985195.91147  20466035.1354   20466044.2614
      1261.8204        983.2374
  21674427.2644  -25548450.20248 -19635774.19147  21674426.9704   21674435.3314
      2941.6534       2292.1954
  20980543.5544  -36109595.80849 -27886888.83447  20980543.3134   20980552.1464
     -1584.9794      -1235.0494
 98  9 18  0 37 29.9990000  0  6G 4G22G19G16G18G14
  24032980.5854  -10853634.68647  -8196485.04845  24032981.2104   24032992.7564
       349.2824        272.1704
  21435159.3174  -19905711.92149 -15226101.24047  21435158.7114   21435166.8284
      -318.8734       -248.4734
  22794986.9914  -18830349.31948 -14068187.27846  22794987.0954   22794997.9454
      3198.8354       2492.5974
  20458897.4434   -1316732.20849  -1014426.13247  20458897.0484   20458905.9804
      1238.4534        965.0284
  21657661.9404  -25636548.40448 -19704422.09647  21657661.8154   21657670.7984
      2931.1524       2284.0144
  20989648.6594  -36061746.48749 -27849603.69647  20989648.5844   20989657.5924
     -1605.3584      -1250.9284
 98  9 18  0 37 59.9990000  0  6G 4G22G19G16G18G14
  24031038.1074  -10863849.11047  -8204444.36145  24031038.1314   24031048.9444
       330.0554        257.1864
  21437038.8324  -19895834.14348 -15218404.26747  21437038.1654   21437046.4304
      -340.7034       -265.4844
  22776747.0594  -18926198.40248 -14142874.79646  22776746.9614   22776757.9904
      3190.0494       2485.7504
  20451881.0444   -1353602.57249  -1043156.29047  20451880.6304   20451890.0224
      1218.4234        949.4194
  21640945.2704  -25724394.23848 -19772873.34847  21640945.1494   21640954.2434
      2924.0964       2278.5164
  20998859.1874  -36013343.64249 -27811887.23647  20998859.1824   20998868.4604
     -1622.6974      -1264.4374
 98  9 18  0 38 29.9990000  0  6G 4G22G19G16G18G14
  24029178.1504  -10873619.97247  -8212058.01445  24029178.9784   24029189.8904
       317.0044        247.0184
  21439012.7664  -19885458.55648 -15210319.38547  21439012.5424   21439020.7494
      -355.3614       -276.9064
  22758528.5184  -19021937.44348 -14217476.56346  22758528.6884   22758539.4404
      3188.1734       2484.2874
  20444950.7394   -1390023.37349  -1071536.13447  20444950.1524   20444959.2704
      1205.3354        939.2234
  21624239.5724  -25812183.53848 -19841280.54847  21624239.3364   21624248.4674
      2924.2084       2278.6024
  21008139.9364  -35964574.77449 -27773885.57047  21008139.9364   21008148.9654
     -1632.7784      -1272.2924
 98  9 18  0 38 59.9990000  0  6G 4G22G19G16G18G14
  24027416.4794  -10882879.21547  -8219273.01745  24027417.1984   24027427.9484
       301.7514        235.1314
  21441097.7004  -19874503.95848 -15201783.32747  21441097.1404   21441105.5124
      -373.5334       -291.0644
  22740348.1374  -19117478.75648 -14291924.26046  22740347.9734   22740358.3814
      3182.8724       2480.1544
  20438118.6644   -1425923.81749  -1099510.51147  20438118.3964   20438127.7064
      1189.5304        926.9064
  21607558.5784  -25899843.57048 -19909587.01647  21607558.5344   21607567.1024
      2921.3614       2276.3834
  21017502.9004  -35915374.00849 -27735547.36147  21017502.7664   21017511.8624
     -1645.6744      -1282.3434
 98  9 18  0 39 29.9990000  0  6G 4G22G19G16G18G14
  24025750.5524  -10891630.81047  -8226092.45045  24025751.5644   24025762.2904
       284.9314        222.0174
  21443296.4634  -19862949.01248 -15192779.46647  21443295.8774   21443304.2764
      -393.5534       -306.6644
  22722207.0314  -19212808.49648 -14366207.09646  22722207.1574   22722217.7084
      3175.6804       2474.5524
  20431389.2964   -1461286.58449  -1127065.91847  20431388.9204   20431398.7264
      1171.1134        912.5564
  21590902.2284  -25987372.40348 -19977791.25947  21590902.1234   21590911.4034
      2917.1124       2273.0724
  21026948.5364  -35865737.44149 -27696869.56647  21026948.3694   21026957.5744
     -1660.3644      -1293.7884
 98  9 18  0 39 59.9990000  0  6G 4G22G19G16G18G14
  24024182.1004  -10899877.13547  -8232518.16945  24024182.6794   24024193.2784
       261.0964        203.4524
  21445610.4894  -19850789.20848 -15183304.28847  21445609.7904   21445618.2954
      -420.7774       -327.8774
  22704108.2004  -19307919.11448 -14440319.17446  22704108.1734   22704118.5164
      3161.3094       2463.3544
  20424765.5564   -1496095.56949  -1154189.80347  20424765.1884   20424774.7344
      1145.7454        892.7884
  21574270.8064  -26074767.65948 -20045891.42047  21574270.9614   21574280.1584
      2905.3824       2263.9324
  21036479.6344  -35815650.07449 -27657840.49947  21036479.6954   21036489.2004
     -1682.6414      -1311.1474
 98  9 18  0 40 29.9990000  0  6G 4G22G19G16G18G14
  24022725.8554  -10907530.61947  -8238481.95645  24022726.0514   24022737.1244
       249.9874        194.7974
  21448059.5724  -19837918.76948 -15173275.37347  21448058.8254   21448067.4134
      -436.4284       -340.0724
  22686070.6784  -19402706.62148 -14514179.48446  22686070.4104   22686081.0904
      3158.6174       2461.2564
  20418266.2514   -1530250.27649  -1180803.86547  20418265.9104   20418275.1024
      1132.0994        882.1564
  21557688.9524  -26161909.68748 -20113794.26247  21557688.5534   21557697.0094
      2904.9434       2263.5924
  21046118.2604  -35764999.65449 -27618372.69847  21046118.1654   21046127.5884
     -1693.2184      -1319.3884
 98  9 18  0 40 59.9990000  0  6G 4G22G19G16G18G14
  24021355.2874  -10914730.66047  -8244092.39145  24021355.7654   24021365.0194
       232.2224        180.9544
  21450621.2684  -19824456.94748 -15162785.63847  21450620.6024   21450629.0544
      -458.5704       -357.3264
  22668073.2174  -19497282.25948 -14587874.69746  22668073.2484   22668083.4494
      3148.9054       2453.6894
  20411868.8424   -1563869.65249  -1207000.78347  20411868.3304   20411877.4994
      1111.4884        866.0954
  21541133.7044  -26248905.17848 -20181582.92146  21541133.7894   21541142.1014
      2897.1504       2257.5194
  21055841.9934  -35713901.14349 -27578555.73147  21055841.9764   21055851.1884
     -1710.9824      -1333.2314
 98  9 18  0 41 29.9990000  0  6G 4G22G19G16G18G14
  24020059.1344  -10921540.88547  -8249399.09545  24020059.4774   24020068.5294
       220.7184        171.9914
  21453281.9914  -19810474.04348 -15151889.86847  21453281.3814   21453289.7814
      -474.6264       -369.8384
  22650105.4744  -19591702.38448 -14661448.72846  22650105.5814   22650116.2164
      3144.6384       2450.3664
  20405563.6104   -1597005.68349  -1232821.07147  20405562.8464   20405571.9024
      1096.5554        854.4584
  21524597.1894  -26335806.13648 -20249297.92246  21524596.9924   21524605.3964
      2895.3844       2256.1404
  21065641.1814  -35662406.62149 -27538430.17847  21065641.1664   21065650.2204
     -1722.9634      -1342.5674
 98  9 18  0 41 59.9990000  0  6G 4G22G19G16G18G14
  24018860.2154  -10927848.48847  -8254314.13445  24018860.3064   24018870.1284
       202.5704        157.8524
  21456064.7314  -19795851.79448 -15140495.90147  21456064.0924   21456072.3614
      -497.1784       -387.4134
  22632192.9504  -19685835.34748 -14734799.00646  22632192.9494   22632203.3634
      3133.9814       2442.0574
  20399371.0224   -1629545.51449  -1258176.78747  20399370.6164   20399379.6674
      1075.8404        838.3164
  21508099.8514  -26422500.97448 -20316852.30847  21508099.5574   21508108.2644
      2887.2694       2249.8184
  21075537.3824  -35610400.65849 -27497906.10147  21075537.4254   21075546.7164
     -1740.8404      -1356.4984
 98  9 18  0 42 29.9990000  0  6G 4G22G19G16G18G14
  24017752.5934  -10933663.88147  -8258845.64745  24017752.7224   24017764.0054
       185.3164        144.4074
  21458964.7824  -19780611.99849 -15128620.72647  21458964.2784   21458972.5204
      -518.2974       -403.8674
  22614328.2104  -19779713.16048 -14807950.46146  22614328.3224   22614338.5934
      3125.0724       2435.1204
  20393285.8324   -1661522.93249  -1283094.25547  20393285.5244   20393294.4084
      1056.4084        823.1764
  21491636.8914  -26509010.54048 -20384262.32247  21491637.0244   21491645.9214
      2880.5794       2244.6054
  21085522.4184  -35557928.41549 -27457018.69047  21085522.4464   21085531.7674
     -1756.7424      -1368.8884
 98  9 18  0 42 59.9990000  0  6G 4G22G19G16G18G14
  24016742.3664  -10938966.24647  -8262977.38545  24016743.2884   24016755.2784
       169.2214        131.8614
  21461983.4524  -19764750.04948 -15116260.76447  21461982.6944   21461990.9284
      -537.9094       -419.1514
  22596512.7224  -19873335.02348 -14880902.47146  22596512.8044   22596523.0654
      3117.6084       2429.3034
  20387312.7714   -1692913.02449  -1307554.06747  20387312.3334   20387321.1014
      1037.4744        808.4224
  21475212.3604  -26595325.21948 -20451520.47647  21475212.3554   21475220.8404
      2874.9904       2240.2504
  21095596.5314  -35504990.81049 -27415768.65747  21095596.4964   21095605.3204
     -1771.0964      -1380.0734
 98  9 18  0 43 29.9990000  0  6G 4G22G19G16G18G14
  24015817.0564  -10943836.47747  -8266772.37845  24015816.8184   24015827.9354
       151.5834        118.1194
  21465102.9954  -19748355.44748 -15103485.74747  21465102.2774   21465110.7074
      -558.8454       -435.4664
  22578728.6154  -19966794.18548 -14953727.70846  22578728.2714   22578738.1874
      3109.1744       2422.7314
  20381436.0124   -1723794.32849  -1331617.42447  20381435.7014   20381444.5704
      1017.5174        792.8694
  21458806.6924  -26681539.93048 -20518700.73347  21458806.4484   21458814.5814
      2868.7964       2235.4254
  21105738.2644  -35451694.44749 -27374239.07147  21105738.3174   21105747.6954
     -1785.7154      -1391.4654
 98  9 18  0 43 59.9990000  0  6G 4G22G19G16G18G14
  24014997.3244  -10948149.68347  -8270133.36345  24014997.6164   24015006.9314
       132.4564        103.2084
  21468343.9844  -19731325.30748 -15090215.49647  21468343.1214   21468351.5734
      -579.8424       -451.8264
  22560993.0424  -20059991.86648 -15026349.19746  22560993.0314   22561003.3574
      3100.5784       2416.0344
  20375676.2894   -1754062.68949  -1355203.16347  20375676.0304   20375684.9744
       997.0774        776.9434
  21442440.6374  -26767543.74748 -20585716.64947  21442440.5344   21442448.6164
      2861.2304       2229.5304
  21115965.4294  -35397952.05249 -27332361.93647  21115965.2534   21115974.6274
     -1800.5234      -1403.0034
 98  9 18  0 44 29.9990000  0  6G 4G22G19G16G18G14
  24014278.3734  -10951923.83047  -8273074.28945  24014278.8764   24014289.6894
       117.4814         91.5454
  21471696.8864  -19713704.69649 -15076485.14347  21471696.3464   21471704.9284
      -596.4724       -464.7854
  22543301.5534  -20152962.33248 -15098793.63546  22543301.5504   22543311.6394
      3095.7574       2412.2764
  20370027.2784   -1783749.48049  -1378335.72547  20370026.7614   20370035.9944
       980.4224        763.9644
  21426113.4414  -26853343.34348 -20652573.43047  21426113.2284   21426121.2414
      2857.2264       2226.4074
  21126271.3344  -35343796.03349 -27290162.49647  21126271.0194   21126279.9364
     -1811.5964      -1411.6324
 98  9 18  0 44 59.9990000  0  6G 4G22G19G16G18G14
  24013658.5014  -10955175.77147  -8275608.28745  24013658.8164   24013670.6924
        95.7074         74.5734
  21475159.4194  -19695508.16848 -15062306.03147  21475158.7534   21475167.2744
      -620.2854       -483.3404
  22525653.5094  -20245701.78348 -15171058.06546  22525653.6394   22525663.4814
      3083.2494       2402.5304
  20364488.0994   -1812855.16949  -1401015.47747  20364487.7094   20364497.2224
       956.5844        745.3894
  21409822.7794  -26938947.99748 -20719278.30447  21409822.6674   21409831.5064
      2846.1954       2217.8134
  21136654.5654  -35289229.79149 -27247643.39947  21136654.5454   21136663.5064
     -1829.7734      -1425.7954
 98  9 18  0 45 29.9990000  0  6G 4G22G19G16G18G14
  24013135.8204  -10957921.43947  -8277747.78545  24013136.6824   24013147.5914
        84.7334         66.0284
  21478731.5504  -19676733.19548 -15047676.18147  21478731.2664   21478739.5934
      -634.0454       -494.0614
  22508051.1804  -20338204.19748 -15243137.78446  22508051.2114   22508060.8084
      3080.9864       2400.7654
  20359055.2944   -1841406.96549  -1423263.63247  20359054.9214   20359064.1314
       944.2004        735.7404
  21393566.7494  -27024375.27448 -20785844.95747  21393566.7944   21393575.6874
      2846.3814       2217.9574
  21147116.3804  -35234253.27549 -27204804.61047  21147116.4284   21147125.4904
     -1838.0704      -1432.2614
 98  9 18  0 45 59.9990000  0  6G 4G22G19G16G18G14
  24012709.2134  -10960167.06747  -8279497.64445  24012709.8304   24012720.1844
        66.2264         51.6074
  21482420.0424  -19657354.42348 -15032575.83647  21482419.1674   21482427.7614
      -656.6994       -511.7144
  22490495.0314  -20430458.70448 -15315024.32646  22490494.9614   22490505.4224
      3070.4284       2392.5414
  20353727.2974   -1869404.51649  -1445079.90447  20353726.9314   20353736.3554
       923.5574        719.6554
  21377343.6844  -27109627.42148 -20852275.15147  21377343.4304   21377352.4384
      2838.4404       2211.7704
  21157663.7774  -35178828.45349 -27161616.49447  21157663.5274   21157672.6454
     -1855.8574      -1446.1204
 98  9 18  0 46 29.9990000  0  6G 4G22G19G16G18G14
  24012379.8674  -10961891.46947  -8280841.37745  24012380.8894   24012392.0574
        49.6584         38.6994
  21486233.4014  -19637313.61648 -15016959.62147  21486232.8894   21486241.5144
      -678.3744       -528.6034
  22472997.5574  -20522409.13848 -15386673.93046  22472997.5604   22473007.5494
      3060.5954       2384.8764
  20348512.9264   -1896805.86749  -1466431.60647  20348512.6104   20348521.9774
       903.9874        704.4064
  21361159.6644  -27194675.09748 -20918546.01547  21361159.6664   21361168.1214
      2832.4504       2207.1034
  21168309.7494  -35122880.67149 -27118020.87647  21168309.9004   21168319.4084
     -1873.0044      -1459.4814
 98  9 18  0 46 59.9990000  0  6G 4G22G19G16G18G14
  24012132.0324  -10963193.20947  -8281855.76045  24012132.4774   24012144.3164
        36.5954         28.5164
  21490157.9254  -19616692.88648 -15000891.51947  21490156.9964   21490165.6054
      -696.7504       -542.9234
  22455542.1434  -20614136.15448 -15458149.44346  22455542.3004   22455552.5084
      3054.1064       2379.8204
  20343399.7534   -1923677.47749  -1487370.52747  20343399.2704   20343408.5144
       887.0544        691.2114
  21344995.7114  -27279617.17548 -20984734.59547  21344995.6374   21345003.9424
      2829.8164       2205.0494
  21179041.1034  -35066485.57948 -27074076.70247  21179041.1724   21179051.0474
     -1887.0734      -1470.4444
 98  9 18  0 47 29.9990000  0  6G 4G22G19G16G18G14
  24011973.3574  -10964041.98747  -8282517.18445  24011973.4574   24011983.7664
        13.3474         10.4014
  21494196.4684  -19595467.43948 -14984352.20947  21494195.7454   21494204.6794
      -724.6834       -564.6884
  22438135.5314  -20705608.48748 -15529426.50046  22438135.6174   22438145.4264
      3037.7014       2367.0364
  20338393.8334   -1949984.44049  -1507869.46147  20338393.1574   20338402.3004
       860.0144        670.1404
  21328858.8394  -27364420.50048 -21050815.05147  21328858.4624   21328866.5804
      2817.1004       2195.1404
  21189865.4174  -35009605.07448 -27029754.28447  21189865.3044   21189874.8284
     -1911.3064      -1489.3284
 98  9 18  0 47 59.9990000  0  6G 4G22G19G16G18G14
  24011918.6694  -10964320.63647  -8282734.36145  24011918.7744   24011929.8474
         6.5714          5.1214
  21498368.5454  -19573543.36248 -14967268.51347  21498367.8324   21498376.6384
      -735.1314       -572.8294
  22420795.8454  -20796729.89848 -15600430.10646  22420795.8604   22420805.6784
      3038.6394       2367.7694
  20333518.6134   -1975601.41149  -1527830.74247  20333518.2924   20333527.5044
       849.4544        661.9134
  21312770.4634  -27448961.55048 -21116691.14147  21312770.5694   21312779.1104
      2820.4804       2197.7754
  21200799.5834  -34952147.21748 -26984981.98147  21200799.4714   21200808.6324
     -1917.3774      -1494.0584
 98  9 18  0 48 29.9990000  0  6G 4G22G19G16G18G14
  24011926.7054  -10964279.47747  -8282702.32345  24011926.9754   24011938.0184
        -7.3794         -5.7564
  21502619.7114  -19551202.50548 -14949860.05347  21502619.2444   21502627.7814
      -752.0234       -585.9934
  22403472.7794  -20887764.33948 -15671365.94246  22403472.5654   22403482.1914
      3032.7424       2363.1724
  20328727.1434   -2000780.21649  -1547450.59647  20328726.9034   20328736.1054
       831.2534        647.7304
  21296686.6164  -27533482.19848 -21182551.33847  21296686.6694   21296695.2844
      2816.4174       2194.6084
  21211785.8284  -34894414.63848 -26939995.60947  21211785.6614   21211794.6694
     -1929.0864      -1503.1824
 98  9 18  0 48 59.9990000  0  6G 4G22G19G16G18G14
  24012026.0624  -10963759.68447  -8282297.33645  24012026.7354   24012037.0304
       -25.5684        -19.9234
  21506976.7514  -19528308.28448 -14932020.39547  21506975.7494   21506984.4584
      -772.6594       -602.0734
  22386189.1944  -20978587.26848 -15742136.96646  22386189.4164   22386199.2344
      3023.7474       2356.1634
  20324048.7524   -2025367.35949  -1566609.41147  20324048.2654   20324057.7084
       809.6444        630.8924
  21280636.3014  -27617824.96748 -21248272.93147  21280636.2994   21280645.1154
      2808.0404       2188.0814
  21222845.5574  -34836292.46648 -26894705.66647  21222845.4514   21222855.0924
     -1944.0244      -1514.8224
 98  9 18  0 49 29.9990000  0  6G 4G22G19G16G18G14
  24012216.0264  -10962755.94347  -8281515.23445  24012216.7534   24012228.4674
       -41.9444        -32.6814
  21511440.1984  -19504850.51248 -14913741.60547  21511439.6144   21511448.2304
      -791.8714       -617.0424
  22368946.4004  -21069199.08648 -15812743.49046  22368946.3894   22368956.6804
      3016.4604       2350.4854
  20319480.7404   -2049372.97249  -1585315.08547  20319480.1784   20319489.6634
       790.1554        615.7054
  21264622.8234  -27701977.05348 -21313845.94247  21264622.7744   21264631.1104
      2801.4794       2182.9694
  21233978.3344  -34777789.82048 -26849119.24147  21233978.3084   21233987.3164
     -1956.6654      -1524.6724
 98  9 18  0 49 59.9990000  0  6G 4G22G19G16G18G14
  24012509.9414  -10961214.98847  -8280314.52845  24012510.8154   24012521.6524
       -59.6474        -46.4754
  21516024.2694  -19480761.82448 -14894971.19247  21516023.5784   21516032.1774
      -812.8674       -633.4044
  22351754.2594  -21159543.32748 -15883141.51046  22351754.3084   22351764.6954
      3007.4434       2343.4594
  20315032.3764   -2072746.44749  -1603528.19147  20315032.1774   20315041.6824
       769.3094        599.4614
  21248656.7884  -27785877.77048 -21379223.07947  21248656.7804   21248665.3144
      2793.2274       2176.5384
  21245190.1214  -34718870.79548 -26803208.36547  21245190.0544   21245199.5774
     -1970.3014      -1535.2994
 98  9 18  0 50 29.9990000  0  6G 4G22G19G16G18G14
  24012890.2274  -10959224.17547  -8278763.28045  24012890.1724   24012900.1044
       -73.6634        -57.3954
  21520715.1674  -19456110.88748 -14875762.66147  21520714.4154   21520723.0324
      -830.9764       -647.5154
  22334601.9784  -21249679.24148 -15953377.20146  22334601.9204   22334612.3314
      3001.1654       2338.5674
  20310689.9644   -2095566.82449  -1621310.30947  20310689.6854   20310699.1444
       751.5394        585.6154
  21232722.7444  -27869612.29848 -21444470.72247  21232722.8334   21232731.3074
      2788.6674       2172.9864
  21256470.3534  -34659594.09348 -26757018.79247  21256470.3034   21256480.0194
     -1982.0944      -1544.4864
 98  9 18  0 50 59.9990000  0  6G 4G22G19G16G18G14
  24013360.8224  -10956746.06047  -8276832.31045  24013361.2254   24013371.3144
       -90.0084        -70.1354
  21525521.0244  -19430855.28848 -14856082.96547  21525520.3454   21525529.0864
      -851.3194       -663.3654
  22317499.4994  -21339553.58848 -16023409.07846  22317499.4864   22317509.8754
      2991.6964       2331.1894
  20306460.4584   -2117793.09949  -1638629.48647  20306460.2124   20306469.8314
       731.5574        570.0464
  21216826.9194  -27953146.89948 -21509562.57947  21216826.8324   21216835.5354
      2781.6984       2167.5554
  21267832.5064  -34599885.49448 -26710492.67147  21267832.5334   21267841.8944
     -1997.0224      -1556.1194
 98  9 18  0 51 29.9990000  0  6G 4G22G19G16G18G14
  24013923.3684  -10953788.83347  -8274528.02245  24013923.5084   24013934.4584
      -107.6154        -83.8574
  21530441.1814  -19405000.17148 -14835936.11047  21530440.6344   21530449.1654
      -872.7734       -680.0824
  22300449.7034  -21429151.62448 -16093225.64646  22300449.4794   22300459.7724
      2981.1334       2322.9594
  20302342.5474   -2139434.66649  -1655493.05447  20302342.2034   20302351.6634
       710.7904        553.8634
  21200967.8824  -28036487.95048 -21574503.61947  21200967.5334   21200976.1544
      2773.8894       2161.4724
  21279278.0664  -34539740.58148 -26663626.55647  21279277.6754   21279286.8994
     -2013.0854      -1568.6374
 98  9 18  0 51 59.9990000  0  6G 4G22G19G16G18G14
  24014570.4544  -10950388.32147  -8271878.32045  24014570.7424   24014581.4054
      -119.9584        -93.4714
  21535467.7114  -19378584.66048 -14815352.58547  21535467.1584   21535475.6594
      -888.9344       -692.6784
  22283444.4984  -21518514.57948 -16162859.03846  22283444.4124   22283454.4714
      2975.6364       2318.6744
  20298327.8954   -2160532.16649  -1671932.66947  20298327.4794   20298336.8744
       694.9864        541.5474
  21185138.8714  -28119668.11048 -21639319.30147  21185138.9244   21185147.2724
      2770.8364       2159.0924
  21290801.4284  -34479185.05348 -26616440.48447  21290801.2994   21290810.2544
     -2024.7514      -1577.7264
 98  9 18  0 52 29.9990000  0  6G 4G22G19G16G18G14
  24015310.5644  -10946495.63547  -8268845.08245  24015311.3214   24015323.2574
      -136.6964       -106.5134
  21540607.3454  -19351576.59248 -14794307.32947  21540606.6474   21540615.2364
      -908.5734       -707.9784
  22266490.4944  -21607604.45348 -16232279.65146  22266490.5444   22266501.4874
      2966.7044       2311.7144
  20294425.6544   -2181038.61649  -1687911.72647  20294425.1464   20294434.5434
       675.0644        526.0264
  21169348.4974  -28202647.06348 -21703978.19347  21169348.4104   21169356.9244
      2763.9604       2153.7344
  21302414.6054  -34418158.18748 -26568887.14347  21302414.3874   21302423.9254
     -2040.5014      -1589.9994
 98  9 18  0 52 59.9990000  0  6G 4G22G19G16G18G14
  24016138.6454  -10942148.25547  -8265457.53345  24016139.0164   24016151.2354
      -152.3724       -118.7304
  21545847.0784  -19324041.38748 -14772851.32347  21545846.4244   21545855.0104
      -926.5134       -721.9584
  22249578.7954  -21696479.34248 -16301532.73646  22249578.6884   22249589.1404
      2959.2554       2305.9104
  20290625.5844   -2201006.30949  -1703470.97847  20290625.1764   20290634.6564
       656.8934        511.8654
  21153589.1864  -28285462.28548 -21768509.49947  21153589.0394   21153597.4204
      2757.6854       2148.8454
  21314103.5194  -34356732.83148 -26521023.29347  21314103.4794   21314113.5674
     -2053.6994      -1600.2834
 98  9 18  0 53 29.9990000  0  6G 4G22G19G16G18G14
  24017051.7584  -10937348.98447  -8261717.90145  24017052.2474   24017062.0984
      -170.1604       -132.5914
  21551187.3564  -19295976.58648 -14750982.64747  21551186.7444   21551195.6554
      -947.0254       -737.9414
  22232703.4424  -21785158.76748 -16370633.51846  22232703.5354   22232713.7584
      2950.2164       2298.8674
  20286926.8204   -2220444.24749  -1718617.43147  20286926.4954   20286935.6794
       636.4484        495.9324
  21137863.4024  -28368102.35648 -21832904.33147  21137863.3244   21137871.2534
      2749.1874       2142.2224
  21325864.4434  -34294926.95748 -26472862.93447  21325864.4934   21325874.4054
     -2069.2394      -1612.3914
 98  9 18  0 53 59.9990000  0  6G 4G22G19G16G18G14
  24018053.0434  -10932090.65247  -8257620.54045  24018052.9244   24018063.8924
      -184.7304       -143.9474
  21556631.0874  -19267369.78548 -14728691.64147  21556630.4274   21556639.3034
      -964.2334       -751.3504
  22215867.1574  -21873631.22148 -16439573.02446  22215867.3384   22215877.8364
      2943.7274       2293.8114
  20283333.4584   -2239325.60349  -1733330.18547  20283333.1334   20283342.6784
       618.1094        481.6444
  21122172.8424  -28450558.08448 -21897155.52147  21122172.7014   21122180.8484
      2743.8624       2138.0744
  21337700.3954  -34232727.58548 -26424395.94747  21337700.5574   21337710.2724
     -2081.5174      -1621.9614
 98  9 18  0 54 29.9990000  0  6G 4G22G19G16G18G14
  24019157.6654  -10926280.25647  -8253093.01245  24019158.4364   24019168.9554
      -199.5934       -155.5294
  21562195.7514  -19238130.68848 -14705907.93147  21562194.8294   21562203.3294
      -982.0454       -765.2304
  22199091.0354  -21961792.04948 -16508269.71746  22199091.0034   22199101.4084
      2936.6784       2288.3194
  20279866.2234   -2257544.66249  -1747526.86047  20279866.0434   20279875.7464
       599.5164        467.1564
  21106532.9644  -28532747.91448 -21961199.51247  21106532.7214   21106540.9094
      2738.3514       2133.7804
  21349626.2154  -34170059.54048 -26375563.76447  21349626.1974   21349635.9404
     -2093.4554      -1631.2614
 98  9 18  0 54 59.9990000  0  6G 4G22G19G16G18G14
  24020339.9484  -10920068.68147  -8248252.87245  24020340.9904   24020351.2824
      -214.2524       -166.9504
  21567855.0604  -19208388.29148 -14682732.04047  21567854.4374   21567863.3224
     -1000.5864       -779.6784
  22182348.3174  -22049776.26848 -16576828.78846  22182348.0294   22182358.4204
      2929.2944       2282.5654
  20276498.1714   -2275247.01449  -1761320.90447  20276497.6914   20276506.8484
       580.8994        452.6484
  21090917.4504  -28614803.78848 -22025139.12747  21090917.5024   21090926.0854
      2732.4694       2129.1964
  21361612.9824  -34107069.25148 -26326480.48547  21361612.9184   21361622.4424
     -2105.7114      -1640.8134
 98  9 18  0 55 29.9990000  0  6G 4G22G19G16G18G14
  24021608.8194  -10913403.69847  -8243059.42245  24021608.9864   24021620.4634
      -230.0974       -179.2974
  21573626.0984  -19178061.26748 -14659100.59847  21573625.5514   21573633.6474
     -1020.9534       -795.5464
  22165652.6424  -22137510.22548 -16645192.85546  22165652.8014   22165663.2744
      2919.7254       2275.1094
  20273241.9654   -2292359.42349  -1774655.25547  20273241.3994   20273250.6864
       560.1084        436.4484
  21075339.1174  -28696668.90748 -22088930.10147  21075338.8624   21075347.3844
      2725.4064       2123.6914
  21373675.4234  -34043680.18848 -26277086.46947  21373675.3574   21373685.0704
     -2120.0594      -1651.9914
 98  9 18  0 55 59.9990000  0  6G 4G22G19G16G18G14
  24022964.7774  -10906273.79447  -8237503.68645  24022965.8044   24022977.6044
      -247.1414       -192.5714
  21579509.8094  -19147142.21648 -14635007.82947  21579509.1924   21579517.5724
     -1042.1284       -812.0474
  22149011.3574  -22224961.69848 -16713336.80046  22149011.3024   22149021.5684
      2908.5804       2266.4244
  20270100.8664   -2308864.32749  -1787516.22647  20270100.7154   20270110.0704
       538.4734        419.5894
  21059799.8954  -28778328.02248 -22152560.54947  21059799.7464   21059808.0304
      2716.6354       2116.8574
  21385817.0044  -33979874.15748 -26227367.54147  21385817.1184   21385827.2034
     -2135.5064      -1664.0284
 98  9 18  0 56 29.9990000  0  6G 4G22G19G16G18G14
  24024406.1774  -10898700.04847  -8231602.10945  24024406.9944   24024418.8314
      -259.8454       -202.4744
  21585501.9764  -19115652.18448 -14610470.14647  21585501.4244   21585509.9744
     -1059.0394       -825.2254
  22132420.4364  -22312148.71748 -16781274.67847  22132420.3454   22132430.4434
      2901.9794       2261.2794
  20267069.8964   -2324794.26749  -1799929.16947  20267069.4624   20267078.7504
       521.5284        406.3854
  21044299.6584  -28859781.47148 -22216030.73947  21044299.5934   21044308.0404
      2711.4794       2112.8394
  21398036.1174  -33915665.18548 -26177334.64247  21398035.9654   21398045.9484
     -2147.2294      -1673.1654
 98  9 18  0 56 59.9990000  0  6G 4G22G19G16G18G14
  24025924.9804  -10890723.05847  -8225386.30845  24025925.5064   24025936.2894
      -272.2884       -212.1724
  21591595.3124  -19083632.99948 -14585520.13747  21591594.5324   21591602.9434
     -1075.6694       -838.1844
  22115872.1934  -22399110.22048 -16849036.83247  22115872.1274   22115882.1584
      2895.4474       2256.1914
  20264142.6104   -2340178.31949  -1811916.74647  20264142.1784   20264150.8524
       503.9564        392.6934
  21028836.2714  -28941041.71048 -22279350.37147  21028836.2384   21028844.8204
      2705.8874       2108.4824
  21410328.9194  -33851066.49448 -26126998.06547  21410328.8504   21410338.7614
     -2159.3104      -1682.5774
 98  9 18  0 57 29.9990000  0  6G 4G22G19G16G18G14
  24027524.5824  -10882314.97647  -8218834.60945  24027525.4094   24027535.5704
      -287.9334       -224.3624
  21597790.5924  -19051076.94248 -14560151.78447  21597790.0304   21597797.9364
     -1094.4024       -852.7824
  22099370.7384  -22485825.15448 -16916606.84647  22099370.5854   22099380.6054
      2886.0854       2248.8964
  20261324.0684   -2354987.65649  -1823456.49647  20261323.6714   20261332.7254
       483.7154        376.9204
  21013415.1824  -29022081.49848 -22342498.22447  21013415.1534   21013423.3024
      2697.1284       2101.6574
  21422700.0054  -33786056.91648 -26076341.32047  21422699.8444   21422709.4874
     -2174.2794      -1694.2424
 98  9 18  0 57 59.9990000  0  6G 4G22G19G16G18G14
  24029213.5764  -10873445.47647  -8211923.36045  24029213.2764   24029223.8394
      -301.6984       -235.0914
  21604090.0514  -19017970.90648 -14534354.88047  21604089.6184   21604097.9784
     -1110.9044       -865.6394
  22082919.7654  -22572274.38448 -16983969.81547  22082919.7474   22082929.7014
      2879.0204       2243.3884
  20258619.3424   -2369203.22349  -1834533.56447  20258618.9214   20258627.6874
       465.6844        362.8714
  20998042.0214  -29102867.49948 -22405448.32147  20998041.7824   20998050.1924
      2690.4714       2096.4704
  21435153.0464  -33720614.13948 -26025347.00746  21435153.0894   21435162.8924
     -2186.6764      -1703.9024
 98  9 18  0 58 29.9990000  0  6G 4G22G19G16G18G14
  24030983.5484  -10864141.28347  -8204673.39045  24030983.5834   24030994.7064
      -316.4774       -246.6074
  21610488.9014  -18984346.82048 -14508154.30247  21610488.2324   21610496.5274
     -1128.2804       -879.1794
  22066513.3864  -22658490.73048 -17051151.32047  22066513.3914   22066522.9884
      2871.0984       2237.2214
  20256022.9424   -2382848.44249  -1845166.20747  20256022.4064   20256030.8484
       446.2354        347.7154
  20982709.2464  -29183441.87348 -22468233.51147  20982709.2364   20982717.4134
      2683.4784       2091.0214
  21447679.4184  -33654788.19948 -25974054.12246  21447679.2954   21447689.2574
     -2199.2124      -1713.6714
 98  9 18  0 58 59.9990000  0  6G 4G22G19G16G18G14
  24032833.1944  -10854418.13747  -8197096.95245  24032833.4834   24032843.4814
      -332.9204       -259.4154
  21616981.0304  -18950230.25348 -14481569.96847  21616980.4534   21616988.4504
     -1147.2654       -893.9724
  22050147.1634  -22744496.20948 -17118168.50447  22050147.1144   22050156.8714
      2861.7374       2229.9234
  20253533.4074   -2395927.19049  -1855357.44147  20253533.1094   20253542.0684
       424.8644        331.0634
  20967411.1154  -29263834.03148 -22530876.72247  20967411.0534   20967419.0784
      2675.1834       2084.5574
  21460269.2324  -33588628.96648 -25922501.53746  21460268.9674   21460279.1964
     -2212.3014      -1723.8684
 98  9 18  0 59 29.9990000  0  6G 4G22G19G16G18G14
  24034772.9684  -10844221.15847  -8189151.31545  24034773.2474   24034784.4444
      -348.4254       -271.5004
  21623577.4244  -18915567.18948 -14454559.78547  21623576.7194   21623585.0854
     -1165.3404       -908.0574
  22033829.0284  -22830247.25248 -17184987.42747  22033829.2414   22033838.6954
      2853.5044       2223.5074
  20251159.5674   -2408404.73449  -1865080.20547  20251159.0974   20251167.9804
       405.1444        315.6964
  20952154.1814  -29344010.51949 -22593351.87447  20952154.0394   20952162.3294
      2668.2984       2079.1934
  21472928.0114  -33522106.42548 -25870665.84846  21472927.7604   21472938.0774
     -2224.1814      -1733.1254
 98  9 18  0 59 59.9990000  0  6G 4G22G19G16G18G14
  24036799.1154  -10833578.93247  -8180858.70845  24036799.5554   24036811.2094
      -360.9954       -281.2974
  21630275.3394  -18880368.67148 -14427132.37147  21630274.5594   21630283.0954
     -1181.0804       -920.3224
  22017554.9834  -22915767.27648 -17251626.33447  22017555.0434   22017565.0434
      2848.0064       2219.2244
  20248897.8954   -2420290.81549  -1874342.08847  20248897.3214   20248905.8734
       387.3744        301.8494
  20936932.8724  -29423999.68449 -22655681.05747  20936932.7874   20936940.9834
      2664.4084       2076.1614
  21485650.8934  -33455244.72848 -25818565.88046  21485651.0194   21485661.9154
     -2233.2214      -1740.1724
 98  9 18  1  0 29.9990000  0  6G 4G22G19G16G18G14
  24038909.1784  -10822490.41147  -8172218.34745  24038909.2254   24038920.2224
      -376.8654       -293.6624
  21637076.7274  -18844625.74048 -14399280.74247  21637076.1134   21637084.8924
     -1200.3534       -935.3414
  22001325.4064  -23001055.62948 -17318084.71647  22001325.3804   22001335.1344
      2839.5244       2212.6134
  20246751.4214   -2431569.35049  -1883130.55847  20246751.0104   20246759.5524
       366.1764        285.3324
  20921748.7814  -29503792.42949 -22717857.18947  20921748.6624   20921757.0024
      2656.5544       2070.0404
  21498440.2684  -33388037.10448 -25766196.36946  21498440.2664   21498450.7264
     -2245.9104      -1750.0594
 98  9 18  1  0 59.9990000  0  6G 4G22G19G16G18G14
  24041102.5494  -10810962.92747  -8163235.91745  24041102.6594   24041114.8404
      -392.4964       -305.8414
  21643982.4274  -18808337.82748 -14371004.44347  21643981.6444   21643989.8154
     -1219.6214       -950.3544
  21985135.5514  -23086132.85048 -17384378.58047  21985135.2584   21985145.0254
      2831.4554       2206.3264
  20244717.0894   -2442262.04849  -1891462.53247  20244716.3524   20244724.9924
       346.0204        269.6254
  20906603.2244  -29583381.91549 -22779874.93647  20906603.1114   20906611.4894
      2648.6934       2063.9154
  21511298.0534  -33320468.31148 -25713545.43146  21511298.2564   21511308.8054
     -2259.6214      -1760.7414
 98  9 18  1  1 29.9990000  0  6G 4G22G19G16G18G14
  24043391.7044  -10798935.47047  -8153863.91645  24043391.9764   24043403.8564
      -410.1614       -319.6004
  21651003.2484  -18771444.16848 -14342256.13647  21651002.4994   21651010.7014
     -1240.7264       -966.8004
  21968998.6644  -23170932.91848 -17450456.47547  21968998.6344   21969008.4414
      2821.0144       2198.1914
  20242801.4334   -2452326.00749  -1899304.58347  20242801.1704   20242810.0584
       323.9354        252.4164
  20891508.1514  -29662706.30349 -22841686.11147  20891508.0254   20891516.0474
      2638.6644       2056.1004
  21524241.8614  -33252449.48348 -25660543.81046  21524241.8424   21524251.9394
     -2275.6504      -1773.2304
 98  9 18  1  1 59.9990000  0  6G 4G22G19G16G18G14
  24045759.7124  -10786490.31147  -8144166.44445  24045759.8194   24045771.8304
      -420.1754       -327.4074
  21658123.2494  -18734026.60748 -14313099.60447  21658122.5784   21658130.9604
     -1254.1044       -977.2224
  21952901.7374  -23255520.19748 -17516368.56047  21952901.9234   21952911.6464
      2817.6394       2195.5594
  20240993.6654   -2461827.52149  -1906708.36447  20240993.2224   20241001.8224
       309.2684        240.9894
  20876450.9854  -29741832.66349 -22903342.97847  20876450.8334   20876458.7744
      2635.9244       2053.9654
  21537256.4014  -33184059.88848 -25607253.28146  21537255.9624   21537266.1734
     -2284.0404      -1779.7694
 98  9 18  1  2 29.9990000  0  6G 4G22G19G16G18G14
  24048205.7154  -10773639.64547  -8134152.99645  24048205.8114   24048216.8694
      -438.6084       -341.7744
  21665338.2854  -18696112.07248 -14283555.81047  21665337.5134   21665345.7984
     -1275.4994       -993.8974
  21936844.6854  -23339902.19948 -17582120.69347  21936844.5834   21936854.2874
      2805.8804       2186.3964
  20239285.8754   -2470801.30449  -1913700.92847  20239285.4324   20239294.0294
       287.0444        223.6714
  20861429.2344  -29820771.60948 -22964853.80947  20861429.2524   20861437.5254
      2624.7534       2045.2614
  21550337.5844  -33115316.98948 -25553687.45246  21550337.6284   21550347.6774
     -2300.6714      -1792.7264
 98  9 18  1  2 59.9990000  0  6G 4G22G19G16G18G14
  24050739.0094  -10760323.09947  -8123776.53245  24050739.5704   24050751.0294
      -449.8824       -350.5574
  21672659.9174  -18657636.04448 -14253574.49247  21672659.2714   21672667.8554
     -1290.0514      -1005.2344
  21920840.3824  -23424003.76848 -17647654.29547  21920840.2444   21920850.1004
      2800.2134       2181.9824
  20237690.4684   -2479184.50849  -1920233.30247  20237690.0014   20237698.7604
       271.0834        211.2334
  20846456.3534  -29899454.79948 -23026165.35347  20846456.2994   20846464.3994
      2620.2854       2041.7804
  21563499.2054  -33046153.08448 -25499793.57046  21563499.1444   21563509.2684
     -2310.7204      -1800.5584
 98  9 18  1  3 29.9990000  0  6G 4G22G19G16G18G14
  24053339.9984  -10746652.84947  -8113124.43845  24053340.5404   24053351.3614
      -462.3084       -360.2414
  21680067.6174  -18618708.97748 -14223241.71547  21680066.8294   21680074.9404
     -1305.8514      -1017.5474
  21904872.7244  -23507913.57148 -17713038.47347  21904872.8794   21904882.2444
      2793.1854       2176.5044
  20236191.7564   -2487060.40149  -1926370.36747  20236191.3854   20236199.7974
       253.1604        197.2694
  20831511.7054  -29977989.51448 -23087361.20447  20831511.4714   20831519.6404
      2614.5034       2037.2744
  21576718.8164  -32976683.79348 -25445661.71646  21576718.9814   21576728.6214
     -2321.2464      -1808.7634
 98  9 18  1  3 59.9990000  0  6G 4G22G19G16G18G14
  24056019.7284  -10732573.45447  -8102153.56045  24056019.6614   24056031.3464
      -476.1684       -371.0364
  21687572.5884  -18579267.75748 -14192508.29947  21687571.8984   21687580.1564
     -1323.1934      -1031.0584
  21888951.9334  -23591576.37448 -17778230.18447  21888952.0924   21888962.2834
      2784.8254       2169.9904
  20234803.2434   -2494359.28449  -1932057.82147  20234802.7804   20234811.0334
       233.8984        182.2584
  20816608.8224  -30056304.39048 -23148385.75247  20816608.7734   20816616.3314
      2606.9024       2031.3514
  21590005.8544  -32906857.39248 -25391251.59646  21590006.1124   21590016.0054
     -2333.5324      -1818.3354
 98  9 18  1  4 29.9990000  0  6G 4G22G19G16G18G14
  24058786.5034  -10718036.66247  -8090826.24245  24058787.2074   24058797.3974
      -491.8764       -383.2804
  21695184.8914  -18539265.45348 -14161337.67447  21695184.1224   21695192.4484
     -1342.5164      -1046.1164
  21873086.0654  -23674952.78048 -17843198.73547  21873086.0154   21873096.1924
      2774.7024       2162.1044
  20233531.9784   -2501039.10949  -1937262.89347  20233531.5394   20233540.2244
       212.4774        165.5674
  20801756.4154  -30134352.68348 -23209202.58047  20801756.3934   20801764.2124
      2597.4824       2024.0104
  21603370.8324  -32836626.77848 -25336526.51446  21603370.8344   21603380.7094
     -2347.2544      -1829.0284
 98  9 18  1  4 59.9990000  0  6G 4G22G19G16G18G14
  24061626.3754  -10703118.44947  -8079201.70945  24061625.6594   24061637.0234
      -502.5044       -391.5604
  21702890.7114  -18498772.05548 -14129784.38347  21702889.9964   21702897.8804
     -1356.5144      -1057.0254
  21857261.6664  -23758109.39448 -17907996.02647  21857261.7474   21857271.7744
      2769.4324       2157.9964
  20232367.9654   -2507155.75849  -1942029.12547  20232367.4244   20232376.0754
       195.7614        152.5414
  20786940.1994  -30212211.59548 -23269871.82847  20786940.2224   20786948.1774
      2593.6004       2020.9864
  21616797.0134  -32766071.37548 -25281548.34746  21616797.1454   21616806.8094
     -2355.9364      -1835.7934
 98  9 18  1  5 29.9990000  0  6G 4G22G19G16G18G14
  24064539.3694  -10687805.97647  -8067269.97945  24064539.3384   24064550.8684
      -518.1154       -403.7184
  21710688.9164  -18457790.24748 -14097850.51346  21710688.3514   21710696.3594
     -1375.2154      -1071.5974
  21841480.6334  -23841040.19048 -17972617.35347  21841480.7644   21841490.4994
      2759.6974       2150.4124
  20231311.5514   -2512707.67149  -1946355.30447  20231311.0674   20231319.5344
       174.6994        136.1304
  20772158.6144  -30289889.72748 -23330400.21247  20772158.7114   20772166.2944
      2585.0934       2014.3584
  21630282.6694  -32695201.53848 -25226325.15246  21630283.1764   21630293.2024
     -2368.5224      -1845.5994
 98  9 18  1  5 59.9990000  0  6G 4G22G19G16G18G14
  24067532.1894  -10672078.44647  -8055014.80445  24067532.2314   24067544.1874
      -531.1854       -413.9144
  21718584.0034  -18416301.64148 -14065521.73447  21718583.6024   21718591.5814
     -1391.5124      -1084.2954
  21825745.3774  -23923728.79448 -18037049.96447  21825745.4574   21825755.5344
      2752.0094       2144.4214
  20230366.0244   -2517676.37249  -1950227.03347  20230365.5384   20230373.8284
       155.7254        121.3454
  20757416.3724  -30367361.21148 -23390767.57847  20757416.2014   20757423.9984
      2579.0074       2009.6154
  21643832.8914  -32623997.95748 -25170841.89846  21643832.6154   21643842.5184
     -2379.0994      -1853.8414
 98  9 18  1  6 29.9990000  0  6G 4G22G19G16G18G14
  24070612.4304  -10655885.57847  -8042397.05445  24070613.5934   24070625.9254
      -546.6284       -425.9404
  21726585.9494  -18374251.44048 -14032755.35747  21726585.3614   21726593.7894
     -1410.1244      -1098.7974
  21810069.1374  -24006110.60348 -18101243.51947  21810069.0614   21810078.9814
      2741.7954       2136.4624
  20229543.1134   -2521998.80549  -1953595.17847  20229542.9404   20229551.2724
       134.0904        104.4864
  20742721.8764  -30444581.37548 -23450939.11347  20742721.8334   20742729.5784
      2570.6074       2003.0714
  21657454.7484  -32552414.96648 -25115063.00146  21657454.6364   21657464.6384
     -2391.5574      -1863.5504
 98  9 18  1  6 59.9990000  0  6G 4G22G19G16G18G14
  24073781.9244  -10639237.38247  -8029424.49745  24073782.2444   24073791.8564
      -558.9044       -435.5114
  21734692.2114  -18331653.32148 -13999562.03247  21734691.6584   21734699.8064
     -1425.3754      -1110.6814
  21794448.9814  -24088194.25248 -18165204.74847  21794448.8984   21794458.5984
      2734.9534       2131.1304
  20228843.1464   -2525678.66249  -1956462.61147  20228842.6364   20228851.2164
       115.7594         90.2034
  20728076.0024  -30521546.14049 -23510911.63947  20728075.9464   20728083.7914
      2564.7124       1998.4764
  21671148.5394  -32480449.46448 -25058986.05346  21671148.8744   21671159.4974
     -2401.5964      -1871.3724
 98  9 18  1  7 29.9990000  0  6G 4G22G19G16G18G14
  24077014.8374  -10622253.02347  -8016189.98045  24077015.2524   24077024.8174
      -571.9764       -445.6904
  21742881.5404  -18288620.37948 -13966029.88147  21742880.5944   21742888.7574
     -1442.2104      -1123.8014
  21778861.7164  -24170105.90148 -18229031.94947  21778861.5804   21778871.1804
      2727.2624       2125.1374
  20228241.4924   -2528840.68549  -1958926.53847  20228240.9454   20228249.6854
        96.4054         75.1214
  20713460.6854  -30598350.01349 -23570758.79347  20713460.6184   20713468.7374
      2556.7554       1992.2774
  21684894.0484  -32408219.10548 -25002702.71746  21684894.1124   21684904.5144
     -2412.5944      -1879.9394
 98  9 18  1  7 59.9990000  0  6G 4G22G19G16G18G14
  24080322.6754  -10604865.35847  -8002641.21045  24080322.4214   24080333.8444
      -584.2734       -455.2794
  21751170.1234  -18245060.78648 -13932087.35746  21751169.4284   21751178.0864
     -1458.7004      -1136.6484
  21763321.7644  -24251767.20848 -18292664.08147  21763321.7934   21763331.4554
      2719.8874       2119.3904
  20227753.8924   -2531399.92149  -1960920.76447  20227753.5824   20227762.6084
        77.3894         60.3044
  20698896.4334  -30674885.97249 -23630397.18147  20698896.2884   20698904.2784
      2548.8584       1986.1224
  21698707.0444  -32335629.20748 -24946139.21446  21698707.2324   21698718.3634
     -2423.5414      -1888.4704
 98  9 18  1  8 29.9990000  0  6G 4G22G19G16G18G14
  24083689.7424  -10587172.04147  -7988854.26345  24083689.8184   24083701.4824
      -596.8564       -465.0864
  21759539.3444  -18201079.47148 -13897816.21646  21759538.7094   21759547.1824
     -1474.7994      -1149.1944
  21747809.7934  -24333281.99948 -18356182.04947  21747809.8454   21747819.6474
      2712.9904       2114.0174
  20227360.4954   -2533466.72349  -1962531.27447  20227360.2054   20227369.2734
        59.0004         45.9744
  20684365.2244  -30751247.01349 -23689899.26347  20684365.1544   20684373.4284
      2540.4414       1979.5634
  21712569.1344  -32262786.49348 -24889378.71546  21712569.2934   21712580.2724
     -2434.2444      -1896.8144
 98  9 18  1  8 59.9990000  0  6G 4G22G19G16G18G14
  24087136.8864  -10569053.86147  -7974736.26645  24087136.9644   24087149.5314
      -610.5344       -475.7324
  21768010.8704  -18156562.24748 -13863127.48346  21768010.2094   21768018.5174
     -1492.3894      -1162.8994
  21732348.1684  -24414533.46148 -18419494.82547  21732348.2924   21732358.1554
      2704.4484       2107.3594
  20227081.2544   -2534937.78849  -1963677.57647  20227080.6864   20227089.4314
        39.7874         31.0044
  20669892.4494  -30827303.31449 -23749163.88947  20669892.0944   20669900.0554
      2530.8594       1972.0964
  21726502.3474  -32189569.13048 -24832326.28546  21726502.1114   21726513.2764
     -2446.0784      -1906.0324
 98  9 18  1  9 29.9990000  0  7G 4G22G19G16G18G27G14
  24090650.0604  -10550591.07647  -7960349.74445  24090650.6684   24090662.0994
      -621.7554       -484.4844
  21776570.5414  -18111581.26948 -13828077.38546  21776569.6974   21776578.1784
     -1507.5484      -1174.7114
  21716922.9964  -24495594.32548 -18482659.07647  21716922.7474   21716932.8964
      2698.3354       2102.5974
  20226897.9814   -2535897.35949  -1964425.30947  20226897.6034   20226906.9814
        22.7774         17.7494
  20655459.7094  -30903146.49949 -23808262.45247  20655459.7174   20655467.7754
      2524.1064       1966.8354
  24740815.4114   -5785832.55257  -4231399.66645  24740814.7974   24740828.3964
      3437.3464       2678.4464
  21740489.0004  -32116069.71448 -24775054.07946  21740488.9594   21740499.4234
     -2455.3774      -1913.2794
 98  9 18  1  9 59.9990000  0  7G 4G22G19G16G18G27G14
  24094239.9394  -10531728.09647  -7945651.38245  24094240.2544   24094252.4704
      -645.3674       -502.8824
  21785225.8484  -18066099.96948 -13792637.42346  21785224.6804   21785232.8804
     -1533.9534      -1195.2904
  21701543.6594  -24576412.82248 -18545634.46947  21701543.4124   21701553.9064
      2679.9444       2088.2654
  20226824.1854   -2536286.76949  -1964728.75947  20226823.7964   20226832.7554
        -6.3464         -4.9444
  20641074.7164  -30978738.81849 -23867165.53247  20641074.5684   20641083.0464
      2505.9414       1952.6804
  24721205.1624   -5888882.53747  -4311698.15145  24721204.0624   24721218.5134
      3423.2874       2667.4904
  21754540.8724  -32042228.75048 -24717515.72746  21754540.4954   21754550.9154
     -2476.6704      -1929.8704
 98  9 18  1 10 29.9980000  0  7G 4G22G19G16G18G27G14
  24097925.5894  -10512359.48447  -7930559.02645  24097925.6094   24097937.8364
      -650.0554       -506.5354
  21793991.0374  -18020035.89048 -13756743.34746  21793990.4864   21793998.4624
     -1541.3664      -1201.0644
  21686231.9454  -24656875.81848 -18608332.86147  21686231.9184   21686241.6874
      2680.0434       2088.3434
  20226877.1394   -2536009.86249  -1964513.00747  20226876.7174   20226885.3444
       -16.4294        -12.8004
  20626754.3454  -31053993.34549 -23925805.39247  20626754.1174   20626762.8344
      2506.9984       1953.5054
  24701638.4584   -5991706.23547  -4391820.33645  24701637.6294   24701651.4374
      3427.7744       2670.9874
  21768673.9794  -31967960.89348 -24659644.73546  21768673.4874   21768683.6534
     -2479.0454      -1931.7214
 98  9 18  1 10 59.9980000  0  7G 4G22G19G16G18G27G14
  24101663.4194  -10492717.61547  -7915253.76145  24101663.4704   24101674.2414
      -662.7844       -516.4544
  21802826.3704  -17973607.09148 -13720565.06946  21802825.2504   21802833.7194
     -1557.2084      -1213.4084
  21670946.7164  -24737199.70848 -18670922.86047  21670946.7524   21670956.9134
      2671.7674       2081.8964
  20227014.1714   -2535288.19649  -1963950.69147  20227013.8124   20227022.6854
       -35.0164        -27.2844
  20612452.1024  -31129151.20149 -23984369.92547  20612452.1164   20612460.5644
      2500.2514       1948.2474
  24682068.2234   -6094540.26847  -4471950.56045  24682067.9774   24682083.3694
      3424.6294       2668.5344
  21782846.4324  -31893479.84448 -24601607.62646  21782846.4364   21782856.7054
     -2489.5494      -1939.9064
 98  9 18  1 11 29.9980000  0  7G 4G22G19G16G18G27G14
  24105473.3284  -10472697.08947  -7899653.39845  24105473.8704   24105484.8534
      -674.7114       -525.7474
  21811752.2194  -17926696.40448 -13684011.30346  21811751.6104   21811760.1964
     -1572.7464      -1225.5184
  21655708.7324  -24817275.89148 -18733319.83647  21655708.6484   21655718.8204
      2663.9954       2075.8384
  20227260.2114   -2533994.95449  -1962942.98547  20227259.8564   20227268.8844
       -53.8994        -41.9984
  20598190.7914  -31204097.11349 -24042769.30647  20598190.6404   20598199.0384
      2493.4144       1942.9194
  24662520.2124   -6197268.69147  -4551998.51245  24662520.0524   24662533.8674
      3421.4224       2666.0354
  21797081.7524  -31818673.34748 -24543316.91146  21797081.7644   21797092.0964
     -2500.2714      -1948.2604
 98  9 18  1 11 59.9980000  0  7G 4G22G19G16G18G27G14
  24109366.9054  -10452234.96047  -7883708.95545  24109367.3374   24109379.4074
      -687.9644       -536.0704
  21820782.9634  -17879243.48848 -13647035.01346  21820782.4914   21820790.3614
     -1589.3844      -1238.4784
  21640532.4184  -24897030.06948 -18795465.90547  21640532.3074   21640541.8844
      2654.3604       2068.3284
  20227629.2774   -2532056.51949  -1961432.53247  20227628.8334   20227637.7824
       -73.7814        -57.4924
  20583983.9384  -31278752.39549 -24100942.22147  20583983.9504   20583992.3294
      2485.0764       1936.4214
  24643002.2414   -6299833.67447  -4631919.12145  24643001.8404   24643016.0464
      3417.6614       2663.1064
  21811392.2194  -31743471.94448 -24484718.47946  21811392.1594   21811402.3804
     -2511.6094      -1957.0964
 98  9 18  1 12 29.9980000  0  7G 4G22G19G16G18G27G14
  24113322.1024  -10431444.34247  -7867508.53745  24113322.8494   24113336.1744
      -696.0474       -542.3704
  21829897.1034  -17831347.93948 -13609713.81646  21829896.6074   21829905.0144
     -1601.4524      -1247.8854
  21625399.5014  -24976553.90048 -18857432.47347  21625399.3734   21625408.6184
      2649.6504       2064.6604
  20228099.3304   -2529587.71049  -1959508.80347  20228098.9144   20228107.4934
       -88.5914        -69.0324
  20569813.5974  -31353219.64149 -24158968.61547  20569813.4254   20569821.7314
      2481.5634       1933.6844
  24623495.4394   -6402342.93047  -4711796.26745  24623495.2114   24623509.2584
      3418.6994       2663.9184
  21825755.3334  -31667994.08648 -24425904.63046  21825755.4314   21825765.6264
     -2518.0914      -1962.1464
 98  9 18  1 12 59.9980000  0  7G 4G22G19G16G18G27G14
  24117339.7594  -10410345.62347  -7851068.03645  24117339.3854   24117350.2754
      -710.2654       -553.4544
  21839089.9004  -17783037.56048 -13572069.38346  21839089.3534   21839097.8564
     -1618.9284      -1261.5034
  21610301.5054  -25055891.69648 -18919254.08847  21610301.5304   21610310.9424
      2639.8924       2057.0574
  20228665.1174   -2526613.71549  -1957191.42347  20228664.5924   20228673.4964
      -109.4314        -85.2714
  20555673.9104  -31427521.99549 -24216866.52147  20555673.8434   20555682.7364
      2472.1414       1926.3424
  24603992.3724   -6504830.63047  -4791656.62545  24603992.5684   24604005.2874
      3414.0604       2660.3034
  21840165.9364  -31592269.22248 -24366898.30846  21840165.5614   21840175.8524
     -2529.9284      -1971.3704
 98  9 18  1 13 29.9980000  0  7G 4G22G19G16G18G27G14
  24121438.5154  -10388802.12547  -7834280.96945  24121438.1544   24121448.9024
      -725.0684       -564.9864
  21848383.9004  -17734197.70748 -13534012.37046  21848383.5944   21848391.2394
     -1635.8384      -1274.6794
  21595262.9214  -25134916.56148 -18980831.86447  21595263.1864   21595272.9124
      2629.4814       2048.9444
  20229354.0484   -2522993.74149  -1954370.68347  20229353.5584   20229362.6354
      -130.7824       -101.9074
  20541591.9694  -31501523.59849 -24274530.07547  20541591.9914   20541600.2674
      2462.4354       1918.7804
  24584519.1504   -6607164.43947  -4871397.08545  24584519.2124   24584531.8364
      3409.2854       2656.5804
  21854645.4344  -31516177.80148 -24307606.36646  21854645.4404   21854655.5144
     -2541.8804      -1980.6834
 98  9 18  1 13 59.9980000  0  7G 4G22G19G16G18G27G14
  24125597.5764  -10366942.85947  -7817247.84445  24125597.8994   24125610.1554
      -735.3634       -573.0034
  21857746.6564  -17684999.17848 -13495675.86146  21857745.8644   21857753.9234
     -1647.3724      -1283.6674
  21580259.0894  -25213765.37848 -19042272.45647  21580259.0474   21580268.3644
      2624.1214       2044.7674
  20230137.3484   -2518876.67849  -1951162.60247  20230137.0244   20230146.1574
      -146.8234       -114.4084
  20527539.0134  -31575374.33649 -24332076.07547  20527538.8634   20527546.7754
      2457.7754       1915.1484
  24565046.5884   -6709496.03947  -4951135.80745  24565046.1024   24565058.9334
      3409.5194       2656.7584
  21869166.3154  -31439867.30148 -24248143.70646  21869166.3744   21869177.0574
     -2548.7094      -1986.0074
 98  9 18  1 14 29.9980000  0  7G 4G22G19G16G18G27G14
  24129850.3454  -10344600.97947  -7799838.65845  24129850.3584   24129861.8954
      -757.3214       -590.1164
  21867208.0104  -17635277.86648 -13456931.98946  21867207.4134   21867215.6574
     -1670.5904      -1301.7584
  21565315.8804  -25292292.86448 -19103462.65247  21565315.8264   21565325.0034
      2607.9844       2032.1944
  20231045.3504   -2514104.96349  -1947444.39947  20231045.0354   20231054.0564
      -174.4594       -135.9424
  20513545.2264  -31648912.11549 -24389378.20547  20513545.0524   20513553.2734
      2441.5404       1902.4974
  24545604.7424   -6811661.15047  -5030744.79045  24545604.4544   24545617.2004
      3398.4394       2648.1344
  21883759.4594  -31363180.09848 -24188387.51446  21883759.5014   21883770.0534
     -2566.9344      -2000.2094
 98  9 18  1 14 59.9980000  0  7G 4G22G19G16G18G27G14
  24134162.6814  -10321936.10147  -7782177.76145  24134162.8964   24134174.8624
      -759.5594       -591.8674
  21876738.5414  -17585195.40948 -13417906.71346  21876738.0424   21876746.5674
     -1674.2034      -1304.5734
  21550400.5534  -25370670.14048 -19164535.80247  21550400.7774   21550410.3564
      2611.1944       2034.6934
  20232049.7634   -2508828.55149  -1943332.93047  20232049.3084   20232058.0514
      -183.0784       -142.6594
  20499582.5334  -31722286.26549 -24446552.83947  20499582.2574   20499590.6054
      2444.1544       1904.5344
  24526162.9904   -6913829.15747  -5110356.04845  24526162.0914   24526175.0024
      3406.8134       2654.6564
  21898394.3664  -31286274.20348 -24128460.91646  21898394.4744   21898405.0414
     -2565.9894      -1999.4714
 98  9 18  1 15 29.9980000  0  7G 4G22G19G16G18G27G14
  24138545.0614  -10298903.84747  -7764230.64245  24138545.8754   24138557.5814
      -776.9194       -605.3904
  21886350.3654  -17534683.02248 -13378546.43246  21886349.8374   21886358.4454
     -1694.0744      -1320.0574
  21535528.3664  -25448828.59248 -19225438.43347  21535528.2034   21535537.1994
      2598.7554       2025.0014
  20233160.9304   -2502990.55449  -1938783.86047  20233160.3314   20233168.9644
      -206.7064       -161.0684
  20485664.8384  -31795422.65449 -24503542.20647  20485664.7854   20485673.2954
      2430.8644       1894.1784
  24506731.2544   -7015940.62047  -5189923.22745  24506731.2394   24506743.8124
      3399.8574       2649.2394
  21913082.5244  -31209084.15648 -24068312.90046  21913082.7624   21913093.6804
     -2580.8254      -2011.0314
 98  9 18  1 15 59.9980000  0  7G 4G22G19G16G18G27G14
  24143004.5014  -10275467.44947  -7745968.60545  24143005.5754   24143017.3354
      -788.3284       -614.2814
  21896058.4754  -17483667.15248 -13338793.82146  21896057.9954   21896066.0654
     -1709.9394      -1332.4204
  21520702.7714  -25526734.69448 -19286144.43347  21520702.6704   21520712.0964
      2592.0644       2019.7884
  20234383.9014   -2496561.44749  -1933774.18847  20234383.5494   20234392.3544
      -224.7674       -175.1434
  20471804.1804  -31868262.07949 -24560300.17547  20471804.1704   20471812.1924
      2422.2344       1887.4544
  24487319.1814   -7117947.95447  -5269409.28545  24487318.9954   24487332.0954
      3397.7324       2647.5744
  21927835.2374  -31131560.25248 -24007904.74046  21927835.0804   21927846.0654
     -2590.0834      -2018.2434
 98  9 18  1 16 29.9980000  0  7G 4G22G19G16G18G27G14
  24147536.3504  -10251656.45047  -7727414.63845  24147537.3454   24147548.6834
      -799.6854       -623.1334
  21905866.6344  -17432126.66248 -13298632.40646  21905866.0384   21905874.3054
     -1726.4744      -1345.3044
  21505925.6224  -25604390.51248 -19346655.40447  21505925.5554   21505934.6774
      2584.4884       2013.8854
  20235718.9044   -2489545.54249  -1928307.26847  20235718.6524   20235727.6224
      -243.3884       -189.6534
  20458000.8224  -31940800.38649 -24616823.50947  20458000.7114   20458008.8294
      2413.2184       1880.4294
  24467928.1184   -7219850.22547  -5348813.46645  24467927.8714   24467939.8394
      3395.2304       2645.6254
  21942647.9164  -31053720.10648 -23947250.15546  21942647.8434   21942658.3784
     -2599.7214      -2025.7544
 98  9 18  1 16 59.9980000  0  7G 4G22G19G16G18G27G14
  24152137.7004  -10227469.58047  -7708567.80845  24152138.5044   24152152.3014
      -815.5094       -635.4594
  21915777.1594  -17380046.03148 -13258050.10546  21915776.5034   21915784.8254
     -1748.0234      -1362.0964
  21491200.0994  -25681771.50948 -19406952.23447  21491200.1644   21491209.5574
      2571.8334       2004.0254
  20237168.4514   -2481930.50449  -1922373.49347  20237168.0484   20237176.8464
      -266.6894       -207.8084
  20444255.8784  -32013028.38149 -24673105.04047  20444255.9114   20444263.9734
      2399.5194       1869.7544
  24448561.5824   -7321621.10347  -5428115.26245  24448560.9534   24448573.8344
      3387.1024       2639.2974
  21957524.9194  -30975540.76448 -23886331.25046  21957525.2834   21957535.2514
     -2614.7054      -2037.4314
 98  9 18  1 17 29.9980000  0  7G 4G22G19G16G18G27G14
  24156805.1784  -10202945.04047  -7689457.87445  24156805.8184   24156818.8544
      -826.4474       -643.9794
  21925786.1844  -17327447.53248 -13217064.27146  21925785.6074   21925794.0904
     -1765.0714      -1375.3804
  21476521.8704  -25758907.65148 -19467058.26547  21476521.8044   21476530.8394
      2563.7874       1997.7554
  20238724.3064   -2473753.82149  -1916002.07347  20238723.7604   20238732.9774
      -285.3364       -222.3394
  20430563.6354  -32084982.72049 -24729173.33947  20430563.4524   20430571.1984
      2390.7574       1862.9274
  24429217.0504   -7423276.54947  -5507327.14545  24429216.8244   24429229.6824
      3383.2334       2636.2824
  21972461.6024  -30897052.04048 -23825171.26646  21972461.1364   21972471.4754
     -2624.5434      -2045.0974
 98  9 18  1 17 59.9980000  0  7G 4G22G19G16G18G27G14
  24161530.7214  -10178123.43847  -7670116.43345  24161530.7604   24161542.6764
      -832.8534       -648.9774
  21935884.1864  -17274383.92748 -13175716.01746  21935883.4444   21935891.9264
     -1776.7494      -1384.4784
  21461883.5264  -25835831.39248 -19526998.78247  21461883.5014   21461892.8444
      2559.8634       1994.6984
  20240382.4414   -2465040.76549  -1909212.69847  20240381.9614   20240391.0174
      -300.0784       -233.8264
  20416914.2854  -32156709.56449 -24785064.37247  20416914.2024   20416922.2514
      2386.6174       1859.7014
  24409889.6334   -7524843.09747  -5586469.74345  24409889.6064   24409902.2424
      3383.4124       2636.4164
  21987445.3074  -30818310.72348 -23763814.46146  21987445.3954   21987455.8484
     -2629.3384      -2048.8334
 98  9 18  1 18 29.9980000  0  7G 4G22G19G16G18G27G14
  24166317.8174  -10152961.39747  -7650509.72945  24166318.0004   24166330.3144
      -843.8594       -657.5534
  21946071.9574  -17220846.55548 -13133998.60146  21946071.2884   21946079.9114
     -1791.2304      -1395.7624
  21447296.1584  -25912489.33748 -19586732.19047  21447296.0544   21447305.4874
      2551.8934       1988.4874
  20242150.8854   -2455747.83249  -1901971.47447  20242150.4494   20242159.0384
      -318.4104       -248.1114
  20403314.0544  -32228177.92649 -24840753.98647  20403314.1084   20403322.2524
      2378.8914       1853.6814
  24390587.3434   -7626278.71547  -5665510.32045  24390587.3924   24390599.4524
      3379.9254       2633.7034
  22002484.6574  -30739278.27448 -23702230.80246  22002485.0484   22002495.1974
     -2638.4424      -2055.9264
 98  9 18  1 18 59.9980000  0  7G 4G22G19G16G18G27G14
  24171173.3204  -10127455.29647  -7630634.92945  24171172.7664   24171183.8334
      -855.8094       -666.8634
  21956343.1964  -17166870.76648 -13091939.55546  21956342.4624   21956351.0134
     -1806.0704      -1407.3264
  21432753.5514  -25988909.33148 -19646280.17647  21432753.6434   21432763.0194
      2543.7594       1982.1484
  20244026.1514   -2445891.71449  -1894291.40547  20244025.7784   20244034.4504
      -337.7664       -263.1944
  20389762.7424  -32299393.55949 -24896246.67047  20389762.4534   20389770.2964
      2369.6704       1846.4964
  24371307.0244   -7727594.49447  -5744457.54645  24371306.6334   24371318.6194
      3375.4534       2630.2164
  22017577.0764  -30659967.02448 -23640429.89546  22017577.1124   22017587.7664
     -2647.9534      -2063.3374
 98  9 18  1 19 29.9980000  0  8G 4G22G19G16G18G27G 3G14
  24176100.1564  -10101557.24447  -7610454.71745  24176100.5404   24176112.3964
      -872.0364       -679.5044
  21966702.3194  -17112431.68948 -13049519.50246  21966701.6274   21966710.3894
     -1824.2454      -1421.4894
  21418263.6924  -26065052.78748 -19705612.68147  21418263.8484   21418273.2444
      2531.2474       1972.4004
  20246018.2094   -2435424.81849  -1886135.40147  20246017.8434   20246026.5584
      -361.2804       -281.5174
  20376270.5904  -32370293.73849 -24951493.54247  20376270.6674   20376278.2674
      2355.8394       1835.7174
  24352055.1254   -7828757.22347  -5823285.49845  24352055.4994   24352068.6634
      3367.4534       2623.9844
  24331997.7354   -2708075.54557  -1879140.31845  24331996.9004   24332007.3904
      2865.5264       2232.8684
  22032727.3004  -30580353.67848 -23578393.59446  22032726.8544   22032737.4544
     -2660.8564      -2073.3924
 98  9 18  1 19 59.9980000  0  8G 4G22G19G16G18G27G 3G14
  24181088.8324  -10075344.12247  -7590029.00345  24181089.4574   24181101.0664
      -880.5394       -686.1274
  21977130.7664  -17057631.62848 -13006818.17246  21977130.3344   21977138.3624
     -1834.2554      -1429.2884
  21403811.3694  -26141003.25448 -19764794.80047  21403811.4664   21403820.6534
      2526.9694       1969.0674
  20248110.1504   -2424432.58649  -1877570.04647  20248109.6034   20248118.2464
      -376.4394       -293.3284
  20362823.1444  -32440959.66649 -25006557.88647  20362823.0374   20362830.8994
      2350.1304       1831.2714
  24332815.7984   -7929861.69247  -5902068.04045  24332815.8534   24332829.1894
      3367.7544       2624.2214
  24315629.5184   -2794089.42847  -1946163.97145  24315630.0454   24315638.1854
      2863.5664       2231.3494
  22047917.7374  -30500526.32348 -23516190.53446  22047917.4604   22047928.5144
     -2666.0304      -2077.4254
 98  9 18  1 20 29.9980000  0  8G 4G22G19G16G18G27G 3G14
  24186147.6074  -10048758.01347  -7569312.63745  24186147.9914   24186160.1594
      -892.8304       -695.7124
  21987638.9394  -17002410.77048 -12963788.94246  21987638.4974   21987646.4594
     -1848.0874      -1440.0674
  21389405.0924  -26216706.90848 -19823784.59647  21389405.1434   21389414.3814
      2519.2394       1963.0424
  20250307.6324   -2412883.62749  -1868570.87947  20250307.1264   20250315.5714
      -394.5784       -307.4634
  20349430.5164  -32511338.45949 -25061398.48547  20349430.5294   20349438.3754
      2340.8434       1824.0344
  24313595.7194   -8030864.35247  -5980771.26745  24313595.7944   24313609.5084
      3364.7344       2621.8644
  24299295.8524   -2879920.71347  -2013045.33645  24299295.1424   24299307.0494
      2857.4094       2226.5444
  22063160.4254  -30420423.01148 -23453772.44846  22063160.8324   22063171.8254
     -2674.9284      -2084.3584
 98  9 18  1 20 59.9980000  0  8G 4G22G19G16G18G27G 3G14
  24191276.1304  -10021803.63647  -7548309.30245  24191276.7414   24191288.8854
      -904.4344       -704.7554
  21998229.4864  -16946757.46948 -12920422.73946  21998228.7684   21998236.9814
     -1862.5034      -1451.3004
  21375044.5724  -26292172.10448 -19882588.57747  21375044.7064   21375053.8884
      2511.2844       1956.8434
  20252612.5164   -2400770.29149  -1859131.94047  20252611.9994   20252620.7364
      -413.3644       -322.1004
  20336094.2654  -32581421.87149 -25116008.92047  20336094.0914   20336102.0164
      2331.1344       1816.4674
  24294395.9124   -8131761.87947  -6059392.55245  24294396.1294   24294408.9154
      3361.5174       2619.3604
  24283000.4254   -2965548.13247  -2079767.85045  24282999.9034   24283012.1354
      2850.6164       2221.2604
  22078455.9444  -30340050.55748 -23391144.63446  22078455.5704   22078466.4734
     -2683.6584      -2091.1604
 98  9 18  1 21 29.9980000  0  8G 4G22G19G16G18G27G 3G14
  24196459.0584   -9994566.49747  -7527085.67645  24196459.1334   24196472.1664
      -913.2334       -711.6034
  22008890.5824  -16890731.76748 -12876766.36246  22008890.2164   22008898.6424
     -1874.3804      -1460.5554
  21360720.2274  -26367448.17548 -19941245.19047  21360720.1734   21360729.2714
      2505.3824       1952.2434
  20255011.7554   -2388161.80449  -1849307.16247  20255011.2724   20255020.4264
      -428.9774       -334.2684
  20322798.9884  -32651286.88849 -25170449.17847  20322798.9604   20322807.0824
      2324.8944       1811.6054
  24275200.2054   -8232635.62447  -6137995.30545  24275200.0064   24275212.4444
      3361.5634       2619.3944
  24266733.5834   -3051026.67747  -2146374.36145  24266733.9204   24266745.7214
      2846.2154       2217.8334
  22093789.0084  -30259470.40348 -23328354.97346  22093788.8584   22093800.2334
     -2690.0774      -2096.1634
 98  9 18  1 21 59.9980000  0  8G 4G22G19G16G18G27G 3G14
  24201728.1274   -9966884.12847  -7505515.08845  24201728.1004   24201740.3274
      -929.4864       -724.2794
  22019655.6794  -16834161.93248 -12832685.98146  22019654.9994   22019663.3994
     -1894.1724      -1475.9784
  21346465.3074  -26442358.34048 -19999616.68547  21346465.2504   21346474.2784
      2491.5944       1941.5014
  20257536.4344   -2374896.96149  -1838970.94347  20257535.8394   20257544.7824
      -452.3604       -352.4884
  20309573.2804  -32720786.86949 -25224604.99347  20309573.4734   20309581.6864
      2311.2624       1800.9824
  24256040.1434   -8333322.05947  -6216452.10045  24256039.8444   24256052.6174
      3353.8024       2613.3444
  24250528.7954   -3136193.35147  -2212737.85545  24250528.9384   24250539.6094
      2834.4614       2208.6664
  22109194.4944  -30178510.74648 -23265269.60746  22109194.7894   22109205.9044
     -2704.3404      -2107.2754
 98  9 18  1 22 29.9980000  0  8G 4G22G19G16G18G27G 3G14
  24207058.3554   -9938869.62747  -7483685.69145  24207058.9184   24207071.1454
      -940.7234       -733.0274
  22030502.9554  -16777159.17148 -12788268.25446  22030502.3184   22030510.6154
     -1908.4584      -1487.1114
  21332257.7504  -26517020.76848 -20057795.13547  21332257.4504   21332266.4284
      2483.5344       1935.2194
  20260163.4504   -2361090.41749  -1828212.61647  20260162.9694   20260171.9324
      -470.7164       -366.7904
  20296396.5844  -32790033.00049 -25278562.99847  20296396.5294   20296404.6254
      2302.5624       1794.2044
  24236893.6354   -8433941.00947  -6294856.31545  24236892.7734   24236905.6914
      3351.4824       2611.5384
  24234359.1644   -3221162.08047  -2278947.09245  24234359.1704   24234370.3134
      2827.6344       2203.3454
  22124652.0844  -30097282.48848 -23201974.93846  22124652.0644   22124663.3514
     -2713.4864      -2114.4024
 98  9 18  1 22 59.9980000  0  8G 4G22G19G16G18G27G 3G14
  24212446.0494   -9910555.14047  -7461622.54445  24212446.3544   24212458.3584
      -947.1814       -738.0624
  22041425.9054  -16719757.20848 -12743539.46546  22041425.1774   22041433.6294
     -1918.4704      -1494.9114
  21318089.3934  -26591472.49048 -20115809.40047  21318089.5164   21318098.7814
      2479.5284       1932.0974
  20262890.2884   -2346760.02549  -1817046.09747  20262889.8444   20262898.9784
      -484.8414       -377.7974
  20283264.9894  -32859043.14949 -25332337.11947  20283264.6644   20283272.0014
      2298.0374       1790.6774
  24217753.7844   -8534514.47047  -6373225.08145  24217753.4614   24217765.5004
      3353.3054       2612.9604
  24218222.8524   -3305956.67547  -2345020.67045  24218222.6284   24218234.5054
      2825.2004       2201.4584
  22140156.2394  -30015809.26648 -23138489.39646  22140156.0644   22140167.3114
     -2718.4364      -2118.2574
 98  9 18  1 23 29.9980000  0  8G 4G22G19G16G18G27G 3G14
  24217906.3464   -9881873.23747  -7439273.07545  24217906.7934   24217917.7154
      -961.9394       -749.5634
  22052436.3274  -16661896.44448 -12698453.17346  22052435.7964   22052444.4984
     -1935.8084      -1508.4234
  21303976.4874  -26665637.02748 -20173599.88347  21303976.4064   21303985.5724
      2467.8704       1923.0134
  20265728.1654   -2331847.46349  -1805425.94447  20265727.6894   20265736.8424
      -506.4364       -394.6254
  20270187.8494  -32927760.86949 -25385883.37847  20270187.9374   20270195.6814
      2286.1874       1781.4444
  24198636.5384   -8634975.87647  -6451506.52845  24198636.3244   24198648.8584
      3347.0124       2608.0564
  24202129.3954   -3390524.06847  -2410917.19645  24202129.7124   24202142.4484
      2815.8404       2194.1534
  22155718.8794  -29934026.50248 -23074762.64646  22155719.1664   22155729.8304
     -2730.6144      -2127.7484
 98  9 18  1 23 59.9980000  0  8G 4G22G19G16G18G27G 3G14
  24223420.3144   -9852893.79547  -7416691.78045  24223420.7174   24223432.3914
      -972.7424       -757.9804
  22063518.1404  -16603663.05248 -12653076.51746  22063517.4924   22063525.9654
     -1949.0654      -1518.7524
  21289901.5984  -26739599.74148 -20231233.10247  21289901.5654   21289911.2454
      2460.5344       1917.2964
  20268664.2314   -2316418.52149  -1793403.41447  20268663.8614   20268672.8764
      -524.7684       -408.9094
  20257153.4064  -32996258.51949 -25439258.15347  20257153.1234   20257160.9174
      2277.6734       1774.8094
  24179529.4234   -8735382.14947  -6529745.01545  24179529.7294   24179542.1924
      3344.1594       2605.8364
  24186063.6944   -3474954.52947  -2476707.03845  24186064.9324   24186073.9404
      2810.2364       2189.7794
  22171323.5354  -29852027.46848 -23010867.36846  22171323.2994   22171333.6264
     -2738.6234      -2133.9894
 98  9 18  1 24 29.9980000  0  8G 4G22G19G16G18G27G 3G14
  24229011.6794   -9823505.14047  -7393791.59345  24229012.1144   24229025.1444
      -983.0804       -766.0344
  22074691.3764  -16544945.16448 -12607322.33046  22074691.0924   22074699.7914
     -1962.0784      -1528.8914
  21275884.8724  -26813258.85648 -20288629.74447  21275884.7464   21275894.0614
      2453.3024       1911.6624
  20271721.2704   -2300351.43449  -1780883.62947  20271720.9964   20271730.3474
      -543.1494       -423.2324
  20244185.3004  -33064406.36249 -25492360.34947  20244185.1474   20244192.9464
      2268.8574       1767.9384
  24160456.5114   -8835613.43547  -6607847.15045  24160456.5674   24160468.4764
      3341.1324       2603.4764
  24170046.7674   -3559124.26447  -2542293.70645  24170047.3384   24170056.8634
      2804.4524       2185.2754
  22186989.4734  -29769699.85148 -22946716.05846  22186989.5014   22187000.5654
     -2746.3374      -2139.9974
 98  9 18  1 24 59.9980000  0  8G 4G22G19G16G18G27G 3G14
  24234658.8514   -9793828.80747  -7370667.28545  24234659.7384   24234672.3564
      -993.7554       -774.3534
  22085937.1134  -16485849.51048 -12561273.78446  22085936.5184   22085945.2454
     -1975.7754      -1539.5644
  21261908.8184  -26886701.52448 -20345857.73547  21261908.8284   21261918.3784
      2444.6164       1904.8934
  20274883.1054   -2283736.28949  -1767936.78547  20274882.8044   20274891.8914
      -562.8164       -438.5594
  20231265.0744  -33132300.06949 -25545264.51947  20231264.9954   20231272.8274
      2259.1254       1760.3574
  24141399.4654   -8935754.39247  -6685878.89945  24141399.0884   24141412.2834
      3336.8584       2600.1464
  24154057.8444   -3643139.85447  -2607760.24945  24154058.9304   24154069.0904
      2798.2014       2180.4084
  22202695.7164  -29687161.56648 -22882400.60846  22202696.0694   22202707.2994
     -2754.4574      -2146.3284
 98  9 18  1 25 29.9980000  0  8G 4G22G19G16G18G27G 3G14
  24240353.9454   -9763900.97147  -7347347.00245  24240355.0354   24240366.7424
     -1008.6984       -785.9974
  22097244.9304  -16426426.98648 -12514970.53646  22097244.0174   22097252.9794
     -1993.0574      -1553.0334
  21247968.6934  -26959957.80648 -20402940.49647  21247968.7744   21247977.8324
      2431.9364       1895.0114
  20278142.8804   -2266607.54449  -1754589.73347  20278142.4524   20278151.4954
      -586.3364       -456.8854
  20218385.5434  -33199981.29549 -25598003.11347  20218385.6774   20218393.3614
      2245.3974       1749.6594
  24122351.9984   -9035850.65747  -6763875.84645  24122352.1934   24122363.5614
      3328.9734       2594.0074
  24138090.8314   -3727048.91847  -2673143.80745  24138089.2854   24138101.8744
      2788.1254       2172.5704
  22218434.0704  -29604459.10048 -22817957.22146  22218433.7674   22218445.1814
     -2766.3774      -2155.6154
 98  9 18  1 25 59.9980000  0  8G 4G22G19G16G18G27G 3G14
  24246112.3604   -9733644.95747  -7323770.96845  24246112.3284   24246124.5584
     -1011.4144       -788.1154
  22108630.8864  -16366594.53148 -12468347.86046  22108630.1744   22108638.8294
     -1998.8004      -1557.5064
  21234079.9674  -27032945.42048 -20459813.90547  21234079.9084   21234088.6144
      2431.0484       1894.3224
  20281514.7814   -2248887.57849  -1740781.98847  20281514.4854   20281523.6214
      -597.6864       -465.7284
  20205566.1784  -33267350.87949 -25650498.86847  20205565.8734   20205573.3344
      2243.0014       1747.7914
  24103327.3864   -9135824.43347  -6841777.34445  24103327.4914   24103340.3484
      3333.0134       2597.1514
  24122165.0244   -3810743.83347  -2738360.46945  24122164.9914   24122175.6774
      2788.4884       2172.8404
  22234220.6604  -29521500.90548 -22753314.55846  22234220.3614   22234231.2994
     -2767.1514      -2156.2214
 98  9 18  1 26 29.9980000  0  8G 4G22G19G16G18G27G 3G14
  24251924.3944   -9703099.13347  -7299969.11945  24251925.5474   24251937.6844
     -1022.2494       -796.5534
  22120090.2734  -16306374.37948 -12421423.08646  22120089.5464   22120098.4914
     -2013.0984      -1568.6464
  21220235.6934  -27105695.86048 -20516502.49947  21220235.5854   21220244.6324
      2421.6064       1886.9634
  20284988.3444   -2230632.73449  -1726557.45447  20284988.0704   20284997.6204
      -616.6194       -480.4814
  20192798.9134  -33334440.99049 -25702776.85547  20192798.9374   20192806.9794
      2232.4034       1739.5334
  24084319.6404   -9235709.99447  -6919610.12045  24084319.8074   24084331.6264
      3328.6754       2593.7674
  24106277.0104   -3894232.84047  -2803416.67845  24106277.0444   24106287.5804
      2780.1254       2166.3264
  22250051.8174  -29438309.15948 -22688489.91046  22250051.3504   22250062.2194
     -2776.1874      -2163.2594
 98  9 18  1 26 59.9980000  0  8G 4G22G19G16G18G27G 3G14
  24257789.0264   -9672282.79147  -7275956.47545  24257789.5254   24257802.4544
     -1031.8964       -804.0734
  22131620.2654  -16245786.08548 -12374211.44746  22131619.4494   22131628.3104
     -2025.5994      -1578.3884
  21206434.7504  -27178221.42148 -20573015.87347  21206434.7204   21206443.3394
      2414.1594       1881.1624
  20288557.4914   -2211880.63749  -1711945.45347  20288557.0394   20288566.1474
      -633.0194       -493.2614
  20180079.4694  -33401283.45349 -25754861.86947  20180079.3634   20180087.4834
      2224.2544       1733.1854
  24065326.0274   -9335521.32847  -6997385.04545  24065326.3494   24065338.3524
      3326.1114       2591.7724
  24090426.4414   -3977528.59347  -2868322.32545  24090425.9284   24090436.4764
      2773.2614       2160.9784
  22265923.1254  -29354903.18248 -22623498.32646  22265923.3414   22265933.8774
     -2783.6534      -2169.0794
 98  9 18  1 27 29.9980000  0  8G 4G22G19G16G18G27G 3G14
  24263712.2914   -9641159.34247  -7251704.52145  24263712.2274   24263724.7594
     -1042.5474       -812.3754
  22143224.9774  -16184799.79648 -12326689.68046  22143224.4174   22143233.5474
     -2039.8494      -1589.4944
  21192676.9584  -27250514.95648 -20629348.43847  21192677.1644   21192686.1494
      2405.9274       1874.7484
  20292221.0754   -2192626.46849  -1696942.22647  20292220.8094   20292229.8484
      -650.1954       -506.6444
  20167409.4074  -33467864.12549 -25806742.89047  20167409.3004   20167417.3614
      2214.6524       1725.7014
  24046349.0604   -9435248.18747  -7075094.15745  24046348.9924   24046361.3464
      3322.6134       2589.0444
  24074619.3544   -4060589.82947  -2933045.19345  24074619.7634   24074630.5084
      2764.4264       2154.0944
  22281840.9834  -29271256.79248 -22558319.41146  22281840.7564   22281851.1414
     -2792.2604      -2175.7824
 98  9 18  1 27 59.9980000  0  8G 4G22G19G16G18G27G 3G14
  24269697.8804   -9609705.40847  -7227195.06845  24269697.9974   24269709.7364
     -1052.9824       -820.5044
  22154915.8254  -16123363.22148 -12278817.04746  22154915.4364   22154924.3624
     -2054.2744      -1600.7344
  21178969.9574  -27322548.63548 -20685478.52647  21178969.8574   21178978.7704
      2398.1074       1868.6514
  20295988.1054   -2172832.79649  -1681518.61247  20295987.6884   20295996.7274
      -667.7914       -520.3554
  20154799.0784  -33534132.29849 -25858380.40547  20154799.1384   20154806.6514
      2204.9184       1718.1174
  24027397.7554   -9534837.80547  -7152696.32045  24027397.8654   24027409.5384
      3318.3114       2585.6934
  24058867.8694   -4143367.00847  -2997546.70745  24058867.3904   24058877.7354
      2755.8134       2147.3774
  22297810.2204  -29187335.97248 -22492926.65546  22297810.2384   22297820.5114
     -2800.7044      -2182.3624
 98  9 18  1 28 29.9980000  0  8G 4G22G19G16G18G27G 3G14
  24275739.2114   -9577960.01947  -7202458.47345  24275739.0764   24275751.0364
     -1064.9054       -829.7924
  22166685.0314  -16061516.71448 -12230624.98446  22166684.1824   22166693.3134
     -2070.2124      -1613.1494
  21165302.5744  -27394371.79448 -20741444.56647  21165302.6024   21165311.5724
      2388.5824       1861.2304
  20299852.3974   -2152525.76349  -1665694.97547  20299852.1004   20299861.1154
      -687.6824       -535.8564
  20142240.4314  -33600131.39949 -25909808.24547  20142240.1954   20142247.1914
      2193.4294       1709.1644
  24008465.7004   -9634325.70547  -7230219.25945  24008465.1794   24008477.0244
      3312.8194       2581.4174
  24043157.8594   -4225924.46547  -3061877.04345  24043157.4994   24043168.5184
      2746.6714       2140.2634
  22313822.3804  -29103190.72348 -22427359.02746  22313822.7894   22313832.9044
     -2810.4274      -2189.9364
 98  9 18  1 28 59.9980000  0  8G 4G22G19G16G18G27G 3G14
  24281860.3584   -9545794.69547  -7177394.69045  24281860.3994   24281872.1504
     -1076.8164       -839.0714
  22178555.8034  -15999136.48448 -12182017.02846  22178555.0044   22178563.8064
     -2085.7764      -1625.2774
  21151701.2614  -27465844.66448 -20797137.66447  21151701.3094   21151710.4484
      2378.9814       1853.7514
  20303843.4064   -2131551.44349  -1649351.37547  20303843.1044   20303852.1364
      -708.1084       -551.7714
  20129759.4074  -33665717.39549 -25960914.18947  20129759.2724   20129766.7994
      2181.3954       1699.7864
  23989575.3624   -9733593.32247  -7307570.53245  23989575.5964   23989588.1514
      3307.7634       2577.4784
  24027509.7544   -4308156.29747  -3125953.64045  24027509.4704   24027518.8134
      2738.1344       2133.6034
  22329901.4904  -29018695.99748 -22361519.07646  22329901.4424   22329912.3344
     -2819.9414      -2197.3534
 98  9 18  1 29 29.9980000  0  8G 4G22G19G16G18G27G 3G14
  24288027.7294   -9513383.81747  -7152139.56045  24288027.6104   24288040.0064
     -1085.4344       -845.7874
  22190497.1144  -15936386.01048 -12133120.57946  22190495.9224   22190504.9194
     -2098.9664      -1635.5574
  21138138.1574  -27537122.15148 -20852678.51347  21138138.0044   21138146.9224
      2371.3064       1847.7704
  20307935.4364   -2110049.57949  -1632596.70147  20307935.0174   20307944.0054
      -726.8114       -566.3464
  20117331.5344  -33731024.34649 -26011802.69647  20117331.4164   20117339.4054
      2171.0234       1691.7064
  23970695.4384   -9832804.73347  -7384878.01845  23970695.6244   23970708.1134
      3304.8634       2575.2174
  24011890.9784   -4390227.49047  -3189905.07245  24011891.7074   24011903.5394
      2731.7654       2128.6414
  22346017.7954  -28934005.55648 -22295526.61546  22346017.8094   22346028.2834
     -2827.5394      -2203.2764
 98  9 18  1 29 59.9980000  0  8G 4G22G19G16G18G27G 3G14
  24294267.5154   -9480592.10247  -7126587.67245  24294267.5044   24294279.5794
     -1093.1824       -851.8244
  22202534.5774  -15873125.67948 -12083826.84346  22202533.5594   22202543.1584
     -2110.7044      -1644.7004
  21124642.0794  -27608042.93348 -20907941.41247  21124642.0204   21124650.9434
      2364.3164       1842.3224
  20312157.6614   -2087860.49049  -1615306.53047  20312157.2364   20312166.3504
      -744.7314       -580.3094
  20104984.5704  -33795906.53349 -26062360.22047  20104984.7804   20104992.5484
      2162.2344       1684.8574
  23951857.1844   -9931805.75947  -7462021.55446  23951857.0844   23951868.1764
      3302.9584       2573.7284
  23996332.6074   -4471987.78947  -3253614.24845  23996332.5894   23996342.8344
      2726.4084       2124.4704
  22362200.4074  -28848965.69748 -22229261.89046  22362200.3784   22362211.2394
     -2834.1754      -2208.4464
 98  9 18  1 30 29.9980000  0  8G 4G22G19G16G18G27G 3G14
  24300535.4084   -9447649.09647  -7100917.89045  24300536.2604   24300549.6214
     -1104.4274       -860.5914
  22214622.2164  -15809604.63348 -12034329.94946  22214621.3754   22214630.6134
     -2125.3414      -1656.1074
  21111172.1394  -27678827.51348 -20963098.17647  21111172.0714   21111181.0754
      2353.3334       1833.7644
  20316465.4544   -2065223.84149  -1597667.61147  20316465.0274   20316473.9574
      -765.6904       -596.6404
  20092673.1144  -33860607.67949 -26112776.66947  20092672.9314   20092680.3364
      2149.8364       1675.1974
  23933010.3594  -10030848.68847  -7539197.73146  23933010.2484   23933021.2204
      3298.5254       2570.2774
  23980791.6424   -4553656.86447  -3317252.33845  23980792.5014   23980802.9384
      2716.6964       2116.8994
  22378403.2134  -28763817.80048 -22162912.98146  22378403.5224   22378414.6574
     -2843.6054      -2215.7934
 98  9 18  1 30 59.9980000  0  8G 4G22G19G16G18G27G 3G14
  24306865.0864   -9414388.57647  -7075000.69945  24306865.4594   24306878.7334
     -1113.6874       -867.8094
  22226789.2744  -15745664.57948 -11984506.55446  22226788.7084   22226797.9104
     -2137.9324      -1665.9224
  21097761.4444  -27749299.20348 -21018011.13047  21097761.3504   21097770.6554
      2344.4274       1826.8254
  20320887.7784   -2041982.17749  -1579557.25347  20320887.5964   20320896.8874
      -784.2894       -611.1334
  20080428.1694  -33924953.60049 -26162916.32247  20080428.0564   20080435.5034
      2139.3514       1667.0264
  23914187.3724  -10129764.33748  -7616274.72646  23914187.0084   23914198.7034
      3295.0974       2567.6044
  23965306.3314   -4635030.15647  -3380659.95945  23965305.4554   23965316.1044
      2707.3794       2109.6444
  22394655.8684  -28678410.02348 -22096361.56046  22394655.7204   22394667.6894
     -2850.7624      -2221.3664
 98  9 18  1 31 29.9980000  0  8G 4G22G19G16G18G27G 3G14
  24313244.0944   -9380872.31647  -7048884.26645  24313244.0254   24313256.1464
     -1122.6034       -874.7464
  22239024.3664  -15681371.60548 -11934408.16046  22239023.5724   22239032.2344
     -2149.8174      -1675.1804
  21084395.2684  -27819539.17648 -21072743.52747  21084395.3904   21084404.9544
      2336.6574       1820.7704
  20325410.9884   -2018214.69049  -1561037.16047  20325410.5724   20325419.8914
      -801.7174       -624.7134
  20068237.0024  -33989018.48949 -26212836.98747  20068236.8624   20068244.4504
      2130.2054       1659.8994
  23895379.0604  -10228591.44147  -7693282.73246  23895379.8414   23895391.9664
      3291.7724       2565.0134
  23949873.7914   -4716128.45747  -3443853.28245  23949873.4984   23949884.8944
      2697.7174       2102.1104
  22410943.3264  -28592818.98748 -22029667.35246  22410943.5494   22410955.5774
     -2856.8244      -2226.0904
 98  9 18  1 31 59.9980000  0  8G 4G22G19G16G18G27G 3G14
  24319685.9524   -9347018.71647  -7022504.92345  24319686.2094   24319698.0494
     -1132.3534       -882.3494
  22251338.5204  -15616662.11148 -11883985.19546  22251337.6484   22251346.1214
     -2162.1224      -1684.7704
  21071085.2494  -27889482.58948 -21127244.84347  21071085.3814   21071094.8764
      2328.3734       1814.3154
  20330045.0504   -1993862.15349  -1542061.19047  20330044.7454   20330053.8524
      -819.6684       -638.7014
  20056110.0624  -34052746.84849 -26262495.41947  20056109.8334   20056117.6034
      2120.2254       1652.1224
  23876605.6344  -10327252.16248  -7770161.08946  23876605.5464   23876617.5014
      3287.6794       2561.8244
  23934507.4474   -4796876.28847  -3506773.54245  23934507.4884   23934517.9344
      2687.7364       2094.3264
  22427275.9144  -28506994.16048 -21962790.96246  22427275.5864   22427286.8834
     -2862.8604      -2230.7974
 98  9 18  1 32 29.9980000  0  8G 4G22G19G16G18G27G 3G14
  24326177.9774   -9312907.42247  -6995924.79845  24326177.7994   24326187.8114
     -1142.1324       -889.9714
  22263716.6244  -15551614.74148 -11833298.95946  22263715.7414   22263723.9144
     -2174.7234      -1694.5914
  21057816.2474  -27959212.89248 -21181580.09647  21057816.1714   21057825.4414
      2320.1524       1807.9104
  20334773.3504   -1969014.91749  -1522699.73947  20334772.9544   20334781.8744
      -837.2104       -652.3704
  20044036.0444  -34116194.79049 -26311935.34747  20044035.9634   20044043.4524
      2109.3714       1643.6634
  23857847.1744  -10425823.15547  -7846969.51446  23857847.4344   23857859.8804
      3283.2784       2558.3914
  23919190.6544   -4877363.39347  -3569490.62945  23919191.2074   23919202.7574
      2677.9654       2086.7234
  22443635.6124  -28421022.62948 -21895800.26146  22443635.5744   22443647.0244
     -2869.0444      -2235.6124
 98  9 18  1 32 59.9980000  0  7G22G19G16G18G27G 3G14
  22276171.3694  -15486160.49948 -11782295.67446  22276170.7294   22276179.3784
     -2187.7684      -1704.7574
  21044597.4934  -28028677.35948 -21235708.20947  21044597.5554   21044606.9194
      2311.9644       1801.5304
  20339606.6894   -1943615.55449  -1502908.05947  20339606.2384   20339615.3754
      -854.9504       -666.1934
  20032026.9914  -34179302.25849 -26361109.96947  20032027.1134   20032034.8604
      2098.8924       1635.4994
  23839120.8504  -10524228.91247  -7923649.17446  23839121.1674   23839134.1254
      3278.1804       2554.4214
  23903932.9014   -4957546.78947  -3631971.06345  23903932.9734   23903944.0814
      2668.8024       2079.5834
  22460037.5654  -28334830.26048 -21828637.47446  22460037.7594   22460048.9594
     -2876.3194      -2241.2864
 98  9 18  1 33 29.9980000  0  7G22G19G16G18G27G 3G14
  22288690.1394  -15420375.93548 -11731034.99946  22288689.5274   22288698.0814
     -2197.4094      -1712.2684
  21031415.2754  -28097951.22248 -21289687.79747  21031415.2804   21031424.3614
      2306.5004       1797.2714
  20344529.6544   -1917744.26849  -1482748.64647  20344529.3784   20344538.9494
      -869.4574       -677.4974
  20020066.9074  -34242155.85849 -26410086.77047  20020066.6254   20020074.5344
      2091.6174       1629.8314
  23820412.6704  -10622547.47548  -8000260.87846  23820412.5024   23820424.0854
      3277.0324       2553.5294
  23888711.9774   -5037536.64147  -3694300.67345  23888711.5744   23888722.3994
      2664.3454       2076.1134
  22476473.6234  -28248457.77947 -21761334.34446  22476473.6684   22476484.3984
     -2881.4584      -2245.2924
 98  9 18  1 33 59.9980000  0  7G22G19G16G18G27G 3G14
  22301281.9334  -15354205.75748 -11679473.84646  22301281.3704   22301289.8464
     -2211.5954      -1723.3204
  21018283.6194  -28166957.58148 -21343458.94047  21018283.7204   21018292.8624
      2296.3024       1789.3254
  20349555.1544   -1891335.99349  -1462170.79847  20349554.7464   20349564.0844
      -888.6394       -692.4454
  20008168.1174  -34304681.26649 -26458807.83947  20008168.2914   20008176.2094
      2079.0664       1620.0504
  23801726.1814  -10720746.46248  -8076779.39546  23801726.1794   23801736.9914
      3272.0044       2549.6114
  23873532.7574   -5117305.48147  -3756458.06945  23873532.7014   23873542.9484
      2655.6774       2069.3614
  22492958.3084  -28161832.18047 -21693833.98146  22492957.9944   22492969.3734
     -2891.1734      -2252.8594
 98  9 18  1 34 29.9980000  0  7G22G19G16G18G27G 3G14
  22313947.3104  -15287652.31848 -11627614.04846  22313946.4704   22313954.6804
     -2224.7064      -1733.5374
  21005201.6984  -28235702.94148 -21397026.70447  21005201.6854   21005211.3154
      2287.3004       1782.3114
  20354681.5424   -1864397.15249  -1441179.52347  20354681.1574   20354690.1804
      -906.8734       -706.6534
  19996334.1774  -34366868.95649 -26507265.75347  19996334.2274   19996342.3294
      2067.5754       1611.0974
  23783060.4164  -10818833.94947  -8153211.05046  23783060.1444   23783071.8304
      3267.7344       2546.2854
  23858395.3274   -5196847.74247  -3818438.92545  23858394.8044   23858406.5704
      2647.4854       2062.9704
  22509489.8664  -28074956.50447 -21626138.74446  22509490.0474   22509501.2274
     -2899.9764      -2259.7174
 98  9 18  1 34 59.9980000  0  7G22G19G16G18G27G 3G14
  22326680.3784  -15220738.43748 -11575473.38546  22326679.3894   22326688.0794
     -2233.8854      -1740.6884
  20992164.9424  -28304211.29048 -21450409.79647  20992164.9124   20992174.7214
      2282.1844       1778.3244
  20359907.2204   -1836935.02949  -1419780.49547  20359906.8714   20359915.8704
      -921.7514       -718.2484
  19984558.0144  -34428753.04849 -26555487.09847  19984557.9324   19984566.1674
      2060.0504       1605.2334
  23764412.9564  -10916824.70647  -8229567.32645  23764412.5324   23764423.8364
      3267.1304       2545.8114
  23843301.1164   -5276171.14747  -3880249.23445  23843301.4054   23843311.6254
      2642.7744       2059.2974
  22526066.4654  -27987848.28647 -21558262.31946  22526066.0894   22526077.6214
     -2904.8304      -2263.5014
 98  9 18  1 35 29.9980000  0  7G22G19G16G18G27G 3G14
  22339476.1134  -15153493.67748 -11523074.90546  22339475.4744   22339484.3104
     -2253.5344      -1755.9994
  20979169.0914  -28372503.35748 -21503624.35847  20979169.2124   20979178.9334
      2266.1454       1765.8254
  20365230.2974   -1808962.22249  -1397983.53047  20365229.9204   20365239.1254
      -947.5564       -738.3544
  19972838.9844  -34490337.23149 -26603474.74347  19972838.9424   19972847.2114
      2041.0794       1590.4504
  23745780.2024  -11014737.36747  -8305862.74145  23745780.2864   23745791.5384
      3255.9364       2537.0854
  23828248.8714   -5355274.12147  -3941887.80745  23828248.2984   23828257.8534
      2626.1534       2046.3434
  22542678.9284  -27900548.87747 -21490236.90546  22542678.5674   22542690.4424
     -2919.1824      -2274.6904
 98  9 18  1 35 59.9980000  0  7G22G19G16G18G27G 3G14
  22352353.0264  -15085825.82748 -11470346.74646  22352352.3564   22352361.4954
     -2261.2864      -1762.0394
  20966232.8564  -28440484.90148 -21556596.95047  20966232.8664   20966242.3424
      2262.2794       1762.8144
  20370670.4604   -1780374.30649  -1375707.25947  20370670.1434   20370679.3254
      -961.8244       -749.4714
  19961197.1004  -34551516.58549 -26651146.93847  19961196.8614   19961205.1174
      2034.0004       1584.9344
  23727181.0484  -11112476.22548  -8382022.72346  23727181.1994   23727192.8694
      3256.1854       2537.2834
  23813260.7194   -5434028.55747  -4003254.78645  23813260.7674   23813271.7004
      2620.4244       2041.8874
  22559337.1194  -27813008.17947 -21422023.48046  22559337.1384   22559348.8084
     -2920.6234      -2275.8074
 98  9 18  1 36 29.9980000  0  7G22G19G16G18G27G 3G14
  22365291.2554  -15017834.75548 -11417366.71246  22365290.6184   22365299.3694
     -2267.6224      -1766.9784
  20953336.0914  -28508257.33148 -21609406.59047  20953336.1964   20953345.4454
      2259.4504       1760.6084
  20376208.2264   -1751273.72349  -1353031.50647  20376207.8254   20376216.6064
      -974.5684       -759.4024
  19949609.2564  -34612407.24349 -26698594.17847  19949609.3694   19949617.6774
      2028.9834       1581.0254
  23708599.6344  -11210123.04548  -8458110.98846  23708599.7444   23708612.2954
      3257.3614       2538.1984
  23798322.8484   -5512522.71647  -4064418.96745  23798323.7624   23798334.8014
      2616.2584       2038.6414
  22576020.4594  -27725333.80047 -21353705.87946  22576020.5614   22576033.1224
     -2920.7374      -2275.8914
 98  9 18  1 36 59.9980000  0  7G22G19G16G18G27G 3G14
  22378294.2514  -14949506.44848 -11364123.89646  22378293.3954   22378302.1004
     -2283.3484      -1779.2314
  20940485.7094  -28575788.21848 -21662028.01447  20940485.7244   20940495.3734
      2246.6424       1750.6294
  20381847.1764   -1721639.40549  -1329939.85847  20381846.8814   20381855.9004
      -996.8034       -776.7294
  19938078.0564  -34673003.79549 -26745812.24547  19938078.0884   19938086.6004
      2014.6454       1569.8544
  23690038.9624  -11307659.79448  -8534113.49046  23690039.0054   23690050.9304
      3249.2764       2531.8984
  23783438.9824   -5590746.23647  -4125372.23345  23783439.3864   23783448.5664
      2602.6574       2028.0434
  22592733.1584  -27637506.39747 -21285269.04245  22592733.4084   22592746.3264
     -2930.2074      -2283.2714
 98  9 18  1 37 29.9980000  0  7G22G19G16G18G27G 3G14
  22391358.3384  -14880853.87748 -11310628.40546  22391357.1084   22391366.0884
     -2296.2064      -1789.2504
  20927682.3034  -28643067.91448 -21714453.71847  20927682.3404   20927691.6004
      2236.0324       1742.3614
  20387584.8744   -1691488.29649  -1306445.51347  20387584.4624   20387593.4554
     -1015.9334       -791.6344
  19926603.4684  -34733308.68849 -26792803.04747  19926603.0324   19926610.7824
      2003.0794       1560.8404
  23671495.1784  -11405104.63448  -8610044.36546  23671495.6134   23671507.6114
      3244.5494       2528.2134
  23768604.7774   -5668700.01347  -4186115.34045  23768605.2364   23768614.9004
      2591.7214       2019.5124
  22609472.9674  -27549538.94747 -21216723.08545  22609472.8914   22609486.0744
     -2937.0144      -2288.5724
 98  9 18  1 37 59.9980000  0  7G22G19G16G18G27G 3G14
  22404497.1334  -14811808.31648 -11256826.69946  22404496.4764   22404504.8734
     -2305.6504      -1796.6094
  20914939.7514  -28710029.96448 -21766631.90147  20914939.9684   20914949.2734
      2229.3744       1737.1734
  20393432.3034   -1660761.14049  -1282502.30147  20393431.8844   20393440.4974
     -1031.3794       -803.6714
  19915194.4084  -34793260.08849 -26839518.39747  19915194.4784   19915202.3684
      1994.7364       1554.3394
  23652979.9724  -11502401.47047  -8685859.92846  23652980.2224   23652991.1834
      3243.1024       2527.0874
  23753832.0884   -5746333.17647  -4246608.61545  23753832.5694   23753841.1204
      2584.9964       2014.2784
  22626254.2694  -27461354.80947 -21148008.27145  22626254.8984   22626267.3164
     -2941.0334      -2291.7104
 98  9 18  1 38 29.9980000  0  7G22G19G16G18G27G 3G14
  22417679.2954  -14742535.12248 -11202847.61846  22417678.5514   22417687.1394
     -2313.5794      -1802.7894
  20902224.0434  -28776853.23548 -21818701.93247  20902224.0804   20902232.7134
      2224.4794       1733.3594
  20399354.7804   -1629638.13249  -1258250.63647  20399354.3964   20399363.0904
     -1044.8304       -814.1534
  19903822.9044  -34853016.63049 -26886081.91347  19903822.8114   19903830.9874
      1987.6964       1548.8534
  23634461.6394  -11599716.26548  -8761689.49846  23634461.4834   23634473.1414
      3243.4724       2527.3744
  23739085.7524   -5823825.80247  -4306992.38445  23739085.1664   23739094.7444
      2579.8094       2010.2404
  22643050.3944  -27373093.63047 -21079233.42645  22643050.3864   22643062.9164
     -2944.0724      -2294.0774
 98  9 18  1 38 59.9980000  0  7G22G19G16G18G27G 3G14
  22430931.5594  -14672890.48648 -11148579.09246  22430931.3984   22430940.3754
     -2330.6144      -1816.0634
  20889560.1154  -28843401.63848 -21870557.78247  20889560.1634   20889569.2934
      2211.1564       1722.9764
  20405381.5784   -1597966.82849  -1233571.72647  20405381.3014   20405390.2484
     -1067.5844       -831.8834
  19892520.4814  -34912411.88949 -26932363.91147  19892520.3374   19892528.5264
      1970.7404       1535.6394
  23615967.0334  -11696908.09548  -8837423.24246  23615966.4834   23615978.2274
      3234.9794       2520.7574
  23724396.5734   -5901012.29847  -4367137.61845  23724395.7944   23724406.1274
      2564.9594       1998.6724
  22659888.6034  -27284606.02847 -21010282.14945  22659888.6264   22659900.8224
     -2956.0374      -2303.4034
 98  9 18  1 39 29.9980000  0  7G22G19G16G18G27G 3G14
  22444257.2924  -14602865.35748 -11094014.07846  22444256.8324   22444265.2794
     -2340.1754      -1823.5124
  20876944.7994  -28909695.08648 -21922214.97547  20876944.8964   20876953.9924
      2206.0594       1719.0054
  20411510.8764   -1565756.62349  -1208472.89247  20411510.5684   20411519.7724
     -1082.2894       -843.3404
  19881291.4094  -34971420.69449 -26978344.77647  19881291.5014   19881299.3184
      1960.7424       1527.8504
  23597492.8724  -11793988.88048  -8913070.47546  23597492.8284   23597503.9294
      3234.4114       2520.3194
  23709767.6784   -5977890.71647  -4427042.79645  23709767.0214   23709777.7684
      2557.8514       1993.1304
  22676767.7774  -27195902.55847 -20941162.66345  22676768.8294   22676781.3314
     -2959.9134      -2306.4224
 98  9 18  1 39 59.9980000  0  7G22G19G16G18G27G 3G14
  22457652.2544  -14532474.87748 -11039164.37946  22457651.6904   22457660.3704
     -2351.5424      -1832.3714
  20864373.5524  -28975758.77048 -21973693.12247  20864373.6804   20864382.6234
      2198.9994       1713.5034
  20417738.8344   -1533027.88149  -1182970.00547  20417738.5534   20417748.0014
     -1098.7654       -856.1794
  19870135.6614  -35030045.99749 -27024026.80947  19870135.6204   19870143.5144
      1948.5494       1518.3494
  23579039.3744  -11890961.68548  -8988633.58446  23579039.1094   23579050.6254
      3231.2554       2517.8574
  23695192.9234   -6054479.10847  -4486721.98045  23695193.5064   23695203.1054
      2548.7544       1986.0404
  22693685.7724  -27107005.08447 -20871892.01345  22693685.6294   22693697.4344
     -2965.8254      -2311.0244
 98  9 18  1 40 29.9980000  0  7G22G19G16G18G27G 3G14
  22471103.0994  -14461791.68548 -10984086.59846  22471102.5104   22471110.9514
     -2359.8494      -1838.8394
  20851834.7984  -29041650.57648 -22025037.32947  20851834.8544   20851843.6524
      2194.5164       1710.0104
  20424051.7764   -1499854.07649  -1157120.31647  20424051.4624   20424060.5974
     -1112.2264       -866.6704
  19859039.3154  -35088357.44649 -27069464.28447  19859038.9994   19859047.2504
      1939.7194       1511.4694
  23560594.4124  -11987882.91048  -9064156.51846  23560595.0374   23560607.0784
      3230.9594       2517.6274
  23680665.6894   -6130822.61547  -4546210.35945  23680665.4854   23680675.5384
      2541.5644       1980.4374
  22710627.0774  -27017977.27847 -20802519.80845  22710627.5934   22710638.5854
     -2968.3404      -2312.9894
 98  9 18  1 40 59.9980000  0  7G22G19G16G18G27G 3G14
  22484624.8154  -14390732.96548 -10928716.19346  22484624.0194   22484632.7664
     -2376.9284      -1852.1494
  20839346.5164  -29107275.84048 -22076173.84647  20839346.6244   20839355.4194
      2180.9374       1699.4304
  20430465.9774   -1466147.04349  -1130855.12347  20430465.6084   20430474.7604
     -1134.3834       -883.9344
  19848017.6004  -35146277.15549 -27114596.50447  19848017.3854   19848025.6704
      1922.2674       1497.8704
  23542177.8524  -12084669.96148  -9139574.88646  23542177.5394   23542188.8634
      3221.9634       2510.6144
  23666202.1434   -6206826.70847  -4605434.23845  23666202.2054   23666212.2224
      2525.8504       1968.1954
  22727605.4484  -26928758.14147 -20732998.51145  22727605.2964   22727616.3934
     -2979.1874      -2321.4394
 98  9 18  1 41 29.9980000  0  7G22G19G16G18G27G 3G14
  22498212.0824  -14319332.07048 -10873079.16246  22498211.4244   22498219.9354
     -2384.9824      -1858.4254
  20826905.2194  -29172653.88448 -22127117.73147  20826905.4074   20826914.2224
      2175.5384       1695.2234
  20436974.1284   -1431946.86049  -1104205.65647  20436973.8644   20436982.8414
     -1147.8214       -894.4054
  19837061.1904  -35203851.78349 -27159459.83347  19837061.2944   19837069.2434
      1914.1054       1491.5094
  23523781.6894  -12181344.06348  -9214905.25646  23523781.5704   23523792.4024
      3220.7984       2509.7094
  23651798.7014   -6282517.87647  -4664414.27445  23651798.3944   23651808.5264
      2517.9884       1962.0674
  22744613.7614  -26839378.25547 -20663351.95345  22744613.8284   22744625.3104
     -2981.7384      -2323.4284
 98  9 18  1 41 59.9980000  0  7G22G19G16G18G27G 3G14
  22511856.4894  -14247629.50348 -10817207.04146  22511856.1684   22511864.6854
     -2394.9464      -1866.1894
  20814508.5454  -29237800.45248 -22177881.25247  20814508.4234   20814517.2154
      2167.9274       1689.2914
  20443574.2574   -1397264.75149  -1077180.66647  20443573.7114   20443582.8314
     -1164.1244       -907.1084
  19826163.2004  -35261122.09749 -27204086.03347  19826163.2084   19826171.1634
      1904.2104       1483.7994
  23505406.2874  -12277905.35248  -9290147.72746  23505406.2374   23505417.6524
      3217.2034       2506.9064
  23637454.2384   -6357892.66347  -4723147.80045  23637454.6514   23637464.7634
      2507.2344       1953.6904
  22761652.7204  -26749839.74147 -20593581.79045  22761652.3034   22761663.4144
     -2987.2354      -2327.7114
 98  9 18  1 42 29.9980000  0  7G22G19G16G18G27G 3G14
  22525566.8074  -14175580.04948 -10761064.64046  22525566.7474   22525575.1664
     -2405.8344      -1874.6744
  20802162.1464  -29302680.67648 -22228437.22547  20802162.1084   20802170.5674
      2159.9594       1683.0824
  20450276.8224   -1362040.80249  -1049733.46247  20450276.6024   20450285.6484
     -1181.6084       -920.7334
  19815330.2624  -35318050.44349 -27248445.76747  19815330.2244   19815337.7814
      1893.5294       1475.4764
  23487058.7974  -12374320.64748  -9365276.43246  23487059.0694   23487070.0224
      3213.1114       2503.7194
  23623182.5854   -6432893.30847  -4781589.75945  23623182.5164   23623192.6084
      2495.5474       1944.5784
  22778730.8454  -26660093.74947 -20523649.96345  22778730.8974   22778742.4964
     -2992.9804      -2332.1884
 98  9 18  1 42 59.9980000  0  7G22G19G16G18G27G 3G14
  22539331.5584  -14103247.68748 -10704701.77946  22539331.1304   22539339.9894
     -2414.8954      -1881.7394
  20789854.5044  -29367355.74848 -22278833.33547  20789854.7314   20789863.3084
      2153.0334       1677.6854
  20457073.1034   -1326327.39749  -1021904.86647  20457072.7004   20457081.4894
     -1197.8184       -933.3644
  19804552.0214  -35374690.70049 -27292581.01747  19804551.9314   19804559.5214
      1883.7644       1467.8674
  23468727.5804  -12470651.04148  -9440338.99546  23468727.4934   23468739.7854
      3210.2254       2501.4734
  23608967.8294   -6507594.29947  -4839798.27145  23608967.5364   23608977.3934
      2485.8224       1936.9944
  22795833.7994  -26570215.31347 -20453614.93645  22795834.1664   22795845.3214
     -2997.6674      -2335.8444
 98  9 18  1 43 29.9980000  0  7G22G19G16G18G27G 3G14
  22553159.9774  -14030580.69848 -10648078.17246  22553159.4404   22553167.9444
     -2428.5574      -1892.3824
  20777600.6844  -29431751.82848 -22329012.04547  20777600.5964   20777609.5104
      2140.9914       1668.3064
  20463974.5724   -1290059.65549   -993644.31847  20463974.1884   20463983.3184
     -1219.0374       -949.8984
  19793843.7944  -35430962.57649 -27336429.21647  19793843.6254   19793850.8994
      1868.5064       1455.9804
  23450426.0334  -12566826.51448  -9515280.84046  23450426.1094   23450437.7444
      3202.4154       2495.3884
  23594822.6634   -6581925.25147  -4897718.40545  23594822.7674   23594832.5984
      2470.7674       1925.2744
  22812978.1764  -26480124.36147 -20383414.31045  22812977.8114   22812989.5654
     -3007.3554      -2343.3884
 98  9 18  1 43 59.9980000  0  7G22G19G16G18G27G 3G14
  22567040.1224  -13957640.01648 -10591241.30046  22567039.3064   22567048.2514
     -2435.9504      -1898.1434
  20765389.0694  -29495923.43548 -22379015.83647  20765388.9264   20765397.8864
      2135.2844       1663.8574
  20470970.6994   -1253292.10249   -964994.30947  20470970.5434   20470979.8844
     -1233.7344       -961.3514
  19783197.9414  -35486906.47149 -27380021.84247  19783197.9694   19783205.5594
      1859.3084       1448.8114
  23432141.2324  -12662911.77648  -9590152.38946  23432141.0694   23432153.3914
      3201.6374       2494.7814
  23580734.6254   -6655957.68747  -4955405.94845  23580734.5814   23580745.3144
      2463.0004       1919.2204
  22830147.4434  -26389894.86247 -20313105.72345  22830147.8024   22830159.7094
     -3009.6404      -2345.1684
 98  9 18  1 44 29.9980000  0  7G22G19G16G18G27G 3G14
  22580974.2574  -13884414.76448 -10534182.68946  22580973.6694   22580982.5684
     -2451.4374      -1910.2124
  20753223.8594  -29559850.84348 -22428829.35647  20753223.9624   20753232.8954
      2120.8284       1652.5914
  20478062.1974   -1216028.38749   -935957.68047  20478061.7874   20478071.0364
     -1256.1454       -978.8134
  19772618.4684  -35542503.27849 -27423344.00847  19772618.3274   19772625.8434
      1841.4784       1434.9174
  23413873.8584  -12758906.56448  -9664953.44546  23413874.1334   23413886.0664
      3192.2484       2487.4634
  23566703.0054   -6729695.05547  -5012863.54445  23566702.6364   23566712.8364
      2447.1004       1906.8284
  22847341.1174  -26299541.28747 -20242700.44645  22847341.6464   22847354.1684
     -3019.5964      -2352.9284
 98  9 18  1 44 59.9980000  0  7G22G19G16G18G27G 3G14
  22594965.9154  -13810885.03048 -10476886.82446  22594965.5874   22594974.7194
     -2455.7844      -1913.5974
  20741112.8684  -29623494.70048 -22478421.92547  20741112.9254   20741121.7644
      2117.0864       1649.6764
  20485249.5624   -1178258.03849   -906526.27347  20485249.2634   20485258.3404
     -1267.0624       -987.3194
  19762110.1334  -35597724.60949 -27466373.59947  19762109.9944   19762117.6374
      1834.6914       1429.6284
  23395630.3294  -12854779.05548  -9739659.19446  23395630.3664   23395641.9204
      3194.0934       2488.9034
  23552734.3724   -6803104.77847  -5070065.84845  23552734.2014   23552743.5194
      2441.6394       1902.5724
  22864562.3664  -26209044.10647 -20172183.27145  22864562.6364   22864574.6674
     -3018.8034      -2352.3114
 98  9 18  1 45 29.9980000  0  8G22G19G16G18G27G13G 3G14
  22609013.8994  -13737063.34248 -10419363.46046  22609013.8504   22609022.5814
     -2465.4074      -1921.0944
  20729049.4464  -29686886.26048 -22527817.89347  20729049.5524   20729058.9854
      2109.5504       1643.8034
  20492528.1934   -1140007.91249   -876721.01147  20492527.8624   20492537.3884
     -1282.5704       -999.4044
  19751668.4114  -35652595.82449 -27509130.37347  19751668.3574   19751676.1634
      1823.9024       1421.2224
  23377402.4284  -12950566.42848  -9814298.60646  23377402.6414   23377414.6644
      3192.0674       2487.3174
  24231109.9544   -4956951.41857  -3585158.18845  24231110.9044   24231121.2344
      3755.0334       2925.9834
  23538824.6614   -6876198.47847  -5127021.90245  23538824.5474   23538834.5994
      2431.7334       1894.8504
  22881806.1174  -26118427.15947 -20101572.78345  22881806.5044   22881818.7604
     -3021.8704      -2354.7024
 98  9 18  1 45 59.9980000  0  8G22G19G16G18G27G13G 3G14
  22623123.0704  -13662921.00648 -10361590.23246  22623122.8374   22623131.3314
     -2475.0894      -1928.6414
  20717034.4374  -29750027.84748 -22577019.08047  20717034.4844   20717043.2854
      2102.3044       1638.1584
  20499900.4844   -1101266.28549   -846532.76447  20499900.3294   20499910.1104
     -1297.9344      -1011.3764
  19741291.9194  -35707123.68349 -27551619.59747  19741291.9704   19741299.6104
      1813.6344       1413.2224
  23359191.8884  -13046262.91448  -9888867.19646  23359191.9174   23359203.4834
      3189.9514       2485.6744
  24209675.9474   -5069592.11847  -3672930.02445  24209676.6034   24209687.8004
      3756.5474       2927.1774
  23524976.0564   -6948970.58147  -5183727.35045  23524976.1114   23524986.0684
      2421.9044       1887.1954
  22899073.0734  -26027692.31347 -20030870.41845  22899072.9904   22899084.9444
     -3024.9124      -2357.0714
 98  9 18  1 46 29.9980000  0  8G22G19G16G18G27G13G 3G14
  22637309.6934  -13588371.24648 -10303499.53646  22637309.0354   22637317.8884
     -2489.5944      -1939.9444
  20705081.1634  -29812844.62248 -22625967.16947  20705081.0664   20705089.8654
      2090.7074       1629.1214
  20507382.1534   -1061952.06049   -815898.33547  20507381.7194   20507391.1974
     -1317.8704      -1026.9114
  19730995.8604  -35761230.40349 -27593780.65447  19730995.9834   19731003.3744
      1798.7094       1401.5914
  23341017.3854  -13141776.81548  -9963293.51146  23341017.1804   23341027.4974
      3182.7234       2480.0404
  24188255.0354   -5182167.17047  -3760650.71045  24188255.3584   24188265.0394
      3753.6464       2924.9144
  23511206.6504   -7021327.50247  -5240109.29445  23511207.2704   23511217.2094
      2407.0524       1875.6264
  22916380.0604  -25936741.49747 -19959999.75945  22916380.2914   22916392.8184
     -3033.3184      -2363.6234
 98  9 18  1 46 59.9980000  0  8G22G19G16G18G27G13G 3G14
  22651554.8494  -13513510.69348 -10245166.65346  22651554.4904   22651563.4634
     -2497.7814      -1946.3194
  20693169.2684  -29875440.90748 -22674743.45147  20693169.2984   20693178.2554
      2085.5694       1625.1174
  20514952.6954   -1022168.54849   -784898.23247  20514952.3454   20514961.5274
     -1331.2704      -1037.3514
  19720760.9644  -35815016.95349 -27635692.23047  19720760.6004   19720768.2724
      1790.1594       1394.9294
  23322857.6704  -13237201.70748 -10037650.46746  23322857.5634   23322869.0854
      3181.9694       2479.4534
  24166825.6234   -5294777.13747  -3848398.62345  24166826.1174   24166833.9574
      3756.7444       2927.3274
  23497497.9704   -7093371.19047  -5296247.14945  23497498.3734   23497507.3294
      2399.1454       1869.4654
  22933713.7324  -25845658.59247 -19889026.17545  22933713.5394   22933725.3304
     -3035.7704      -2365.5314
 98  9 18  1 47 29.9980000  0  8G22G19G16G18G27G13G 3G14
  22665858.4104  -13438347.33148 -10186597.83146  22665857.5614   22665866.5874
     -2508.0814      -1954.3454
  20681298.5744  -29937820.85848 -22723351.17447  20681298.5234   20681307.8454
      2077.9964       1619.2164
  20522611.5544    -981919.26849   -753535.19147  20522611.4054   20522620.6714
     -1346.9944      -1049.6044
  19710586.4824  -35868480.39749 -27677352.03647  19710586.3804   19710594.3984
      1779.0324       1386.2584
  23304717.0374  -13332529.27548 -10111931.59046  23304717.0654   23304728.6664
      3177.9744       2476.3444
  24145389.0504   -5407419.89047  -3936172.05745  24145389.8674   24145399.6954
      3757.7184       2928.0854
  23483844.2764   -7165120.51447  -5352155.64345  23483844.1244   23483853.5964
      2389.0324       1861.5894
  22951073.3494  -25754436.03147 -19817943.78045  22951072.4684   22951084.5484
     -3040.7964      -2369.4424
 98  9 18  1 47 59.9980000  0  8G22G19G16G18G27G13G 3G14
  22680205.0174  -13362956.09248 -10127851.43746  22680204.3094   22680213.1384
     -2517.4964      -1961.6864
  20669460.0854  -30000031.67048 -22771827.10547  20669460.1284   20669469.3574
      2069.8744       1612.8874
  20530347.5504    -941267.69349   -721858.67447  20530347.1364   20530356.6894
     -1362.6174      -1061.7794
  19700466.3254  -35921662.76449 -27718792.82147  19700466.4914   19700474.1004
      1766.7764       1376.7084
  23286589.4054  -13427790.41748 -10186160.94146  23286589.3124   23286600.9834
      3173.2134       2472.6314
  24123933.6704   -5520161.28647  -4024022.36845  24123935.4554   24123943.5394
      3758.8554       2928.9814
  23470237.3204   -7236626.35947  -5407874.39845  23470237.5204   23470247.3704
      2378.4114       1853.3034
  22968450.0134  -25663121.44847 -19746789.67445  22968449.6594   22968461.5984
     -3046.2594      -2373.7024
 98  9 18  1 48 29.9980000  0  8G22G19G16G18G27G13G 3G14
  22694598.2684  -13287318.83948 -10068913.33746  22694597.6704   22694606.1954
     -2529.8954      -1971.3454
  20657662.4524  -30062029.63948 -22820137.17047  20657662.5214   20657671.2434
      2058.3474       1603.9044
  20538166.2884    -900181.65649   -689843.61647  20538165.7784   20538175.0844
     -1381.3764      -1076.3954
  19690411.2764  -35974502.68749 -27759966.76847  19690411.3564   19690418.8804
      1750.9794       1364.4004
  23268482.0654  -13522945.48648 -10260307.64646  23268482.2204   23268493.2984
      3165.6374       2466.7274
  24102466.9864   -5632975.28247  -4111929.24145  24102467.3614   24102476.8674
      3757.2834       2927.7524
  23456683.6314   -7307842.05647  -5463367.08145  23456684.1544   23456695.1674
      2364.3664       1842.3594
  22985850.2554  -25571677.85647 -19675535.04545  22985850.1134   22985862.7404
     -3054.8214      -2380.3794
 98  9 18  1 48 59.9970000  0  8G22G19G16G18G27G13G 3G14
  22709070.1284  -13211267.44348 -10009652.53146  22709069.5864   22709078.2544
     -2537.8844      -1977.5724
  20645940.6734  -30123627.01748 -22868135.08347  20645940.8604   20645949.7704
      2050.8174       1598.0394
  20546101.4984    -858478.87749   -657347.97847  20546101.4204   20546110.7834
     -1396.5134      -1088.1914
  19680456.1084  -36026818.52649 -27800732.33147  19680456.0354   19680463.3124
      1739.2534       1355.2604
  23250425.4604  -13617832.22748 -10334245.26446  23250425.5014   23250436.8954
      3162.7974       2464.5094
  24081018.3044   -5745686.17047  -4199755.81245  24081019.2184   24081029.0024
      3759.6064       2929.5624
  23443221.6364   -7378591.49147  -5518496.45145  23443221.8074   23443231.5944
      2354.7214       1834.8494
  23003306.3824  -25479945.74247 -19604055.59345  23003306.4064   23003318.6514
     -3058.3404      -2383.1214
 98  9 18  1 49 29.9970000  0  8G22G19G16G18G27G13G 3G14
  22723576.7864  -13135038.55448  -9950253.41946  22723575.6184   22723584.1724
     -2545.4194      -1983.4464
  20634249.2614  -30185066.53248 -22916009.99447  20634249.2814   20634258.6004
      2043.9384       1592.6784
  20554114.2104    -816374.27249   -624539.22947  20554113.7944   20554123.0104
     -1411.7314      -1100.0494
  19670556.0914  -36078844.30049 -27841271.87247  19670556.0014   19670563.3064
      1728.0064       1346.4974
  23232373.4034  -13712695.70848 -10408164.74746  23232373.2824   23232384.9204
      3160.1974       2462.4854
  24059544.7204   -5858533.69447  -4287688.81845  24059545.0224   24059553.8364
      3762.3194       2931.6714
  23429804.8294   -7449097.14847  -5573435.84145  23429804.5224   23429814.3624
      2344.3844       1826.7884
  23020770.4684  -25388176.21247 -19532546.98945  23020769.7274   23020781.6634
     -3060.7584      -2385.0014
 98  9 18  1 49 59.9970000  0  8G22G19G16G18G27G13G 3G14
  22738150.4444  -13058451.70148  -9890575.37146  22738149.8924   22738158.0804
     -2559.6634      -1994.5424
  20622621.4794  -30246168.85748 -22963622.16447  20622621.6864   20622630.8004
      2030.3204       1582.0674
  20562239.3864    -773676.98449   -591268.65447  20562238.9944   20562248.1274
     -1434.0254      -1117.4214
  19660744.4174  -36130404.16649 -27881448.36747  19660744.3144   19660752.2384
      1710.0734       1332.5224
  23214359.9834  -13807354.85948 -10481924.99446  23214359.9934   23214371.4224
      3151.1844       2455.4624
  24038081.9704   -5971323.26247  -4375576.67045  24038082.7864   24038091.6764
      3757.7464       2928.1054
  23416472.4184   -7519156.22447  -5628027.25945  23416472.4674   23416482.8924
      2326.9124       1813.1734
  23038270.1004  -25296211.73847 -19460886.47445  23038269.6934   23038282.3134
     -3069.5074      -2391.8244
 98  9 18  1 50 29.9970000  0  8G22G19G16G18G27G13G 3G14
  22752771.7794  -12981613.42948  -9830701.42046  22752771.0654   22752780.4314
     -2562.7764      -1996.9724
  20611037.8364  -30307042.71348 -23011056.30247  20611037.9044   20611046.7654
      2028.0354       1580.2864
  20570456.7684    -730492.52649   -557618.46847  20570456.5114   20570466.0994
     -1444.9284      -1125.9174
  19650998.9614  -36181615.33049 -27921353.14847  19650999.0614   19651007.1354
      1704.0484       1327.8284
  23196362.9134  -13901931.60348 -10555621.04446  23196362.4524   23196373.7054
      3153.8544       2457.5454
  24016610.4104   -6084155.67447  -4463497.89845  24016610.4894   24016619.0554
      3764.3954       2933.2944
  23403207.9674   -7588866.43047  -5682346.83045  23403206.9774   23403216.9134
      2320.6194       1808.2714
  23055785.7154  -25204166.94847 -19389163.39445  23055785.9674   23055797.8034
     -3066.9474      -2389.8244
 98  9 18  1 50 59.9970000  0  8G22G19G16G18G27G13G 3G14
  22767456.4084  -12904448.82348  -9770573.17346  22767455.5744   22767464.3164
     -2579.0414      -2009.6404
  20599510.5514  -30367618.35048 -23058258.06147  20599510.7084   20599519.5984
      2012.8384       1568.4444
  20578781.9874    -686743.28849   -523528.18847  20578781.6174   20578791.4984
     -1469.1614      -1144.7994
  19641332.8144  -36232412.09549 -27960935.01747  19641332.9194   19641340.6684
      1684.7404       1312.7834
  23178397.8774  -13996338.68848 -10629184.89646  23178397.7874   23178408.7714
      3142.2274       2448.4854
  23995149.5894   -6196937.85247  -4551379.99545  23995149.4524   23995157.0264
      3756.9694       2927.5014
  23390022.3734   -7658152.56347  -5736335.95245  23390022.2604   23390032.0664
      2300.7364       1792.7764
  23073330.5734  -25111966.81047 -19317319.25845  23073331.0754   23073343.3754
     -3077.3304      -2397.9134
 98  9 18  1 51 29.9970000  0  8G22G19G16G18G27G13G 3G14
  22782178.8274  -12827080.20348  -9710285.96146  22782177.3964   22782187.2884
     -2583.5654      -2013.1694
  20588016.0914  -30428022.55648 -23105326.23147  20588016.1704   20588025.1934
      2009.4224       1565.7834
  20587190.4814    -642557.60749   -489097.81847  20587190.1974   20587199.8654
     -1481.1594      -1154.1514
  19631722.9994  -36282910.47849 -28000284.38147  19631723.2884   19631730.7754
      1677.0914       1306.8234
  23160447.1744  -14090669.04548 -10702688.95946  23160447.1324   23160458.1604
      3141.9424       2448.2614
  23973674.5544   -6309781.88447  -4639310.30545  23973675.7734   23973683.4094
      3761.3014       2930.8804
  23376900.6144   -7727110.76747  -5790069.54745  23376900.0294   23376909.3194
      2291.8984       1785.8894
  23090882.9464  -25019733.29147 -19245449.10845  23090882.6644   23090894.7044
     -3076.3364      -2397.1404
 98  9 18  1 51 59.9970000  0  8G22G19G16G18G27G13G 3G14
  22796953.7254  -12749438.42748  -9649785.91446  22796952.6404   22796961.7764
     -2590.0284      -2018.2044
  20576568.4844  -30488179.98348 -23152202.10747  20576568.5844   20576577.3754
      2003.5084       1561.1744
  20595692.5864    -597882.45249   -454286.04347  20595691.9024   20595701.1504
     -1494.7064      -1164.7044
  19622185.2574  -36333032.01049 -28039340.09447  19622185.1884   19622192.9804
      1666.7044       1298.7304
  23142523.4934  -14184861.17748 -10776085.30846  23142523.2954   23142534.2334
      3140.1754       2446.8864
  23952203.8444   -6422616.76447  -4727233.45045  23952203.6544   23952211.1734
      3763.6734       2932.7274
  23363854.1584   -7795673.16447  -5843494.72245  23363853.6584   23363862.4304
      2281.3104       1777.6394
  23108455.9844  -24927389.08447 -19173492.69845  23108455.3024   23108467.1634
     -3077.5894      -2398.1174
 98  9 18  1 52 29.9970000  0  8G22G19G16G18G27G13G 3G14
  22811763.1804  -12671611.61548  -9589141.67146  22811762.9304   22811772.0224
     -2598.4664      -2024.7764
  20565152.3634  -30548169.84248 -23198947.40647  20565152.5874   20565161.6514
      1995.8154       1555.1794
  20604268.1474    -552814.82849   -419168.45147  20604267.8364   20604277.0264
     -1509.8854      -1176.5334
  19612704.7314  -36382851.09349 -28078160.13547  19612704.8054   19612712.5654
      1654.5174       1289.2334
  23124606.3454  -14279014.50948 -10849451.41446  23124606.3624   23124617.1534
      3136.6644       2444.1484
  23930715.5454   -6535537.19047  -4815223.25045  23930715.9534   23930724.1374
      3764.3114       2933.2264
  23350864.2034   -7863928.69547  -5896680.76845  23350864.9294   23350874.8344
      2269.1384       1768.1554
  23126033.0244  -24835017.39847 -19101514.89245  23126033.3604   23126045.2644
     -3080.4824      -2400.3714
 98  9 18  1 52 59.9970000  0  8G22G19G16G18G27G13G 3G14
  22826634.1794  -12593463.90648  -9528247.39146  22826633.8154   22826643.0754
     -2609.0584      -2033.0304
  20553793.4274  -30607862.12048 -23245460.83647  20553793.6324   20553802.6354
      1985.9174       1547.4674
  20612943.3854    -507226.68249   -383645.25547  20612942.9474   20612952.3824
     -1526.9324      -1189.8144
  19603307.3434  -36432235.25249 -28116641.26947  19603307.3644   19603315.3664
      1640.0384       1277.9514
  23106721.8824  -14372996.68748 -10922684.16146  23106722.0384   23106732.8894
      3131.2464       2439.9284
  23909237.0924   -6648405.00547  -4903172.05345  23909236.8334   23909247.7334
      3762.8074       2932.0544
  23337957.4004   -7931757.29947  -5949534.15045  23337957.2054   23337967.2314
      2254.9634       1757.1084
  23143637.9954  -24742499.32747 -19029423.01345  23143638.0614   23143650.3694
     -3084.9944      -2403.8864
 98  9 18  1 53 29.9970000  0  8G22G19G16G18G27G13G 3G14
  22841561.4674  -12515021.08147  -9467123.14046  22841561.2794   22841570.0254
     -2617.8464      -2039.8814
  20542488.9934  -30667270.72348 -23291753.21647  20542488.7774   20542497.5804
      1977.4064       1540.8344
  20621711.1024    -461152.20149   -347743.09447  20621710.7404   20621719.9374
     -1542.0414      -1201.5894
  19593989.5024  -36481200.79049 -28154796.20647  19593989.5504   19593997.8024
      1627.0964       1267.8674
  23088863.4074  -14466846.63748 -10995813.88046  23088863.2494   23088873.6914
      3128.1364       2437.5044
  23887761.0284   -6761256.77047  -4991108.34045  23887760.9554   23887772.8144
      3763.2414       2932.3974
  23325126.2194   -7999182.78247  -6002073.41245  23325125.8474   23325136.2704
      2242.8334       1747.6594
  23161265.9944  -24649866.46747 -18957241.69345  23161265.9284   23161277.9864
     -3088.0104      -2406.2374
 98  9 18  1 53 59.9970000  0  8G22G19G16G18G27G13G 3G14
  22856530.4814  -12436359.70747  -9405828.59146  22856529.8714   22856538.7174
     -2625.4104      -2045.7694
  20531222.8284  -30726472.00348 -23337884.04947  20531222.8174   20531231.3964
      1970.3434       1535.3314
  20630555.6984    -414673.40149   -311525.88247  20630555.2194   20630564.8364
     -1555.7514      -1212.2724
  19584735.6774  -36529827.07449 -28192686.79347  19584735.8834   19584744.2754
      1615.5874       1258.8984
  23071011.1904  -14560656.93648 -11068912.69846  23071011.2034   23071022.2644
      3126.5514       2436.2684
  23866275.6034   -6874165.67147  -5079089.16145  23866276.6084   23866284.1574
      3764.9044       2933.6974
  23312353.8514   -8066300.69047  -6054373.02045  23312353.9014   23312363.8284
      2232.4954       1739.6034
  23178902.0594  -24557189.67847 -18885026.14745  23178902.1804   23178913.7074
     -3089.6384      -2407.5104
 98  9 18  1 54 29.9970000  0  8G22G19G16G18G27G13G 3G14
  22871545.6174  -12357452.73147  -9344342.68046  22871544.5824   22871554.8084
     -2633.0344      -2051.7114
  20519998.1674  -30785455.26348 -23383845.00047  20519998.3304   20520007.3064
      1963.9594       1530.3564
  20639480.8484    -367769.81349   -274977.66847  20639480.5544   20639490.2514
     -1569.1524      -1222.7134
  19575551.6764  -36578094.94849 -28230298.10147  19575551.5294   19575559.2654
      1604.2484       1250.0634
  23053172.9994  -14654395.87648 -11141955.89646  23053172.7294   23053184.5284
      3124.6784       2434.8094
  23844783.0384   -6987109.65647  -5167097.34645  23844783.0294   23844792.1324
      3766.6544       2935.0564
  23299643.2684   -8133097.03247  -6106422.02845  23299643.8324   23299652.5344
      2222.6214       1731.9084
  23196549.9244  -24464447.79947 -18812759.88245  23196550.4414   23196562.9084
     -3091.1274      -2408.6654
 98  9 18  1 54 59.9970000  0  8G22G19G16G18G27G13G 3G14
  22886617.7354  -12278248.03347  -9282624.78145  22886617.1674   22886627.0084
     -2644.7254      -2060.8254
  20508824.2254  -30844176.01648 -23429601.39747  20508824.4304   20508833.3244
      1953.3034       1522.0534
  20648497.6434    -320386.33149   -238055.50547  20648497.2234   20648506.7514
     -1587.1074      -1236.7054
  19566445.1144  -36625947.95249 -28267586.13547  19566445.1084   19566452.6084
      1588.5044       1237.7964
  23035359.8944  -14748005.88848 -11214898.64046  23035359.7524   23035370.2984
      3118.5174       2430.0104
  23823293.2004   -7100040.04547  -5255094.89245  23823292.7634   23823302.7754
      3764.7484       2933.5614
  23287003.1324   -8199524.42347  -6158183.54645  23287002.5274   23287012.1554
      2208.4184       1720.8454
  23214221.9554  -24371580.53047 -18740395.92145  23214222.1214   23214234.4124
     -3097.4394      -2413.5874
 98  9 18  1 55 29.9970000  0  8G22G19G16G18G27G13G 3G14
  22901750.3754  -12198729.83547  -9220662.58645  22901748.7794   22901758.7824
     -2655.3354      -2069.0904
  20497702.1414  -30902624.48448 -23475145.61647  20497702.2274   20497710.8874
      1944.4164       1515.1284
  20657608.4034    -272509.20449   -200748.68347  20657608.0104   20657617.5254
     -1603.4934      -1249.4734
  19557420.4194  -36673372.70249 -28304540.46147  19557420.3844   19557428.0304
      1574.4524       1226.8444
  23017573.8214  -14841467.52348 -11287725.76046  23017574.0494   23017585.6404
      3113.3994       2426.0204
  23801806.7924   -7212951.80347  -5343077.92245  23801807.1794   23801815.7124
      3763.6884       2932.7394
  23274435.5554   -8265564.53447  -6209643.31545  23274435.6484   23274445.3374
      2195.3144       1710.6304
  23231923.4124  -24278559.44747 -18667912.09845  23231924.0584   23231936.2934
     -3103.0034      -2417.9194
 98  9 18  1 55 59.9970000  0  8G22G19G16G18G27G13G 3G14
  22916924.4354  -12118985.55447  -9158524.23945  22916923.6994   22916933.7094
     -2659.0914      -2072.0214
  20486613.3114  -30960895.29348 -23520551.39647  20486613.4854   20486621.9814
      1941.9894       1513.2374
  20666794.4484    -224236.02949   -163133.25547  20666794.0744   20666803.6544
     -1612.9514      -1256.8434
  19548458.1504  -36720471.10749 -28341240.49647  19548458.1324   19548465.7314
      1567.0454       1221.0734
  22999801.0754  -14934865.81948 -11360503.51946  22999801.2224   22999812.5854
      3114.8304       2427.1344
  23780308.9214   -7325925.98747  -5431109.62245  23780309.7324   23780318.4134
      3769.7564       2937.4684
  23261926.6414   -8331300.51147  -6260866.09745  23261925.7684   23261936.1284
      2188.6874       1705.4704
  23249639.6944  -24185462.41747 -18595369.09845  23249639.9224   23249651.4424
     -3101.6964      -2416.9024
 98  9 18  1 56 29.9970000  0  8G22G19G16G18G27G13G 3G14
  22932147.3974  -12038988.69947  -9096189.07246  22932146.8944   22932156.7094
     -2670.4254      -2080.8494
  20475567.3184  -31018942.53448 -23565782.96247  20475567.3824   20475576.0884
      1931.3054       1504.9114
  20676062.6034    -175531.66449   -125181.83447  20676062.4034   20676071.9934
     -1630.5164      -1270.5324
  19539566.5494  -36767195.28249 -28377648.92447  19539566.5044   19539574.3104
      1551.4064       1208.8884
  22982048.8464  -15028154.55548 -11433195.91846  22982048.9314   22982059.6544
      3107.9654       2421.7874
  23758803.6194   -7438936.18947  -5519169.39345  23758803.7844   23758813.0454
      3767.7314       2935.8854
  23249484.8624   -8396681.64647  -6311812.37545  23249484.5194   23249493.8064
      2173.3934       1693.5514
  23267377.7994  -24092254.30947 -18522739.54345  23267377.0744   23267388.9384
     -3108.5284      -2422.2254
 98  9 18  1 56 59.9970000  0  8G22G19G16G18G27G13G 3G14
  22947393.5504  -11958869.83147  -9033758.81946  22947393.2104   22947402.3104
     -2675.4154      -2084.7334
  20464542.4154  -31076879.65748 -23610928.71847  20464542.3484   20464550.8714
      1926.5134       1501.1774
  20685390.8204    -126514.29449    -86986.50947  20685390.2044   20685399.7264
     -1641.8024      -1279.3264
  19530723.4314  -36813667.29349 -28413860.85647  19530723.3064   19530730.8894
      1542.0644       1201.6074
  22964296.4024  -15121445.97548 -11505890.40946  22964295.8284   22964306.5764
      3106.6914       2420.7934
  23737268.9404   -7552095.41447  -5607345.30445  23737269.3874   23737278.4574
      3771.5784       2938.8894
  23237091.4434   -8461807.82847  -6362559.97345  23237092.0834   23237100.4894
      2163.5134       1685.8484
  23285111.3184  -23999060.88947 -18450121.43745  23285110.9714   23285123.3744
     -3108.9334      -2422.5404
 98  9 18  1 57 29.9970000  0  9G22G19G16G31G18G27G13G 3G14
  22962694.7904  -11878462.48147  -8971103.78045  22962694.0524   22962703.2314
     -2686.0554      -2093.0294
  20453572.4044  -31134525.21548 -23655847.28447  20453572.4634   20453581.2814
      1915.4264       1492.5384
  20694807.4274     -77026.62549    -48424.71947  20694807.1704   20694816.9014
     -1658.5504      -1292.3754
  23441547.8564    -322129.61047   -204256.42745  23441546.5554   23441559.0244
      3525.7524       2747.3414
  19521961.0474  -36859714.26549 -28449741.59447  19521960.8744   19521968.2814
      1526.6194       1189.5734
  22946578.4594  -15214549.29548 -11578438.31246  22946578.4454   22946590.0724
      3099.1324       2414.9034
  23715741.4294   -7665216.34047  -5695491.37845  23715742.4394   23715752.0004
      3768.6234       2936.5774
  23224785.5544   -8526480.06047  -6412953.85845  23224785.4344   23224794.1004
      2146.8244       1672.8474
  23302873.6734  -23905720.70647 -18377388.96745  23302872.8844   23302885.2944
     -3114.7704      -2427.0904
 98  9 18  1 57 59.9970000  0  9G22G19G16G31G18G27G13G 3G14
  22978043.0374  -11797806.34847  -8908254.88546  22978042.5624   22978051.7474
     -2690.8884      -2096.7944
  20442654.9364  -31191896.15348 -23700551.85947  20442654.9654   20442663.6724
      1909.3504       1487.8034
  20704309.1774     -27094.91549     -9516.92547  20704308.9944   20704318.9644
     -1670.4074      -1301.6134
  23421422.7134    -427887.57647   -286665.10245  23421422.2404   23421435.8524
      3524.7664       2746.5674
  19513275.8154  -36905354.22849 -28485305.18147  19513275.7224   19513283.3464
      1515.8744       1181.1994
  22928892.0094  -15307495.26848 -11650863.61746  22928891.8074   22928902.7104
      3097.3114       2413.4864
  23694220.9674   -7778314.05647  -5783619.38045  23694220.7054   23694229.6704
      3771.2824       2938.6574
  23212562.7414   -8590711.12947  -6463003.98445  23212562.5144   23212571.6054
      2135.2924       1663.8594
  23320654.0314  -23812281.93747 -18304579.69045  23320653.8134   23320666.4134
     -3114.2724      -2426.7014
 98  9 18  1 58 29.9970000  0  9G22G19G16G31G18G27G13G 3G14
  22993427.1584  -11716963.88247  -8845260.78846  22993426.7854   22993435.9534
     -2700.9044      -2104.5994
  20431779.5324  -31249048.17348 -23745085.84747  20431779.3914   20431788.2114
      1898.6164       1479.4394
  20713888.2854      23243.58349     29707.84747  20713888.0284   20713897.9804
     -1687.8014      -1315.1684
  23401311.2014    -533576.50747   -369019.99245  23401310.1264   23401320.8964
      3518.8614       2741.9664
  19504659.6544  -36950633.43649 -28520587.66747  19504659.6174   19504666.9054
      1500.4954       1169.2174
  22911222.1854  -15400350.77048 -11723218.43546  22911222.1564   22911232.7904
      3090.8784       2408.4714
  23672693.5364   -7891443.90747  -5871772.41245  23672693.1574   23672701.6574
      3768.5334       2936.5234
  23200412.6954   -8654557.01147  -6512753.97145  23200412.7344   23200421.1244
      2118.8554       1651.0574
  23338437.3834  -23718827.02047 -18231757.83845  23338437.4714   23338450.2584
     -3118.2364      -2429.7834
 98  9 18  1 58 59.9970000  0  9G22G19G16G31G18G27G13G 3G14
  23008885.5804  -11635729.09747  -8781960.99646  23008884.8764   23008894.0084
     -2714.2124      -2114.9674
  20420984.3924  -31305776.51048 -23789289.69447  20420984.3634   20420993.4694
      1883.7304       1467.8404
  20723585.3044      74199.60349     69413.80447  20723584.6734   20723594.6494
     -1708.7704      -1331.5074
  23381251.9884    -638990.55147   -451160.67945  23381250.9144   23381261.3224
      3509.2494       2734.4764
  19496149.1844  -36995357.28949 -28555437.40747  19496148.9984   19496156.4554
      1481.5784       1154.4754
  22893605.2764  -15492923.75148 -11795353.11546  22893605.5614   22893616.3894
      3081.1974       2400.9304
  23651198.8544   -8004398.98147  -5959789.25145  23651199.0864   23651207.0624
      3762.4534       2931.7744
  23188374.8594   -8717818.87247  -6562048.84845  23188374.7534   23188383.7524
      2099.1124       1635.6674
  23356261.2634  -23625165.11947 -18158774.69845  23356260.8104   23356274.3224
     -3125.4064      -2435.3744
 98  9 18  1 59 29.9970000  0  9G22G19G16G31G18G27G13G 3G14
  23024373.5584  -11554341.15047  -8718541.85146  23024372.7234   23024381.6784
     -2720.2404      -2119.6704
  20410228.6104  -31362300.23948 -23833334.11147  20410228.5174   20410237.2334
      1876.0014       1461.8184
  20733355.9174     125546.00649    109423.95947  20733355.7384   20733365.4444
     -1722.9794      -1342.5794
  23361198.6194    -744364.33147   -533270.00345  23361199.7224   23361209.6814
      3507.0514       2732.7474
  19487698.9974  -37039761.34749 -28590037.95647  19487698.9254   19487706.3724
      1470.2274       1145.6314
  22875995.8794  -15585462.81248 -11867461.35746  22875995.8824   22876007.4094
      3079.6004       2399.6864
  23629691.9214   -8117415.22547  -6047853.79845  23629692.5034   23629701.7234
      3763.4504       2932.5594
  23176401.2664   -8780737.85447  -6611076.56445  23176400.6984   23176410.7254
      2087.1814       1626.3744
  23374079.5504  -23531529.77447 -18085812.26345  23374079.2114   23374092.7454
     -3125.4564      -2435.4124
 98  9 18  1 59 59.9970000  0  9G22G19G16G31G18G27G13G 3G14
  23039899.8694  -11472749.01347  -8654963.59246  23039899.4774   23039908.2404
     -2719.8634      -2119.3724
  20399519.9494  -31418571.56048 -23877181.84347  20399520.0664   20399528.5964
      1874.9914       1461.0314
  20743213.9204     177350.27549    149790.88847  20743213.6714   20743223.2334
     -1731.0294      -1348.8534
  23341165.9604    -849638.33147   -615301.54345  23341165.0044   23341177.5704
      3510.6544       2735.5724
  19479319.1254  -37083799.33749 -28624353.25847  19479319.0334   19479326.4584
      1465.0064       1141.5634
  22858398.7544  -15677938.51648 -11939520.23046  22858398.5584   22858409.4784
      3084.7844       2403.7244
  23608183.7394   -8230438.69847  -6135923.96145  23608184.2664   23608194.4724
      3771.0514       2938.4814
  23164499.4354   -8843279.06247  -6659809.91545  23164499.6104   23164508.7304
      2081.9244       1622.2734
  23391902.8774  -23437866.52047 -18012828.06145  23391903.0054   23391915.8754
     -3119.3584      -2430.6664
 98  9 18  2  0 29.9970000  0  9G22G19G16G31G18G27G13G 3G14
  23055450.7044  -11391030.87947  -8591287.15945  23055449.7024   23055458.7504
     -2728.7394      -2126.2884
  20388841.9814  -31474687.44048 -23920908.45347  20388841.9834   20388850.1744
      1865.5004       1453.6354
  20753142.0474     229522.32149    190444.40247  20753141.5514   20753151.1004
     -1747.5004      -1361.6864
  23321137.5694    -954889.64347   -697315.43345  23321137.2534   23321147.9554
      3505.3254       2731.4244
  19470994.0864  -37127547.06049 -28658442.37647  19470994.0404   19471001.4694
      1450.7744       1130.4734
  22840797.8514  -15770428.52248 -12011590.25846  22840798.0054   22840808.4964
      3080.3844       2400.2964
  23586659.9284   -8343553.93247  -6224065.63545  23586660.0554   23586668.6284
      3769.2994       2937.1114
  23152651.9514   -8905537.99947  -6708323.31345  23152652.1084   23152660.8584
      2067.9434       1611.3824
  23409720.0174  -23344237.95447 -17939870.90345  23409720.0154   23409733.7934
     -3123.2844      -2433.7184
 98  9 18  2  0 59.9970000  0  9G22G19G16G31G18G27G13G 3G14
  23071066.9174  -11308966.65047  -8527341.02745  23071065.9584   23071074.8544
     -2738.0404      -2133.5324
  20378233.2764  -31530436.85948 -23964349.51647  20378233.1714   20378241.4714
      1855.4244       1445.7844
  20763178.0224     282262.39149    231540.53247  20763177.7194   20763187.3284
     -1764.2234      -1374.7184
  23301156.4674   -1059887.48447   -779131.79745  23301156.1584   23301167.5184
      3498.7994       2726.3314
  19462768.4064  -37170772.54149 -28692124.55647  19462768.5024   19462776.1884
      1435.2074       1118.3434
  22823240.5654  -15862691.50848 -12083483.40146  22823240.6524   22823250.8104
      3074.6594       2395.8354
  23565160.3004   -8456529.25747  -6312098.28145  23565160.7094   23565170.2364
      3766.5914       2935.0064
  23140901.6494   -8967287.01847  -6756439.35145  23140901.4864   23140910.8764
      2052.8104       1599.5894
  23427578.2124  -23250396.73947 -17866748.02145  23427577.9664   23427590.4534
     -3128.5504      -2437.8294
 98  9 18  2  1 29.9970000  0  9G22G19G16G31G18G27G13G 3G14
  23086719.2594  -11226713.84747  -8463247.95446  23086718.2994   23086727.2204
     -2750.6744      -2143.3814
  20367658.8674  -31586003.03048 -24007647.78747  20367659.0454   20367667.3764
      1843.8124       1436.7344
  20773288.6954     335395.03749    272942.56747  20773288.4444   20773298.0544
     -1783.1084      -1389.4344
  23281194.3484   -1164789.46347   -860873.46245  23281195.1034   23281205.0584
      3489.3224       2718.9534
  19454612.5924  -37213631.07349 -28725520.80147  19454612.5394   19454620.3104
      1416.7174       1103.9364
  22805698.2404  -15954877.11448 -12155316.24746  22805698.3864   22805708.7634
      3065.7844       2388.9194
  23543660.7074   -8569511.05647  -6400135.97145  23543660.8224   23543669.8474
      3760.4464       2930.2094
  23129218.8544   -9028678.39547  -6804276.70245  23129218.6534   23129228.1524
      2034.7524       1585.5174
  23445447.4544  -23156494.63647 -17793577.71345  23445446.5904   23445460.3564
     -3136.7204      -2444.1934
 98  9 18  2  1 59.9970000  0  9G22G19G16G31G18G27G13G 3G14
  23102426.4274  -11144170.97147  -8398928.84946  23102426.0904   23102434.9694
     -2755.0904      -2146.8234
  20357133.5444  -31641315.14748 -24050748.09047  20357133.5664   20357141.9124
      1840.6704       1434.2874
  20783489.1874     388996.79949    314710.14647  20783488.7584   20783498.4394
     -1793.2624      -1397.3464
  23261271.6344   -1269486.09547   -942455.10745  23261270.6504   23261281.1614
      3487.4734       2717.5184
  19446547.8594  -37256010.44549 -28758543.67647  19446548.1764   19446555.6834
      1405.5564       1095.2374
  22788191.4784  -16046878.25448 -12227005.34046  22788191.4564   22788202.0684
      3064.5994       2387.9954
  23522177.9314   -8682403.38647  -6488103.94345  23522178.0124   23522187.0614
      3762.9194       2932.1444
  23117622.6804   -9089617.96447  -6851761.99645  23117622.4954   23117632.5484
      2024.7294       1577.7084
  23463344.2484  -23062443.58547 -17720291.34145  23463344.1144   23463358.1244
     -3136.2574      -2443.8284
 98  9 18  2  2 29.9970000  0  9G22G19G16G31G18G27G13G 3G14
  23118171.5874  -11061426.07947  -8334452.35445  23118171.7364   23118180.6084
     -2758.3834      -2149.3874
  20346641.1854  -31696453.19148 -24093712.76447  20346641.2654   20346649.6244
      1837.8524       1432.0914
  20793761.6054     442979.71449    356774.73047  20793761.2874   20793771.2564
     -1802.9254      -1404.8754
  23241373.2494   -1374054.48447  -1023936.81645  23241373.0894   23241383.6344
      3486.3064       2716.6044
  19438562.0284  -37297978.25049 -28791245.84547  19438561.9854   19438569.3534
      1395.0334       1087.0384
  22770707.4944  -16138757.99248 -12298599.83646  22770707.3394   22770718.0044
      3063.5114       2387.1464
  23500694.8164   -8795296.80347  -6576072.73845  23500695.2324   23500704.3454
      3766.1064       2934.6304
  23106099.6354   -9150172.94047  -6898947.60945  23106099.2774   23106108.3674
      2014.8504       1570.0104
  23481251.1554  -22968335.32147 -17646960.37945  23481252.3264   23481265.9614
     -3134.6864      -2442.6044
 98  9 18  2  2 59.9970000  0  9G22G19G16G31G18G27G13G 3G14
  23133951.9014  -10978504.46247  -8269838.11745  23133951.0474   23133959.9694
     -2773.2834      -2161.0044
  20336182.1764  -31751415.83348 -24136540.75847  20336182.1074   20336190.2644
      1822.6424       1420.2384
  20804106.7404     497343.28049    399135.91647  20804106.4324   20804116.1114
     -1824.9274      -1422.0214
  23221498.6674   -1478492.00947  -1105316.56145  23221498.8764   23221509.7614
      3472.8174       2706.0844
  19430652.3994  -37339545.61849 -28823635.98847  19430652.2584   19430659.5124
      1372.6594       1069.6034
  22753244.4414  -16230523.76948 -12370105.54146  22753243.9484   22753255.5254
      3050.7634       2377.2124
  23479207.6964   -8908215.45547  -6664061.20845  23479208.2154   23479216.9084
      3758.3504       2928.5824
  23094649.7044   -9210338.66847  -6945829.91145  23094650.2454   23094659.2134
      1992.6404       1552.7004
  23499163.7324  -22874207.08647 -17573613.86945  23499164.6704   23499178.7304
     -3144.0184      -2449.8794
 98  9 18  2  3 29.9970000  0  9G22G19G16G31G18G27G13G 3G14
  23149776.4484  -10895345.59147  -8205039.01445  23149775.3854   23149784.7964
     -2772.7194      -2160.5604
  20325771.9334  -31806121.43948 -24179168.46947  20325771.9684   20325780.0614
      1822.0974       1419.8154
  20814538.2004     552158.56249    441849.09547  20814537.6874   20814547.0764
     -1831.6374      -1427.2484
  23201663.3544   -1582732.41147  -1186542.69745  23201662.4754   23201671.5984
      3474.4554       2707.3564
  19422830.6194  -37380646.59149 -28855662.70847  19422830.6384   19422838.3244
      1365.2274       1063.8134
  22735813.7584  -16322118.74848 -12441478.15346  22735814.0064   22735825.0944
      3053.4774       2379.3304
  23457721.9754   -9021115.82047  -6752035.38445  23457722.8464   23457733.1234
      3766.2734       2934.7554
  23083284.7894   -9270055.99147  -6992362.80845  23083285.5084   23083294.8644
      1986.2694       1547.7384
  23517086.9824  -22780016.25747 -17500218.58345  23517087.9624   23517102.5074
     -3137.4954      -2444.7924
 98  9 18  2  3 59.9970000  0  9G22G19G16G31G18G27G13G 3G14
  23165629.8414  -10812031.33847  -8140118.82945  23165629.8094   23165638.2134
     -2776.0304      -2163.1364
  20315402.8134  -31860610.47348 -24221627.41747  20315402.8154   20315411.4114
      1815.9594       1415.0314
  20825044.7844     607371.25949    484871.94747  20825044.3254   20825053.9474
     -1843.7234      -1436.6674
  23181852.3064   -1686841.35947  -1267666.38045  23181850.7254   23181860.9914
      3471.6834       2705.1994
  19415086.6564  -37421342.00649 -28887373.40547  19415086.7994   19415094.4414
      1353.3114       1054.5284
  22718403.2914  -16413611.71148 -12512771.27246  22718403.4194   22718414.2104
      3051.5184       2377.8034
  23436226.7104   -9134076.32247  -6840056.41445  23436226.8564   23436235.9624
      3769.9034       2937.5864
  23071994.1654   -9329392.64947  -7038599.07245  23071994.1344   23072004.3974
      1974.8824       1538.8684
  23535010.0894  -22685836.97947 -17426832.28645  23535010.4744   23535024.1644
     -3135.7774      -2443.4634
 98  9 18  2  4 29.9970000  0  9G22G19G16G31G18G27G13G 3G14
  23181493.0154  -10728670.73047  -8075162.54345  23181492.2644   23181501.6064
     -2781.4304      -2167.3464
  20305059.8074  -31914964.10948 -24263980.86447  20305059.7124   20305068.1284
      1807.6944       1408.5924
  20835611.0184     662897.74449    528139.30747  20835610.6204   20835620.1224
     -1857.8984      -1447.7114
  23162044.5794   -1790928.63947  -1348773.21045  23162044.0034   23162054.4344
      3467.4674       2701.9224
  19407399.3444  -37461736.86749 -28918849.90547  19407399.4334   19407407.3924
      1339.8144       1044.0114
  22700994.0484  -16505099.84948 -12584060.62946  22700994.2014   22701004.7974
      3047.8294       2374.9264
  23414701.4874   -9247190.93047  -6928197.53745  23414701.9894   23414710.5544
      3771.0414       2938.4714
  23060758.9014   -9388437.56247  -7084608.01045  23060758.9154   23060767.8694
      1961.5714       1528.4964
  23552914.0574  -22591750.05047 -17353517.96845  23552914.1474   23552928.9704
     -3136.7184      -2444.1954
 98  9 18  2  4 59.9970000  0  9G22G19G16G31G18G27G13G 3G14
  23197399.3394  -10645086.34847  -8010031.85145  23197398.4624   23197406.8854
     -2790.6664      -2174.5474
  20294773.9794  -31969014.51248 -24306098.02347  20294774.0064   20294782.5994
      1796.0944       1399.5524
  20846266.7544     718894.17149    571772.85647  20846266.2684   20846275.5764
     -1874.7134      -1460.8134
  23142271.2244   -1894829.15347  -1429734.52145  23142271.4844   23142281.9934
      3459.6494       2695.8264
  19399798.7994  -37501678.47449 -28949973.22047  19399798.9274   19399806.7704
      1323.3814       1031.2054
  22683614.8874  -16596430.02948 -12655226.90046  22683614.8144   22683625.2264
      3041.2494       2369.8004
  23393181.3354   -9360279.52247  -7016318.38345  23393181.7104   23393190.8314
      3768.3684       2936.3874
  23049609.4974   -9447033.69647  -7130267.26645  23049608.5004   23049618.1754
      1945.0804       1515.6464
  23570835.1324  -22497575.87347 -17280135.67345  23570835.7584   23570849.4604
     -3141.3384      -2447.7864
 98  9 18  2  5 29.9970000  0  9G22G19G16G31G18G27G13G 3G14
  23213342.6664  -10561300.70347  -7944744.34445  23213342.5394   23213350.9754
     -2797.2784      -2179.7014
  20284540.2694  -32022793.17748 -24348003.44347  20284540.3084   20284548.8784
      1787.1054       1392.5494
  20857002.2634     775311.04048    615734.02047  20857002.0814   20857011.2734
     -1888.5394      -1471.5884
  23122530.5784   -1998576.30247  -1510576.31245  23122529.2194   23122539.7414
      3454.4704       2691.7944
  19392276.6654  -37541209.22949 -28980776.39547  19392276.5784   19392284.3894
      1309.8264       1020.6444
  22666257.0134  -16687643.09948 -12726301.92346  22666256.7244   22666267.8274
      3037.3404       2366.7574
  23371666.4834   -9473343.52247  -7104420.04845  23371667.0674   23371675.4054
      3766.9634       2935.2824
  23038538.0614   -9505208.86547  -7175598.50045  23038537.9284   23038547.1054
      1930.9234       1504.6144
  23588770.8314  -22403329.45447 -17206697.07645  23588770.5234   23588784.1694
     -3143.9394      -2449.8244
 98  9 18  2  5 59.9970000  0  9G22G19G16G31G18G27G13G 3G14
  23229322.9184  -10477323.43747  -7879307.51045  23229322.4164   23229331.5814
     -2801.1024      -2182.6834
  20274355.3604  -32076314.05948 -24389707.99747  20274355.6354   20274364.2814
      1781.3054       1388.0284
  20867815.2844     832134.80148    660012.25147  20867815.0904   20867824.4884
     -1899.3284      -1479.9954
  23102815.9934   -2102168.95347  -1591297.71845  23102816.3114   23102826.0114
      3451.8114       2689.7214
  19384829.2924  -37580344.52049 -29011271.41547  19384829.3654   19384837.1164
      1299.3534       1012.4824
  22648921.8754  -16778739.71048 -12797286.19846  22648921.7864   22648932.6924
      3035.9914       2365.7054
  23350159.3914   -9586364.91647  -7192488.51445  23350160.1484   23350168.3234
      3767.9834       2936.0864
  23027548.6804   -9562956.16347  -7220596.31745  23027548.4644   23027558.1134
      1918.9574       1495.2804
  23606719.2774  -22309009.99047 -17133201.55945  23606719.2764   23606732.9754
     -3143.8274      -2449.7274
 98  9 18  2  6 29.9970000  0  9G22G19G16G31G18G27G13G 3G14
  23245351.1904  -10393096.47447  -7813676.08745  23245350.8914   23245359.6274
     -2809.6284      -2189.3194
  20264227.1774  -32129539.78248 -24431182.55447  20264227.2764   20264235.3754
      1771.5434       1380.4234
  20878713.3144     889401.42648    704635.57047  20878712.9004   20878722.0264
     -1913.9624      -1491.3984
  23083143.5664   -2205548.84547  -1671853.33145  23083142.9874   23083154.1094
      3444.5824       2684.0854
  19377467.5664  -37619031.33149 -29041416.96847  19377467.6504   19377475.1414
      1284.2714       1000.7294
  22631617.0784  -16869674.06748 -12868144.02146  22631617.4064   22631628.5334
      3030.7574       2361.6244
  23328671.0434   -9699283.86047  -7280477.14545  23328671.4154   23328680.2684
      3764.5074       2933.3814
  23016653.8194   -9620208.80847  -7265208.69745  23016653.9544   23016662.8794
      1902.3984       1482.3814
  23624690.2764  -22214570.86547 -17059612.82045  23624689.8774   23624704.0504
     -3147.4194      -2452.5364
 98  9 18  2  6 59.9970000  0  9G22G19G16G31G18G27G13G 3G14
  23261412.6814  -10308692.95447  -7747907.10645  23261412.0984   23261420.8044
     -2820.0864      -2197.4674
  20254140.6974  -32182544.13948 -24472484.61747  20254140.7524   20254148.9664
      1759.2494       1370.8424
  20889678.9824     947026.71048    749538.36347  20889678.6394   20889687.6674
     -1930.7994      -1504.5184
  23063500.8154   -2308778.20747  -1752291.65845  23063499.8134   23063509.4914
      3434.5374       2676.2574
  19370177.3014  -37657342.40349 -29071269.73747  19370177.2534   19370185.0604
      1266.7554        987.0814
  22614328.3034  -16960527.12148 -12938938.51046  22614328.5374   22614339.3374
      3023.0894       2355.6494
  23307188.7184   -9812175.54047  -7368444.52045  23307188.8574   23307197.0444
      3758.8334       2928.9544
  23005839.7174   -9677037.59847  -7309490.81445  23005839.7674   23005848.6404
      1883.1634       1467.3964
  23642665.2844  -22120112.01747 -16986008.70245  23642665.0504   23642678.6274
     -3152.6464      -2456.6004
 98  9 18  2  7 29.9970000  0  9G22G19G16G31G18G27G13G 3G14
  23277512.8954  -10224082.64147  -7681976.98545  23277512.9424   23277521.9744
     -2818.7954      -2196.4684
  20244104.4874  -32235283.19048 -24513579.94947  20244104.6344   20244113.1084
      1758.6044       1370.3414
  20900722.7814    1005062.52648    794761.05347  20900722.3914   20900731.5744
     -1936.4044      -1508.8864
  23043892.9234   -2411814.06047  -1832579.20445  23043892.4674   23043901.9564
      3436.3744       2677.6904
  19362969.2484  -37695221.70649 -29100786.06747  19362969.0824   19362976.5004
      1260.3084        982.0584
  22597065.0514  -17051247.62648 -13009629.71746  22597064.9014   22597075.9804
      3026.7974       2358.5404
  23285716.6734   -9925004.60347  -7456363.13445  23285717.2004   23285725.6284
      3765.1704       2933.8974
  22995117.0514   -9733389.02447  -7353400.95245  22995116.8074   22995125.1034
      1875.5714       1461.4874
  23660648.4694  -22025608.77347 -16912369.99145  23660647.6044   23660663.2844
     -3145.5684      -2451.0894
 98  9 18  2  7 59.9970000  0  9G22G19G16G31G18G27G13G 3G14
  23293635.0074  -10139361.34547  -7615960.39845  23293634.7294   23293643.7344
     -2825.7114      -2201.8534
  20234100.4104  -32287856.00148 -24554545.74047  20234100.3724   20234109.0444
      1749.9024       1363.5584
  20911828.2484    1063419.93048    840234.33347  20911827.6774   20911837.0304
     -1950.4634      -1519.8424
  23024303.3654   -2514755.96947  -1912793.54945  23024303.7284   23024313.3024
      3429.9524       2672.6944
  19355827.0604  -37732753.66849 -29130031.74147  19355827.0294   19355834.4574
      1245.5124        970.5284
  22579807.6744  -17141934.89748 -13080295.02246  22579807.6494   22579819.1484
      3022.7494       2355.3854
  23264237.3884  -10037884.46147  -7544321.31345  23264237.8674   23264244.8404
      3763.8394       2932.8554
  22984463.3744   -9789368.68947  -7397021.41045  22984464.0514   22984472.8234
      1860.0784       1449.4094
  23678619.5824  -21931171.51447 -16838782.72245  23678619.7204   23678633.7144
     -3146.5394      -2451.8374
 98  9 18  2  8 29.9970000  0  9G22G19G16G31G18G27G13G 3G14
  23309783.3384  -10054502.39647  -7549836.54545  23309783.1394   23309791.4544
     -2833.4644      -2207.8864
  20224132.5774  -32340236.34248 -24595361.55847  20224132.7114   20224141.3154
      1740.1504       1355.9604
  20922999.5854    1122127.90148    885980.77747  20922999.3214   20923009.0164
     -1965.4064      -1531.4854
  23004736.1174   -2617583.18747  -1992918.52245  23004735.8614   23004745.6444
      3423.0384       2667.2964
  19348755.7714  -37769912.81449 -29158986.91447  19348755.8354   19348763.3004
      1229.8324        958.3114
  22562559.1104  -17232579.35748 -13150926.97346  22562558.9154   22562569.8424
      3018.0994       2351.7614
  23242750.6214  -10150798.10347  -7632305.82745  23242751.3744   23242758.5944
      3761.6564       2931.1614
  22973884.9844   -9844964.75247  -7440342.95745  22973884.7274   22973893.5024
      1844.4564       1437.2404
  23696580.1364  -21836787.46847 -16765236.90545  23696580.3754   23696594.2084
     -3147.6904      -2452.7424
 98  9 18  2  8 59.9970000  0  9G22G19G16G31G18G27G13G 3G14
  23325989.1704   -9969339.33747  -7483475.72945  23325988.6024   23325997.9944
     -2842.9474      -2215.2774
  20214235.1534  -32392246.51248 -24635888.93047  20214235.4624   20214243.9564
      1728.4154       1346.8164
  20934270.8024    1181358.62848    932134.56747  20934270.4144   20934280.4284
     -1982.1854      -1544.5584
  22985224.4724   -2720119.83747  -2072817.08345  22985223.9814   22985233.8014
      3413.7554       2660.0684
  19341788.1634  -37806526.51349 -29187517.06247  19341788.2514   19341796.0044
      1211.9994        944.4154
  22545352.1334  -17323000.99648 -13221385.30646  22545352.1384   22545362.3564
      3011.1684       2346.3634
  23221290.2874  -10263569.86047  -7720179.78745  23221291.0074   23221298.7144
      3757.5074       2927.9264
  22963405.8094   -9900024.37447  -7483246.53045  22963406.1194   22963415.5534
      1827.1924       1423.7834
  23714564.3524  -21742286.58347 -16691600.03845  23714564.0924   23714578.2644
     -3151.1554      -2455.4314
 98  9 18  2  9 29.9970000  0  9G22G19G16G31G18G27G13G 3G14
  23342234.6854   -9883969.81647  -7416954.03545  23342234.2624   23342242.9684
     -2846.5924      -2218.1284
  20204387.9994  -32443993.30648 -24676211.06847  20204388.1694   20204396.4304
      1722.9304       1342.5424
  20945621.8264    1241008.12848    978614.67647  20945621.6274   20945631.2954
     -1992.7454      -1552.7894
  22965749.7424   -2822455.81447  -2152559.28045  22965749.5164   22965759.4864
      3410.1364       2657.2494
  19334908.3424  -37842679.43949 -29215688.16447  19334908.4114   19334916.2764
      1199.9504        935.0264
  22528168.5264  -17413297.70848 -13291746.28646  22528168.7844   22528179.0164
      3010.3304       2345.7094
  23199840.1444  -10376291.82647  -7808014.92445  23199841.0034   23199848.7004
      3758.8514       2928.9734
  22953012.7394   -9954644.54747  -7525807.65345  22953012.7324   22953021.7834
      1815.7924       1414.9024
  23732551.3684  -21647765.17147 -16617947.19145  23732551.4674   23732566.0294
     -3148.6584      -2453.4964
 98  9 18  2  9 59.9970000  0  9G22G19G16G31G18G27G13G 3G14
  23358514.9734   -9798417.72547  -7350290.06445  23358514.2864   23358523.1104
     -2850.0854      -2220.8454
  20194587.3064  -32495497.08848 -24716343.84847  20194587.5024   20194595.8084
      1717.3494       1338.1934
  20957046.7504    1301045.99748   1025397.40447  20957046.2554   20957056.1044
     -2003.0364      -1560.8064
  22946312.8964   -2924599.26147  -2232151.46945  22946312.6934   22946321.2124
      3406.0984       2654.0904
  19328111.3064  -37878398.49849 -29243521.19047  19328111.3464   19328119.1394
      1188.1404        925.8234
  22511005.2534  -17503491.23948 -13362026.88346  22511005.6464   22511015.9364
      3009.1234       2344.7704
  23178397.3274  -10488973.84847  -7895818.96745  23178397.6694   23178405.2024
      3760.0184       2929.8794
  22942699.1984  -10008842.69947  -7568039.92645  22942699.9074   22942708.0904
      1804.0524       1405.7544
  23750538.9624  -21553237.54647 -16544289.50245  23750539.0954   23750553.0674
     -3146.4124      -2451.7434
 98  9 18  2 10 29.9970000  0  9G22G19G16G31G18G27G13G 3G14
  23374822.8064   -9712718.49047  -7283511.44545  23374821.8834   23374831.0304
     -2859.4114      -2228.1164
  20184827.2784  -32546784.95148 -24756308.38147  20184827.4054   20184836.3014
      1705.7644       1329.1664
  20968538.5724    1361436.39048   1072454.83047  20968538.2714   20968547.8394
     -2019.1514      -1573.3634
  22926907.5214   -3026573.37847  -2311611.69645  22926907.5174   22926916.9264
      3395.7954       2646.0734
  19321390.9744  -37913713.74649 -29271039.55947  19321391.0484   19321398.5074
      1169.9164        911.6254
  22493860.4454  -17593589.46748 -13432233.21046  22493860.6834   22493870.6104
      3001.2334       2338.6214
  23156956.6714  -10601645.61647  -7983615.02045  23156957.0454   23156963.8064
      3755.3554       2926.2484
  22932462.9394  -10062635.53647  -7609956.35446  22932462.6304   22932472.0504
      1785.8644       1391.5794
  23768522.5674  -21458735.71847 -16470651.90845  23768522.3444   23768536.3054
     -3150.0514      -2454.5734
 98  9 18  2 10 59.9970000  0  9G22G19G16G31G18G27G13G 3G14
  23391151.1864   -9626912.51747  -7216649.65945  23391150.8164   23391159.3664
     -2863.3654      -2231.1944
  20175100.9024  -32597898.31448 -24796136.94447  20175100.9054   20175110.0134
      1699.5274       1324.3054
  20980089.0524    1422133.42348   1119751.19547  20980088.7124   20980098.2474
     -2029.7554      -1581.6274
  22907529.7114   -3128402.11847  -2390958.63545  22907530.3474   22907538.7174
      3390.4564       2641.9124
  19314741.7474  -37948654.28949 -29298265.94947  19314741.8704   19314749.5344
      1157.0474        901.5944
  22476727.2154  -17683626.59148 -13502391.91746  22476727.1614   22476736.6134
      2998.9964       2336.8774
  23135508.5324  -10714352.36447  -8071438.34545  23135509.1684   23135516.5964
      3756.2284       2926.9284
  22922298.7124  -10116043.44547  -7651572.85545  22922299.4944   22922308.3974
      1772.2624       1380.9794
  23786494.3984  -21364299.51847 -16397065.46345  23786494.0704   23786507.1974
     -3148.0884      -2453.0534
 98  9 18  2 11 29.9970000  0  9G22G19G16G31G18G27G13G 3G14
  23407518.5034   -9540898.78847  -7149625.98845  23407518.4154   23407527.7104
     -2869.9734      -2236.3434
  20165425.4794  -32648742.39048 -24835755.67747  20165425.4634   20165434.7374
      1690.6874       1317.4154
  20991718.0744    1483242.71448   1167368.79747  20991717.5724   20991726.9454
     -2043.3764      -1592.2404
  22888199.9984   -3229986.24947  -2470114.98345  22888199.0014   22888208.3064
      3382.6374       2635.8214
  19308182.7654  -37983125.75349 -29325126.82747  19308182.6214   19308190.0944
      1141.8504        889.7534
  22459623.5044  -17773507.21748 -13572428.69246  22459623.5094   22459632.8204
      2993.7204       2332.7674
  23114072.7304  -10827001.75147  -8159216.98545  23114073.7944   23114080.2074
      3754.6224       2925.6714
  22912233.5604  -10168942.44647  -7692792.80146  22912233.0774   22912242.3154
      1755.1934       1367.6794
  23804470.0924  -21269833.29047 -16323455.59945  23804469.5684   23804483.8164
     -3149.1054      -2453.8374
 98  9 18  2 11 59.9970000  0  9G22G19G16G31G18G27G13G 3G14
  23423927.1474   -9454675.67547  -7082439.16545  23423926.2564   23423935.2964
     -2877.7294      -2242.3894
  20155804.7594  -32699300.80848 -24875151.81247  20155804.7504   20155813.7994
      1680.4604       1309.4474
  21003426.9354    1544773.26748   1215314.65847  21003426.5694   21003435.5414
     -2058.2094      -1603.7994
  22868915.3614   -3331320.31647  -2549076.48145  22868915.5224   22868923.9244
      3373.4404       2628.6474
  19301712.8854  -38017123.74349 -29351618.75947  19301712.9304   19301720.0874
      1124.9144        876.5574
  22442553.1604  -17863210.83248 -13642327.53346  22442553.0534   22442563.2564
      2986.9364       2327.4804
  23092646.8274  -10939595.17047  -8246952.02445  23092647.4414   23092655.0244
      3752.1134       2923.7214
  22902266.7494  -10221318.91947  -7733605.59446  22902266.3444   22902275.7174
      1737.0134       1353.5134
  23822456.9684  -21175314.83747 -16249805.04945  23822454.9934   23822470.6084
     -3151.7324      -2455.8874
 98  9 18  2 12 29.9970000  0  9G22G19G16G31G18G27G13G 3G14
  23440366.6864   -9368287.97547  -7015124.08945  23440365.0084   23440374.3464
     -2885.4234      -2248.3844
  20146228.4634  -32749624.62948 -24914365.14547  20146228.5184   20146237.2434
      1670.5414       1301.7204
  21015207.8344    1606682.24148   1263555.39047  21015207.4664   21015216.2474
     -2073.2344      -1615.5054
  22849672.3654   -3432444.35747  -2627874.31245  22849672.0774   22849681.1414
      3363.9284       2621.2324
  19295328.2734  -38050674.72449 -29377762.37347  19295328.2914   19295335.7694
      1107.6154        863.0774
  22425507.8704  -17952785.61848 -13712125.98746  22425507.7004   22425517.2194
      2980.7244       2322.6424
  23071222.7074  -11052177.38747  -8334678.34945  23071223.5804   23071232.3254
      3749.2004       2921.4504
  22892390.6724  -10273216.04147  -7774044.86846  22892391.0604   22892399.6674
      1718.6884       1339.2344
  23840444.3674  -21080785.46447 -16176146.00845  23840445.4184   23840458.8134
     -3154.5184      -2458.0504
 98  9 18  2 12 59.9970000  0  9G22G19G16G31G18G27G13G 3G14
  23456819.8264   -9281820.45847  -6947746.81445  23456819.4074   23456828.5934
     -2885.9074      -2248.7574
  20136680.0314  -32799801.89748 -24953464.28247  20136680.0324   20136688.8354
      1667.6874       1299.4944
  21027046.6494    1668893.82348   1312031.91647  21027046.0324   21027055.2804
     -2081.1104      -1621.6444
  22830455.1464   -3533431.92847  -2706565.81545  22830454.6294   22830463.4304
      3361.6984       2619.5034
  19289013.7844  -38083858.64449 -29403619.96847  19289013.8644   19289021.1444
      1097.7254        855.3694
  22408468.3904  -18042327.25648 -13781898.61346  22408468.2984   22408477.9494
      2981.6464       2323.3564
  23049788.7994  -11164812.22647  -8422445.65845  23049789.1884   23049798.8844
      3752.7984       2924.2554
  22882590.4764  -10324715.03047  -7814173.90046  22882590.8514   22882599.6004
      1707.6554       1330.6344
  23858421.6224  -20986315.74747 -16102533.45445  23858421.7404   23858435.5264
     -3150.4704      -2454.8884
 98  9 18  2 13 29.9970000  0  9G22G19G16G31G18G27G13G 3G14
  23473302.8184   -9195203.81947  -6880253.34045  23473301.9704   23473311.0814
     -2889.9294      -2251.8944
  20127173.0154  -32849759.75548 -24992392.45447  20127173.1244   20127181.9544
      1661.2204       1294.4564
  21038956.5054    1731483.22248   1360802.84947  21038956.1494   21038965.7194
     -2092.7924      -1630.7454
  22811276.5994   -3634213.57147  -2785096.84345  22811276.3364   22811286.2384
      3355.4474       2614.6294
  19282782.4204  -38116605.03849 -29429136.62947  19282782.4574   19282789.6504
      1083.9214        844.6144
  22391452.9504  -18131746.17048 -13851575.61246  22391452.8474   22391462.3334
      2978.1594       2320.6424
  23028361.6154  -11277409.17147  -8510183.44745  23028362.1724   23028371.8714
      3752.1924       2923.7844
  22872878.3924  -10375750.38347  -7853941.66445  22872878.4754   22872887.2394
      1693.2874       1319.4414
  23876404.6464  -20891815.50847 -16028897.11145  23876405.2154   23876419.8694
     -3150.9634      -2455.2974
 98  9 18  2 13 59.9970000  0  8G22G19G16G31G18G27G13G 3
  23489820.1374   -9108404.04847  -6812617.16045  23489819.7054   23489828.7054
     -2898.3034      -2258.4124
  20117716.1144  -32899459.07148 -25031119.16747  20117716.0704   20117724.5474
      1650.6374       1286.2084
  21050944.5084    1794480.45148   1409891.57347  21050944.1294   21050953.8784
     -2108.6024      -1643.0664
  22792147.5344   -3734739.15147  -2863428.34445  22792146.9004   22792156.8344
      3344.8164       2606.3384
  19276641.9554  -38148873.66849 -29454281.00747  19276641.9014   19276649.1514
      1065.9804        830.6334
  22374466.0784  -18221009.10548 -13921131.07546  22374466.0144   22374475.9394
      2971.2484       2315.2554
  23006952.2504  -11389915.19947  -8597850.43345  23006953.4464   23006961.6514
      3746.7744       2919.5654
  22863259.1084  -10426305.05447  -7893334.86345  22863259.1324   22863267.0264
      1675.4464       1305.5424
 98  9 18  2 14 29.9970000  0  8G22G19G16G31G18G27G13G 3
  23506381.8354   -9021372.98747  -6744800.77345  23506380.4514   23506390.0834
     -2904.9474      -2263.5914
  20108317.3444  -32948850.33648 -25069605.83647  20108317.3284   20108325.4754
      1640.9234       1278.6404
  21063020.5164    1857939.99748   1459340.53847  21063019.9744   21063029.7844
     -2123.1814      -1654.4274
  22773075.9254   -3834959.76047  -2941522.22645  22773076.0974   22773084.2194
      3335.4474       2599.0514
  19270598.5474  -38180632.36849 -29479028.03947  19270598.5934   19270605.7024
      1050.2154        818.3484
  22357515.8564  -18310082.85448 -13990539.11746  22357516.0134   22357525.5704
      2965.8604       2311.0584
  22985573.5314  -11502266.57747  -8685396.91345  22985574.0604   22985582.1324
      3742.3414       2916.1084
  22853738.1354  -10476338.11947  -7932321.63146  22853737.7834   22853746.8924
      1658.8764       1292.6274
 98  9 18  2 14 59.9970000  0  8G22G19G16G31G18G27G13G 3
  23522973.7984   -8934182.05447  -6676859.81545  23522972.6444   23522981.5514
     -2908.4744      -2266.3404
  20098966.2814  -32997989.73648 -25107896.24547  20098966.3084   20098974.1244
      1634.0874       1273.3134
  21075169.2404    1921783.22448   1509088.48347  21075168.9134   21075178.6704
     -2133.9004      -1662.7794
  22754048.9364   -3934951.10047  -3019437.45045  22754048.6644   22754056.6344
      3329.5584       2594.4594
  19264635.2724  -38211968.96349 -29503446.15647  19264635.0784   19264642.3784
      1037.8234        808.6934
  22340588.7424  -18399036.04548 -14059853.21846  22340589.0004   22340598.3094
      2963.4014       2309.1404
  22964208.0404  -11614540.88947  -8772883.34145  22964208.9104   22964217.0464
      3741.8854       2915.7544
  22844302.9434  -10525918.22347  -7970955.44346  22844302.9354   22844312.0214
      1645.5764       1282.2664
 98  9 18  2 15 29.9970000  0  8G22G19G16G31G18G27G13G 3
  23539577.0764   -8846929.44147  -6608870.79045  23539576.1694   23539585.7304
     -2911.2064      -2268.4744
  20089647.6614  -33046958.63248 -25146053.79847  20089647.7224   20089655.7154
      1627.6104       1268.2654
  21087372.6574    1985914.54748   1559060.92047  21087372.5354   21087382.6044
     -2144.2804      -1670.8684
  22735049.2694   -4034789.59647  -3097233.57445  22735048.8144   22735058.0894
      3323.3224       2589.5994
  19258737.5504  -38242959.68249 -29527594.75847  19258737.6874   19258745.1884
      1025.3054        798.9384
  22323669.1284  -18487950.30648 -14129136.97346  22323668.8564   22323678.7754
      2961.4484       2307.6174
  22942838.3664  -11726838.74347  -8860388.09645  22942838.9294   22942847.4364
      3741.8524       2915.7294
  22834937.9894  -10575128.24947  -8009300.88146  22834938.6774   22834947.2534
      1632.0344       1271.7154
 98  9 18  2 15 59.9970000  0  8G22G19G16G31G18G27G13G 3
  23556219.1164   -8759473.77047  -6540723.53445  23556218.8534   23556228.1594
     -2915.1214      -2271.5264
  20080389.0484  -33095612.62748 -25183965.97147  20080388.9514   20080397.2564
      1620.1284       1262.4374
  21099656.8664    2050465.87748   1609360.63147  21099656.3864   21099666.5554
     -2155.1824      -1679.3634
  22716108.0674   -4134325.60447  -3174794.00245  22716107.7384   22716116.7584
      3316.3924       2584.1964
  19252934.2734  -38273458.61349 -29551360.14647  19252934.3424   19252941.6424
      1011.7854        788.4044
  22306780.7084  -18576698.04948 -14198290.97646  22306780.5514   22306790.6824
      2958.9044       2305.6384
  22921490.7054  -11839022.65247  -8947804.07845  22921491.1414   22921498.8554
      3741.1074       2915.1454
  22825674.8424  -10623808.18348  -8047233.24246  22825674.9894   22825683.8034
      1616.9644       1259.9704
 98  9 18  2 16 29.9970000  0  8G22G19G16G31G18G27G13G 3
  23572877.8844   -8671935.40847  -6472511.82945  23572877.4534   23572886.1404
     -2927.9874      -2281.5524
  20071166.9444  -33144073.52448 -25221727.68747  20071166.9904   20071175.2354
      1603.5494       1249.5174
  21111997.0034    2115311.77648   1659889.87447  21111996.4784   21112006.5414
     -2174.9664      -1694.7774
  22697201.4614   -4233677.93947  -3252211.30045  22697201.8184   22697210.7054
      3299.8884       2571.3394
  19247205.1814  -38303566.14449 -29574820.54847  19247205.1394   19247212.2304
       988.1554        769.9904
  22289904.2754  -18665381.71848 -14267395.05246  22289904.5314   22289914.5744
      2946.1584       2295.7034
  22900140.3284  -11951217.44947  -9035228.59045  22900141.1594   22900148.3124
      3731.5134       2907.6744
  22816497.0874  -10672038.92948  -8084815.59346  22816496.9354   22816506.4764
      1591.2844       1239.9604
 98  9 18  2 16 59.9970000  0  8G22G19G16G31G18G27G13G 3
  23589559.1624   -8584271.70547  -6404202.44645  23589557.9584   23589567.7354
     -2922.1934      -2277.0324
  20061987.9864  -33192309.54448 -25259314.17247  20061988.1064   20061996.2114
      1606.2414       1251.6164
  21124398.3814    2180484.57648   1710673.84647  21124398.3034   21124408.4344
     -2175.9504      -1695.5444
  22678341.9864   -4332788.13247  -3329439.93345  22678341.5534   22678349.7624
      3301.4144       2572.5234
  19241563.9304  -38333210.22449 -29597919.81947  19241563.8834   19241570.7794
       982.0344        765.2204
  22273053.6344  -18753933.93448 -14336396.69346  22273053.6944   22273063.1714
      2951.3204       2299.7264
  22878795.7584  -12063387.59747  -9122633.84545  22878796.2914   22878803.1754
      3740.3714       2914.5714
  22807416.8504  -10719758.45748  -8121999.60246  22807416.4344   22807425.6484
      1584.0534       1234.3254
 98  9 18  2 17 29.9970000  0  8G22G19G16G31G18G27G13G 3
  23606259.4024   -8496509.78047  -6335816.54245  23606258.4724   23606268.1414
     -2926.6534      -2280.5124
  20052844.5394  -33240359.27048 -25296755.49247  20052844.6664   20052852.7434
      1598.9994       1245.9724
  21136858.0944    2245959.90248   1761693.55147  21136857.7984   21136867.7204
     -2187.0784      -1704.2154
  22659523.5384   -4431678.09747  -3406496.94545  22659522.6124   22659533.4824
      3293.4244       2566.3034
  19236008.2244  -38362403.20849 -29620667.58647  19236008.3754   19236015.7244
       966.3174        752.9744
  22256224.1674  -18842375.38348 -14405312.02546  22256224.1604   22256232.9904
      2946.8304       2296.2284
  22857453.3814  -12175543.22347  -9210027.77945  22857454.0974   22857461.5004
      3738.6124       2913.1964
  22798427.7674  -10766989.70048  -8158803.11746  22798427.9624   22798437.2904
      1566.8324       1220.9034
 98  9 18  2 17 59.9970000  0  8G22G19G16G31G18G27G13G 3
  23622988.9894   -8408595.40447  -6267311.81845  23622988.0934   23622997.7614
     -2932.3994      -2284.9814
  20043745.5634  -33288175.60148 -25334014.94247  20043745.5384   20043753.4454
      1590.4934       1239.3434
  21149382.8644    2311778.56348   1812980.78947  21149382.7914   21149392.7934
     -2199.2784      -1713.7234
  22640751.5364   -4530326.91047  -3483366.04945  22640750.6404   22640760.1354
      3285.0064       2559.7494
  19230544.1384  -38391119.18349 -29643043.65847  19230544.1894   19230551.4924
       949.7844        740.0914
  22239420.5674  -18930674.02048 -14474116.08246  22239420.8384   22239430.3444
      2941.4804       2292.0604
  22836121.9454  -12287635.98247  -9297372.75545  22836122.8574   22836130.3184
      3736.0304       2911.1924
  22789538.4644  -10813702.01348  -8195202.27246  22789538.6234   22789548.1514
      1549.2904       1207.2414
 98  9 18  2 18 29.9970000  0  8G22G19G16G31G18G27G13G 3
  23639738.8784   -8320579.79947  -6198728.24345  23639737.2374   23639745.6034
     -2936.2874      -2288.0074
  20034683.7994  -33335795.08848 -25371121.00447  20034683.9744   20034691.3934
      1583.0904       1233.5764
  21161965.6004    2377899.72948   1864503.74147  21161965.2144   21161975.0394
     -2209.7684      -1721.8964
  22622011.8604   -4628793.64347  -3560093.28245  22622012.5814   22622022.3654
      3278.3814       2554.5794
  19225160.9974  -38419408.94649 -29665087.61647  19225160.8714   19225167.8884
       935.3894        728.8754
  22222635.8184  -19018878.87448 -14542847.04146  22222636.0954   22222645.6564
      2938.0304       2289.3734
  22814793.8894  -12399720.82347  -9384711.54645  22814794.1704   22814801.5164
      3735.4554       2910.7454
  22780734.4504  -10859971.84948  -8231256.64046  22780734.0834   22780743.1954
      1534.6504       1195.8314
 98  9 18  2 18 59.9970000  0  8G22G19G16G31G18G27G13G 3
  23656514.7214   -8232420.40547  -6130032.60145  23656513.5704   23656522.5394
     -2942.5404      -2292.8874
  20025671.0284  -33383158.19348 -25408027.29447  20025670.9854   20025678.2654
      1572.8944       1225.6294
  21174614.2824    2444369.54248   1916298.36646  21174613.9654   21174624.0174
     -2223.0464      -1732.2424
  22603318.0664   -4727033.25347  -3636643.53245  22603318.9764   22603327.6974
      3269.2964       2547.5074
  19219863.9144  -38447246.33049 -29686779.07147  19219863.7194   19219870.5564
       918.9024        716.0284
  22205873.4934  -19106966.59448 -14611486.74246  22205873.3954   22205883.3994
      2932.9994       2285.4514
  22793472.9804  -12511756.72247  -9472012.21445  22793473.7424   22793480.9814
      3732.0054       2908.0554
  22772014.5894  -10905794.52447  -8266962.56846  22772014.5614   22772023.2694
      1518.6994       1183.4004
 98  9 18  2 19 29.9970000  0  8G22G19G16G31G18G27G13G 3
  23673324.5844   -8144084.45747  -6061199.39145  23673322.9324   23673332.3954
     -2946.1404      -2295.6954
  20016715.2444  -33430221.01948 -25444699.59747  20016715.2534   20016722.6874
      1564.9954       1219.4774
  21187336.1044    2511224.15348   1968392.83746  21187335.7084   21187345.7794
     -2233.5614      -1740.4364
  22584675.6824   -4825008.18147  -3712987.52045  22584674.5544   22584683.8084
      3262.5264       2542.2194
  19214655.7234  -38474615.20449 -29708105.45947  19214655.5884   19214662.3094
       906.0354        706.0024
  22189134.6604  -19194929.96748 -14680029.55346  22189134.5764   22189144.2134
      2931.4584       2284.2504
  22772170.4544  -12623701.88047  -9559242.16745  22772171.2884   22772178.4464
      3731.3194       2907.5154
  22763382.1634  -10951156.48947  -8302309.50746  22763382.4734   22763391.1014
      1505.7424       1173.3064
 98  9 18  2 19 59.9970000  0  8G22G19G16G31G18G27G13G 3
  23690155.7064   -8055634.57047  -5992277.39845  23690155.4824   23690163.1954
     -2950.0304      -2298.7254
  20007804.9734  -33477043.66848 -25481184.74547  20007805.1284   20007812.9924
      1556.9954       1213.2424
  21200117.9314    2578393.15748   2020732.28346  21200117.6254   21200127.6064
     -2244.0764      -1748.6294
  22566072.7164   -4922763.61647  -3789160.50045  22566072.5164   22566081.3714
      3254.6414       2536.0814
  19209522.2124  -38501590.09549 -29729124.84547  19209521.9884   19209529.2564
       892.5454        695.4894
  22172407.7774  -19282831.65848 -14748524.29246  22172407.5994   22172417.0604
      2928.8234       2282.1964
  22750874.5054  -12735619.04247  -9646450.30045  22750873.9734   22750881.7974
      3730.2344       2906.6774
  22754824.7694  -10996127.44848  -8337351.75946  22754824.6334   22754833.3514
      1492.5654       1163.0364
 98  9 18  2 20 29.9970000  0  8G22G19G16G31G18G27G13G 3
  23707019.7234   -7967010.55647  -5923219.72845  23707018.9064   23707028.0654
     -2957.3274      -2304.4144
  19998951.9174  -33523567.89348 -25517437.36147  19998952.0254   19998959.6094
      1545.6224       1204.3794
  21212970.8464    2645936.02848   2073363.05646  21212970.5664   21212980.7724
     -2257.8594      -1759.3674
  22547530.0904   -5020205.85247  -3865089.41745  22547529.7894   22547538.8094
      3242.1684       2526.3624
  19204478.6264  -38528094.35149 -29749777.50047  19204478.6194   19204485.6614
       875.1724        681.9534
  22155708.3994  -19370584.79248 -14816903.27746  22155708.2724   22155717.7844
      2922.1424       2276.9914
  22729595.4424  -12847438.25047  -9733582.10245  22729596.0864   22729602.4204
      3725.1874       2902.7494
  22746356.5634  -11040627.70748  -8372027.23946  22746356.1774   22746365.4164
      1474.6654       1149.0894
 98  9 18  2 20 59.9970000  0  8G22G19G16G31G18G27G13G 3
  23723937.1564   -7878110.56347  -5853946.99045  23723936.5244   23723945.4494
     -2970.5724      -2314.7304
  19990173.1504  -33569699.52848 -25553384.06047  19990173.2944   19990181.2854
      1528.6644       1191.1674
  21225915.2264    2713957.98548   2126367.14046  21225914.9314   21225924.5894
     -2278.1634      -1775.1914
  22529074.0924   -5117195.43147  -3940665.58845  22529073.4874   22529081.6704
      3222.7214       2511.2094
  19199548.2174  -38554004.98249 -29769967.59147  19199547.9864   19199555.0564
       850.7864        662.9494
  22139061.8394  -19458063.71748 -14885068.59446  22139061.6434   22139071.1854
      2908.3644       2266.2574
  22708361.5094  -12959023.99447  -9820531.98045  22708361.6904   22708369.2114
      3712.6094       2892.9354
  22738006.8024  -11084507.00748  -8406218.84846  22738006.8464   22738015.5664
      1449.1954       1129.2464
 98  9 18  2 21 29.9970000  0  8G22G19G16G31G18G27G13G 3
  23740882.9404   -7789057.49747  -5784554.98445  23740882.2734   23740892.3974
     -2966.7584      -2311.7614
  19981444.2724  -33615570.53448 -25589127.67047  19981444.2774   19981452.0754
      1529.0984       1191.5034
  21238927.6794    2782337.34348   2179649.72346  21238927.4064   21238936.8544
     -2280.8634      -1777.2944
  22510680.9824   -5213847.09847  -4015978.48545  22510680.6014   22510689.8284
      3220.4854       2509.4704
  19194710.6794  -38579426.39449 -29789776.47647  19194710.6524   19194717.9094
       843.4874        657.2624
  22122449.3994  -19545361.04848 -14953092.41446  22122449.4154   22122459.4014
      2911.0744       2268.3664
  22687151.5694  -13070480.30147  -9907380.99245  22687152.0034   22687160.0814
      3717.4824       2896.7394
  22729758.3854  -11127849.59648  -8439992.24946  22729758.1464   22729767.3424
      1439.8654       1121.9714
 98  9 18  2 21 59.9970000  0  8G22G19G16G31G18G27G13G 3
  23757817.5774   -7700066.03747  -5715211.00445  23757816.1284   23757826.7994
     -2967.9654      -2312.6914
  19972722.6844  -33661401.99148 -25624840.46647  19972722.8954   19972730.6114
      1524.3414       1187.7974
  21251965.2894    2850850.80648   2233036.80546  21251965.0854   21251974.5474
     -2288.6994      -1783.4024
  22492309.5754   -5310386.29147  -4091203.73645  22492309.6434   22492319.2784
      3213.6474       2504.1344
  19189928.1334  -38604559.22449 -29809360.49147  19189928.1764   19189935.3534
       830.0964        646.8284
  22105833.1084  -19632680.90148 -15021133.77446  22105833.0684   22105842.9714
      2908.3884       2266.2744
  22665923.7364  -13182034.17747  -9994306.03345  22665924.2484   22665932.2064
      3717.7104       2896.9164
  22721575.5964  -11170849.56647  -8473498.67046  22721575.9134   22721584.4954
      1424.7144       1110.1684
 98  9 18  2 22 29.9970000  0  8G22G19G16G31G18G27G13G 3
  23774784.6414   -7610901.89647  -5645732.46045  23774784.9544   23774794.4244
     -2972.7354      -2316.4184
  19964055.1464  -33706950.64348 -25660332.89747  19964055.0774   19964063.0384
      1515.6904       1181.0564
  21265074.6234    2919739.57148   2286716.32946  21265074.0604   21265083.7164
     -2300.3534      -1792.4834
  22474003.8074   -5406585.40547  -4166163.99145  22474004.0464   22474012.9444
      3203.0864       2495.9104
  19185248.5024  -38629149.24949 -29828521.54847  19185248.5254   19185255.7144
       812.7804        633.3354
  22089255.5254  -19719795.70248 -15089015.36846  22089255.5824   22089265.3894
      2902.7934       2261.9144
  22644718.8254  -13293465.86247 -10081135.86545  22644719.2404   22644726.8054
      3714.5274       2894.4384
  22713507.4814  -11213248.59347  -8506536.83446  22713507.3484   22713515.8324
      1405.4404       1095.1464
 98  9 18  2 22 59.9970000  0  9G10G22G19G16G31G18G27G13G 3
  23835888.3834    -924319.14557   -707394.55945  23835888.0854   23835897.6624
      3438.5664       2679.4014
  23791760.6274   -7521692.83547  -5576218.90845  23791760.0394   23791769.7374
     -2975.2194      -2318.3514
  19955418.7554  -33752335.34148 -25695697.57347  19955418.8024   19955426.5594
      1509.2024       1176.0004
  21278232.7694    2988885.00248   2340595.85046  21278232.1734   21278241.5744
     -2309.9164      -1799.9334
  22455739.8664   -5502566.65347  -4240954.47745  22455739.5884   22455748.5054
      3195.1674       2489.7424
  19180648.8494  -38653320.04149 -29847355.92247  19180648.8984   19180656.3094
       798.0264        621.8384
  22072691.7474  -19806838.13848 -15156840.57646  22072691.7504   22072702.0224
      2899.5164       2259.3594
  22623514.7574  -13404894.95847 -10167963.66545  22623515.7854   22623522.5174
      3713.6544       2893.7534
  22705529.5574  -11255173.92347  -8539205.87046  22705529.2384   22705538.0634
      1389.0984       1082.4134
 98  9 18  2 23 29.9970000  0  8G10G19G16G31G18G27G13G 3
  23816298.6774   -1027263.41847   -787610.83445  23816298.3164   23816308.0184
      3422.8184       2667.1274
  19946833.2904  -33797454.89448 -25730855.63647  19946833.1074   19946840.8934
      1497.1924       1166.6444
  21291456.0654    3058375.74148   2394744.43946  21291455.7714   21291465.3684
     -2324.3924      -1811.2154
  22437531.3054   -5598251.61747  -4315514.11145  22437530.9494   22437539.8814
      3182.2254       2479.6604
  19176144.3324  -38676990.97349 -29865800.79547  19176144.2544   19176151.6684
       778.5674        606.6764
  22056156.3564  -19893733.43748 -15224551.13246  22056156.3744   22056165.6314
      2892.0484       2253.5424
  22602323.6624  -13516253.02747 -10254736.11745  22602324.3994   22602332.5794
      3708.5874       2889.8064
  22697655.2084  -11296553.26047  -8571449.46646  22697655.0894   22697663.7034
      1368.0244       1065.9904
 98  9 18  2 23 59.9970000  0  8G10G19G16G31G18G27G13G 3
  23796764.1094   -1129920.68247   -867603.53445  23796764.8694   23796772.5384
      3413.5204       2659.8784
  19938282.2394  -33842387.07448 -25765867.70447  19938282.3284   19938290.4624
      1490.6624       1161.5544
  21304728.6934    3128124.62548   2449094.18046  21304728.4654   21304738.2704
     -2333.2434      -1818.1124
  22419362.2934   -5693726.86647  -4389910.33945  22419363.1394   22419371.4994
      3175.1584       2474.1464
  19171716.3804  -38700259.06149 -29883931.76847  19171716.4514   19171723.6174
       765.2084        596.2654
  22039628.2494  -19980588.01348 -15292229.94846  22039628.2414   22039637.7684
      2890.5494       2252.3744
  22581129.3714  -13627630.60947 -10341523.76646  22581129.1274   22581138.0184
      3708.8434       2890.0054
  22689865.2904  -11337487.84148  -8603346.50446  22689865.4704   22689874.1494
      1353.3674       1054.5694
 98  9 18  2 24 29.9970000  0  8G10G19G16G31G18G27G13G 3
  23777306.7454   -1232168.77047   -947277.32645  23777306.2714   23777315.5324
      3406.2094       2654.1844
  19929793.3824  -33886995.66548 -25800627.62947  19929793.4444   19929801.4224
      1486.6494       1158.4274
  21318076.6514    3198269.64748   2503752.59946  21318076.4404   21318086.7034
     -2339.6824      -1823.1274
  22401261.9624   -5788849.45647  -4464031.76945  22401261.0864   22401270.1474
      3169.9294       2470.0714
  19167388.1264  -38723006.55349 -29901657.08247  19167388.0754   19167395.1104
       754.6944        588.0724
  22023133.6934  -20067267.39148 -15359772.25246  22023133.6644   22023142.9414
      2891.4104       2253.0474
  22559960.2404  -13738873.83347 -10428206.71945  22559960.2954   22559969.5094
      3710.5974       2891.3754
  22682183.3114  -11377860.10548  -8634805.35846  22682183.0374   22682191.6074
      1341.6794       1045.4634
 98  9 18  2 24 59.9970000  0  8G10G19G16G31G18G27G13G 3
  23757894.5364   -1334170.54147  -1026759.18745  23757894.8404   23757907.8114
      3395.4514       2645.8154
  19921332.9624  -33931456.26548 -25835272.23447  19921332.8354   19921341.0404
      1478.8434       1152.3454
  21331468.3854    3268640.70648   2558587.14646  21331468.0024   21331478.3254
     -2350.2094      -1831.3314
  22383193.9464   -5883794.84147  -4538015.12545  22383193.8464   22383202.3904
      3161.2924       2463.3424
  19163124.4364  -38745412.36549 -29919116.15347  19163124.6044   19163131.4384
       740.2984        576.8564
  22006640.8684  -20153936.88248 -15427306.87046  22006640.8244   22006650.4294
      2888.0684       2250.4404
  22538788.5884  -13850129.44147 -10514899.31445  22538789.0244   22538797.6964
      3707.9754       2889.3244
  22674571.9084  -11417856.09748  -8665971.01746  22674571.8454   22674580.4174
      1326.0824       1033.3064
 98  9 18  2 25 29.9970000  0  8G10G19G16G31G18G27G13G 3
  23738555.2274   -1435805.13447  -1105954.87845  23738553.7364   23738565.9974
      3381.9024       2635.2544
  19912926.0804  -33975634.16348 -25869696.55447  19912926.0634   19912934.3704
      1468.2834       1144.1164
  21344928.3474    3339372.76048   2613702.98446  21344927.9354   21344938.2574
     -2363.4154      -1841.6224
  22365185.2344   -5978434.15147  -4611759.95845  22365185.1324   22365193.1344
      3149.7294       2454.3324
  19158953.4734  -38767332.09549 -29936196.45847  19158953.3894   19158960.5064
       722.7804        563.2044
  21990176.5654  -20240460.11748 -15494727.50446  21990176.3064   21990186.0034
      2881.8204       2245.5704
  22517641.8294  -13961258.63447 -10601493.40445  22517642.1094   22517649.3724
      3702.3254       2884.9274
  22667059.3734  -11457334.19047  -8696733.12746  22667059.1744   22667067.7274
      1307.6034       1018.9074
 98  9 18  2 25 59.9970000  0  8G10G19G16G31G18G27G13G 3
  23719276.6534   -1537117.09647  -1184899.22545  23719275.2144   23719285.4684
      3372.9474       2628.2754
  19904562.8934  -34019583.20248 -25903942.53547  19904562.9054   19904571.2154
      1462.4314       1139.5544
  21358446.9704    3410414.09048   2669059.81646  21358446.5954   21358456.8194
     -2371.9144      -1848.2424
  22347226.3194   -6072806.97547  -4685297.14445  22347226.4014   22347234.3124
      3142.4504       2448.6634
  19154867.4754  -38788802.51549 -29952926.65547  19154867.4364   19154874.6144
       709.2934        552.6954
  21973733.0474  -20326870.57548 -15562060.26946  21973732.9564   21973741.8184
      2879.5864       2243.8324
  22496513.3364  -14072287.46847 -10688009.31745  22496514.2064   22496521.4494
      3700.5254       2883.5244
  22659635.5504  -11496346.81347  -8727132.53646  22659635.5044   22659643.7264
      1293.7314       1008.1004
 98  9 18  2 26 29.9970000  0  8G10G19G16G31G18G27G13G 3
  23700063.2554   -1638080.54447  -1263571.97845  23700063.1264   23700073.1014
      3359.8594       2618.0704
  19896244.9414  -34063292.98548 -25938002.09147  19896245.0664   19896253.1964
      1453.4664       1132.5714
  21372026.4574    3481776.52248   2724666.85946  21372026.2334   21372036.5604
     -2383.6274      -1857.3714
  22329323.8614   -6166884.15447  -4758603.96945  22329323.4324   22329332.0954
      3131.2294       2439.9184
  19150872.9484  -38809794.34649 -29969283.92347  19150873.0254   19150880.0824
       691.9134        539.1544
  21957314.6324  -20413148.15748 -15629289.50146  21957314.6054   21957323.9894
      2874.1504       2239.5974
  22475407.8644  -14183199.30647 -10774434.02946  22475408.1034   22475415.9124
      3695.6594       2879.7294
  22652305.6054  -11534864.76647  -8757146.49146  22652305.7074   22652314.5384
      1275.8744        994.1894
 98  9 18  2 26 59.9970000  0  8G10G19G16G31G18G27G13G 3
  23680915.7964   -1738707.62347  -1341982.64645  23680915.1554   23680925.4024
      3345.8624       2607.1684
  19887966.0594  -34106797.49648 -25971901.69247  19887966.2004   19887974.7314
      1444.0044       1125.1974
  21385660.9914    3553426.54148   2780497.99446  21385660.7454   21385671.2714
     -2395.9134      -1866.9434
  22311476.9184   -6260673.41347  -4831686.44545  22311476.6424   22311485.3644
      3118.3014       2429.8424
  19146968.0724  -38830314.36649 -29985273.55147  19146968.0414   19146975.2804
       673.2144        524.5834
  21940917.8544  -20499315.78948 -15696433.04446  21940917.6994   21940927.1384
      2867.6324       2234.5184
  22454317.6254  -14294026.27647 -10860792.63346  22454318.5924   22454326.3364
      3690.0984       2875.3964
  22645069.1444  -11572894.53147  -8786780.03946  22645068.8984   22645077.8334
      1256.4604        979.0624
 98  9 18  2 27 29.9970000  0  8G10G19G16G31G18G27G13G 3
  23661840.4054   -1838951.78947  -1420094.91845  23661839.4494   23661847.9224
      3335.5044       2599.0924
  19879732.6884  -34150066.66548 -26005617.90747  19879732.6984   19879741.0794
      1438.9854       1121.2874
  21399356.0604    3625392.61048   2836575.39746  21399355.4794   21399365.8374
     -2403.3214      -1872.7184
  22293695.4914   -6354108.80647  -4904493.17545  22293695.5214   22293704.6694
      3109.2404       2422.7844
  19143161.5344  -38850320.14749 -30000862.46847  19143161.1394   19143168.5624
       659.0404        513.5384
  21924548.3304  -20585337.36448 -15763462.77546  21924548.0684   21924557.7284
      2865.5954       2232.9284
  22433250.2144  -14404737.97247 -10947061.40946  22433250.1004   22433258.6124
      3689.1954       2874.6944
  22637935.7934  -11610381.40047  -8815990.55846  22637935.5934   22637943.8984
      1241.1164        967.1034
 98  9 18  2 27 59.9960000  0  8G10G19G16G31G18G27G13G 3
  23642833.0764   -1938822.74247  -1497916.40145  23642832.9434   23642842.5774
      3323.3664       2589.6354
  19871538.5644  -34193124.81448 -26039169.69547  19871538.7084   19871547.5034
      1432.2494       1116.0384
  21413102.3004    3697629.86948   2892864.11646  21413101.8994   21413112.4244
     -2412.0894      -1879.5474
  22275977.7384   -6447216.65747  -4977044.67845  22275977.8784   22275986.2224
      3098.7724       2414.6294
  19139445.1834  -38869849.13849 -30016079.86447  19139444.9584   19139452.3894
       643.5984        501.5054
  21908200.0314  -20671246.11648 -15830404.60046  21908200.3684   21908209.4524
      2862.4864       2230.5064
  22412197.8064  -14515368.90847 -11033267.24346  22412198.1994   22412206.3714
      3687.1464       2873.0974
  22630900.5034  -11647345.61848  -8844793.81646  22630901.0724   22630909.5654
      1223.7374        953.5614
 98  9 18  2 28 29.9960000  0  8G10G19G16G31G18G27G13G 3
  23623903.0144   -2038309.04447  -1575438.05845  23623901.3764   23623912.7084
      3310.0554       2579.2604
  19863387.2414  -34235961.10348 -26072548.60447  19863387.4454   19863395.8044
      1424.4674       1109.9724
  21426902.2784    3770149.42948   2949372.81646  21426901.8554   21426912.8074
     -2421.4884      -1886.8754
  22258322.9084   -6539993.65947  -5049338.37245  22258322.8914   22258330.8514
      3087.4094       2405.7694
  19135820.7464  -38888892.77649 -30030919.06947  19135820.7794   19135828.0804
       626.9404        488.5254
  21891873.5394  -20757045.37348 -15897261.09646  21891873.2834   21891882.8764
      2858.4234       2227.3394
  22391160.1274  -14625925.97747 -11119415.52246  22391160.5034   22391167.6734
      3684.3084       2870.8894
  22623970.3394  -11683767.23148  -8873174.25946  22623970.4674   22623978.7684
      1205.4474        939.3104
 98  9 18  2 28 59.9960000  0  9G10G19G16G31G18G27G13G 3G 2
  23605038.9324   -2137431.68247  -1652676.40845  23605038.4494   23605049.6744
      3296.8364       2568.9574
  19855274.3434  -34278596.49748 -26105770.96647  19855274.3524   19855282.4014
      1416.4384       1103.7174
  21440747.8534    3842907.42348   3006067.30246  21440747.6374   21440758.2544
     -2430.4814      -1893.8814
  22240724.8864   -6632472.88647  -5121400.02545  22240724.1644   22240733.3704
      3076.5494       2397.3134
  19132285.7634  -38907470.92949 -30045395.55147  19132285.5624   19132292.8614
       610.4544        475.6784
  21875563.3414  -20842753.12148 -15964046.29946  21875563.4144   21875572.9464
      2854.1704       2224.0254
  22370130.7614  -14736429.48747 -11205522.07946  22370131.1324   22370139.2074
      3681.4104       2868.6254
  22617136.4494  -11719682.25948  -8901159.97146  22617136.2484   22617144.4164
      1187.7194        925.4924
  24043772.9654   -4136591.67557  -2896705.94345  24043772.5624   24043787.8184
      3897.4844       3036.9894
 98  9 18  2 29 29.9960000  0  9G10G19G16G31G18G27G13G 3G 2
  23586252.8414   -2236154.46847  -1729603.14945  23586252.4734   23586264.0564
      3284.0394       2558.9914
  19847209.5054  -34320976.54048 -26138794.35747  19847209.5254   19847217.5444
      1408.1744       1097.2774
  21454644.6314    3915934.93948   3062971.80246  21454644.1564   21454654.9984
     -2438.6224      -1900.2224
  22223185.7054   -6724639.19547  -5193217.85045  22223185.3674   22223194.9864
      3067.2154       2390.0394
  19128843.0144  -38925561.78549 -30059492.31947  19128842.8264   19128850.2074
       594.8344        463.5074
  21859277.3864  -20928335.06848 -16030733.46846  21859277.0174   21859287.3144
      2850.6194       2221.2594
  22349117.9694  -14846851.51248 -11291565.12046  22349118.7694   22349127.1124
      3679.3764       2867.0414
  22610401.1784  -11755076.86448  -8928740.15446  22610401.0264   22610409.7814
      1171.3734        912.7584
  24021532.2914   -4253467.53647  -2987777.69245  24021531.6274   24021546.6564
      3893.7634       3034.0874
 98  9 18  2 29 59.9960000  0  9G10G19G16G31G18G27G13G 3G 2
  23567546.5214   -2334456.28247  -1806201.86745  23567545.8374   23567557.1464
      3272.9814       2550.3734
  19839200.5134  -34363063.86848 -26171589.65547  19839200.4564   19839208.6014
      1401.4284       1092.0214
  21468597.1114    3989255.76548   3120104.85346  21468596.7164   21468607.1574
     -2445.8544      -1905.8574
  22205710.0044   -6816479.17947  -5264781.40345  22205709.0874   22205717.9844
      3058.8034       2383.4794
  19125499.4404  -38943133.38749 -30073184.47547  19125499.4584   19125506.2864
       580.2414        452.1354
  21843020.0494  -21013766.45248 -16097303.31546  21843020.1474   21843030.3274
      2848.3894       2219.5224
  22328125.8114  -14957167.98248 -11377525.90846  22328126.4314   22328134.8124
      3678.6054       2866.4434
  22603765.8824  -11789943.01548  -8955908.55046  22603765.6034   22603774.2104
      1156.6674        901.3014
  23999319.8804   -4370195.69547  -3078734.34145  23999319.3124   23999334.1824
      3891.6434       3032.4394
 98  9 18  2 30 29.9960000  0  9G10G19G16G31G18G27G13G 3G 2
  23548900.7264   -2432452.86247  -1882562.74445  23548899.1144   23548909.1864
      3261.2014       2541.2014
  19831222.0454  -34404989.57648 -26204259.01447  19831222.1514   19831230.0984
      1394.5874       1086.6914
  21482583.8744    4062756.89948   3177378.40946  21482583.6624   21482593.9064
     -2453.3134      -1911.6694
  22188276.6674   -6908087.78847  -5336164.65745  22188276.5004   22188285.3534
      3049.3464       2376.1104
  19122233.2104  -38960297.32149 -30086558.97047  19122233.2284   19122240.1614
       565.1484        440.3754
  21826769.8524  -21099162.86548 -16163845.91346  21826769.8674   21826779.3034
      2845.6594       2217.3954
  22307132.8974  -15067489.33148 -11463490.49946  22307133.0544   22307141.4274
      3677.1594       2865.3154
  22597207.1374  -11824408.86048  -8982765.01946  22597206.9164   22597215.5904
      1141.9364        889.8214
  23977113.2564   -4486886.59247  -3169662.01645  23977112.9564   23977127.7834
      3888.6944       3030.1444
 98  9 18  2 30 59.9960000  0  9G10G19G16G31G18G27G13G 3G 2
  23530321.6114   -2530082.45147  -1958637.59945  23530320.0274   23530331.1504
      3246.3874       2529.6504
  19823286.2004  -34446694.29348 -26236756.16947  19823286.3134   19823293.8174
      1384.7304       1079.0114
  21496617.8134    4136504.95948   3234844.37346  21496617.4294   21496627.9264
     -2464.3844      -1920.2994
  22170901.9804   -6999390.18547  -5407309.29745  22170901.9804   22170911.3794
      3036.3984       2366.0254
  19119053.8064  -38977002.69449 -30099576.14447  19119053.7814   19119061.1714
       547.5774        426.6834
  21810539.4564  -21184457.95548 -16230309.54846  21810539.2474   21810548.0474
      2839.7694       2212.8034
  22286151.3344  -15177744.25448 -11549403.32646  22286151.6164   22286160.4984
      3672.2324       2861.4764
  22590736.5294  -11858414.64648  -9009262.99446  22590736.0244   22590744.3694
      1124.0774        875.9024
  23954928.9714   -4603470.33247  -3260506.21245  23954928.4264   23954943.2024
      3882.6854       3025.4524
 98  9 18  2 31 29.9960000  0  9G10G19G16G31G18G27G13G 3G 2
  23511825.6034   -2627280.64647  -2034376.38345  23511824.0574   23511834.0944
      3235.3384       2521.0324
  19815404.0934  -34488114.08448 -26269031.30247  19815404.2064   19815412.1004
      1378.5964       1074.2304
  21510714.1744    4210579.41248   3292564.66546  21510713.5594   21510724.0624
     -2471.9804      -1926.2154
  22153599.9374   -7090314.41847  -5478159.28145  22153600.0384   22153609.4474
      3026.9854       2358.6824
  19115972.3984  -38993198.01649 -30112195.87447  19115972.3124   19115979.4724
       533.7314        415.8944
  21794338.6664  -21269592.48948 -16296648.06846  21794338.5184   21794347.2404
      2837.6474       2211.1514
  22265196.2044  -15287860.42848 -11635208.03446  22265196.6284   22265205.4534
      3670.5244       2860.1424
  22584366.9194  -11891885.73348  -9035344.32646  22584367.2114   22584375.0954
      1108.9474        864.1144
  23932773.3554   -4719898.15447  -3351228.90545  23932772.7404   23932787.1314
      3880.9234       3024.0834
 98  9 18  2 31 59.9960000  0  9G10G19G16G31G18G27G13G 3G 2
  23493407.7994   -2724059.94047  -2109788.68845  23493407.0374   23493417.4674
      3220.9084       2509.7964
  19807572.9634  -34529267.27648 -26301098.69347  19807572.8874   19807581.0134
      1369.2614       1066.9574
  21524871.0904    4284976.33948   3350536.23246  21524870.7994   21524881.4774
     -2483.4384      -1935.1454
  22136370.2364   -7180855.58747  -5548710.77145  22136370.1194   22136379.4064
      3013.4144       2348.1154
  19112988.0024  -39008882.12849 -30124417.25147  19112987.5814   19112994.6584
       516.3854        402.3774
  21778168.2524  -21354567.54848 -16362862.32946  21778168.2604   21778177.4644
      2831.5524       2206.4034
  22244271.7404  -15397820.99148 -11720891.49246  22244272.2964   22244280.6274
      3664.4564       2855.4174
  22578103.7724  -11924797.20448  -9060989.58046  22578103.8324   22578112.2164
      1089.3744        848.8564
  23910644.8054   -4836180.25047  -3441838.10945  23910644.8914   23910659.4674
      3875.4014       3019.7834
 98  9 18  2 32 29.9960000  0  9G10G19G16G31G18G27G13G 3G 2
  23475053.5624   -2820509.79847  -2184944.34145  23475052.9034   23475063.1624
      3203.6774       2496.3664
  19799776.2364  -34570238.85948 -26333024.56947  19799776.1644   19799784.2224
      1356.6484       1057.1274
  21539072.3864    4359604.03048   3408687.61746  21539071.7264   21539081.9514
     -2497.1414      -1945.8234
  22119197.7034   -7271095.35247  -5619027.39745  22119197.7934   22119206.6464
      2997.2234       2335.4944
  19110081.3684  -39024154.38849 -30136317.70447  19110081.2824   19110088.2684
       496.4424        386.8364
  21762013.7294  -21439458.83348 -16429011.32046  21762013.8174   21762022.8534
      2822.3924       2199.2654
  22223362.9114  -15507694.43148 -11806507.06546  22223364.2084   22223372.1864
      3655.1024       2848.1304
  22571933.4464  -11957220.68948  -9086254.58746  22571933.7334   22571941.8154
      1066.6504        831.1554
  23888529.9524   -4952395.28447  -3532395.05945  23888529.6554   23888545.3214
      3866.9844       3013.2314
 98  9 18  2 32 59.9960000  0  9G10G19G16G31G18G27G13G 3G 2
  23456773.4294   -2916577.25847  -2259801.96945  23456773.6184   23456781.6154
      3198.7914       2492.5574
  19792027.4354  -34610959.01748 -26364754.52947  19792027.4454   19792035.7064
      1356.1204       1056.7154
  21553326.9714    4434514.01748   3467058.97446  21553326.6394   21553337.2044
     -2498.8134      -1947.1274
  22102093.2064   -7360987.06347  -5689072.79445  22102092.1204   22102100.9294
      2993.6554       2332.7174
  19107263.2344  -39038962.05949 -30147856.14747  19107263.5734   19107270.9404
       488.5864        380.7174
  21745887.7684  -21524203.10748 -16495045.75646  21745887.5564   21745896.7134
      2825.3124       2201.5384
  22202483.4184  -15617417.81448 -11892005.70946  22202483.8184   22202491.9824
      3657.9344       2850.3334
  22565870.4814  -11989085.18348  -9111084.01646  22565870.3464   22565878.3394
      1055.7414        822.6504
  23866435.2064   -5068498.52747  -3622864.88745  23866435.4794   23866450.3664
      3871.2184       3016.5214
 98  9 18  2 33 29.9960000  0  9G10G19G16G31G18G27G13G 3G 2
  23438558.3314   -3012295.06447  -2334387.19345  23438557.0644   23438566.8734
      3183.2784       2480.4744
  19784320.0124  -34651463.62448 -26396316.52647  19784319.7884   19784328.1464
      1345.3484       1048.3234
  21567628.3594    4509668.52948   3525620.86946  21567628.2984   21567639.1634
     -2510.3934      -1956.1494
  22085044.6594   -7450575.08447  -5758881.56345  22085044.4644   22085053.4414
      2979.7194       2321.8504
  19104530.1064  -39053325.86749 -30159048.71347  19104530.1394   19104537.8414
       469.8534        366.1184
  21729782.4604  -21608833.10148 -16560991.14446  21729782.3314   21729792.1184
      2817.6394       2195.5614
  22181624.0354  -15727034.37148 -11977421.12046  22181624.7574   22181633.0364
      3650.7144       2844.7104
  22559907.7104  -12020417.98448  -9135499.14146  22559907.7214   22559916.2624
      1034.2084        805.8744
  23844356.5284   -5184524.55147  -3713274.58545  23844356.0804   23844371.6804
      3864.6934       3011.4374
 98  9 18  2 33 59.9960000  0  9G10G19G16G31G18G27G13G 3G 2
  23420421.1104   -3107601.90847  -2408652.16645  23420420.5074   23420430.0544
      3168.9924       2469.3514
  19776660.3034  -34691715.12448 -26427681.30147  19776660.3044   19776668.3164
      1336.6794       1041.5674
  21581983.3384    4585105.46348   3584402.83046  21581983.1384   21581993.8744
     -2520.1234      -1963.7304
  22068066.9244   -7539792.92847  -5828401.88745  22068066.6384   22068075.3174
      2966.7154       2311.7224
  19101891.3264  -39067192.29549 -30169853.71447  19101891.2404   19101898.7644
       453.1254        353.0854
  21713709.6584  -21693295.67148 -16626806.05946  21713709.7034   21713719.1414
      2811.8934       2191.0844
  22160794.6164  -15836496.63048 -12062716.29746  22160795.2484   22160802.8174
      3645.5404       2840.6744
  22554055.0794  -12051175.65548  -9159466.12046  22554054.7274   22554063.0994
      1015.1264        791.0054
  23822304.0954   -5300404.83047  -3803570.70445  23822304.0684   23822320.0874
      3859.2704       3007.2154
 98  9 18  2 34 29.9960000  0  9G10G19G16G31G18G27G13G 3G 2
  23402343.9854   -3202600.61247  -2482677.03345  23402343.7824   23402352.8254
      3160.4834       2462.7044
  19769025.5064  -34731835.66748 -26458944.03247  19769025.6554   19769033.4624
      1334.4104       1039.7984
  21596369.8854    4660702.77948   3643309.77246  21596369.4124   21596379.5294
     -2523.3964      -1966.2834
  22051140.6064   -7628739.55847  -5897710.88545  22051140.1974   22051149.3904
      2959.5334       2306.1284
  19099325.4074  -39080676.80649 -30180361.11347  19099325.4464   19099332.7894
       442.0774        344.4754
  21697644.3954  -21777719.80748 -16692591.03346  21697644.2974   21697653.6754
      2812.8194       2191.8044
  22139967.9904  -15945940.51048 -12147997.16146  22139968.1824   22139976.1634
      3647.1604       2841.9384
  22548284.3044  -12081498.14348  -9183093.99746  22548284.2194   22548292.7074
      1002.7204        781.3374
  23800261.9594   -5416241.36647  -3893832.75245  23800261.8774   23800276.9244
      3859.6724       3007.5304
 98  9 18  2 34 59.9960000  0  9G10G19G16G31G18G27G13G 3G 2
  23384346.8544   -3297181.79447  -2556376.56345  23384346.3464   23384355.7024
      3146.6404       2451.9314
  19761433.1224  -34771732.66648 -26490032.57247  19761433.2104   19761441.1784
      1327.0534       1034.0664
  21610803.9524    4736555.58348   3702415.80146  21610803.7934   21610813.6724
     -2531.7474      -1972.7904
  22034283.9784   -7717321.70947  -5966735.85746  22034283.8644   22034292.5314
      2947.6684       2296.8804
  19096852.8084  -39093670.70549 -30190486.22047  19096852.7814   19096860.1524
       425.7794        331.7754
  21681602.2914  -21862021.76448 -16758280.78746  21681602.2354   21681611.3344
      2809.0704       2188.8824
  22119161.1514  -16055281.05148 -12233197.50546  22119161.6704   22119169.2664
      3643.8964       2839.3954
  22542614.8424  -12111292.01748  -9206309.96046  22542615.2034   22542623.2864
       985.3774        767.8234
  23778246.2184   -5531934.23647  -3983982.85045  23778246.0904   23778260.7204
      3854.7684       3003.7094
 98  9 18  2 35 29.9960000  0  9G10G19G16G31G18G27G13G 3G 2
  23366424.2914   -3391359.62147  -2629761.79945  23366424.0804   23366435.1814
      3133.8014       2441.9134
  19753880.9604  -34811420.42548 -26520958.06747  19753881.0164   19753888.9054
      1320.6764       1029.0984
  21625281.6594    4812638.84648   3761701.40246  21625281.4124   21625292.0754
     -2538.5174      -1978.0654
  22017493.2374   -7805555.00947  -6035489.00946  22017493.6424   22017501.7614
      2936.3194       2288.0384
  19094470.5074  -39106191.09749 -30200242.36047  19094470.3694   19094477.6724
       410.9444        320.2164
  21665578.0944  -21946231.46048 -16823898.65546  21665577.7104   21665586.3324
      2806.9114       2187.2014
  22098369.0544  -16164541.56848 -12318335.49546  22098369.8844   22098377.6104
      3641.8304       2837.7874
  22537039.2364  -12140592.20648  -9229141.24246  22537038.7294   22537047.5954
       969.8534        755.7324
  23756255.6074   -5647490.99347  -4074026.87445  23756255.9374   23756271.4564
      3850.9794       3000.7574
 98  9 18  2 35 59.9960000  0  9G10G19G16G31G18G27G13G 3G 2
  23348575.5534   -3485154.23147  -2702848.44145  23348574.1544   23348586.3234
      3119.1554       2430.5134
  19746366.7424  -34850905.97948 -26551725.99947  19746366.7744   19746375.0484
      1311.5754       1022.0064
  21639799.6904    4888928.41348   3821147.75746  21639799.2814   21639809.6674
     -2547.4494      -1985.0244
  22000769.4804   -7893444.81047  -6103974.51146  22000769.1114   22000777.0934
      2923.0454       2277.6974
  19092172.1864  -39118268.62549 -30209653.41347  19092172.1264   19092179.5734
       394.0414        307.0434
  21649564.1414  -22030382.01048 -16889470.43646  21649564.2644   21649573.4384
      2803.0974       2184.2274
  22077591.0024  -16273734.45848 -12403420.79746  22077591.1584   22077598.7574
      3637.7224       2834.5864
  22531551.6564  -12169427.81248  -9251610.51546  22531551.6124   22531560.2404
       952.3764        742.1094
  23734288.1364   -5762934.37547  -4163982.58145  23734287.4344   23734303.3644
      3845.2764       2996.3104
 98  9 18  2 36 29.9960000  0  9G10G19G16G31G18G27G13G 3G 2
  23330804.5994   -3578542.62347  -2775618.57245  23330804.0344   23330814.3684
      3107.4684       2421.3984
  19738901.6434  -34890136.18048 -26582294.96247  19738901.6934   19738909.8114
      1304.5654       1016.5434
  21654362.8524    4965458.10348   3880781.21546  21654362.2264   21654373.0594
     -2553.8004      -1989.9694
  21984112.3654   -7980975.63048  -6172180.29046  21984112.2174   21984120.7624
      2913.1824       2270.0124
  19089967.2774  -39129854.27249 -30218681.18447  19089967.1464   19089974.5024
       379.2124        295.4904
  21633567.5904  -22114448.16548 -16954976.45446  21633567.3964   21633576.3504
      2801.9924       2183.3674
  22056831.1604  -16382824.76648 -12488426.16146  22056831.8484   22056840.1124
      3635.6864       2833.0004
  22526161.7894  -12197756.40748  -9273684.72546  22526161.7144   22526169.3064
       936.8134        729.9814
  23712345.0014   -5878242.78047  -4253833.06845  23712345.0124   23712361.0394
      3842.7794       2994.3744
 98  9 18  2 36 59.9960000  0  9G10G19G16G31G18G27G13G 3G 2
  23313103.7614   -3671557.83947  -2848097.91145  23313103.8264   23313114.2444
      3093.7184       2410.6884
  19731481.5504  -34929130.87148 -26612680.41247  19731481.4574   19731489.2564
      1295.3834       1009.3904
  21668966.8434    5042204.04548   3940583.18646  21668966.7174   21668977.5194
     -2562.3764      -1996.6544
  21967514.8904   -8068194.44648  -6240142.94746  21967514.8314   21967523.3074
      2901.2834       2260.7354
  19087850.3674  -39140978.97949 -30227349.77747  19087850.3694   19087857.6604
       362.4654        282.4394
  21617579.7594  -22198460.80548 -17020440.76846  21617579.6274   21617589.0914
      2798.8564       2180.9244
  22036089.5544  -16491827.61048 -12573363.36946  22036089.7194   22036096.8154
      3631.3684       2829.6374
  22520862.8924  -12225600.14648  -9295381.12346  22520862.9224   22520870.5684
       919.5094        716.4984
  23690418.3954   -5993465.38047  -4343616.71445  23690418.6864   23690433.6024
      3838.8034       2991.2694
 98  9 18  2 37 29.9960000  0  9G10G19G16G31G18G27G13G 3G 2
  23295485.0764   -3764144.32447  -2920243.19645  23295484.4814   23295494.8644
      3080.4634       2400.3534
  19724115.1014  -34967842.18648 -26642845.04747  19724114.8234   19724122.8464
      1287.1884       1003.0024
  21683623.8454    5119224.89048   4000599.37146  21683623.3224   21683634.2664
     -2570.5974      -2003.0614
  21950992.5744   -8155020.60148  -6307799.61946  21950992.5244   21951000.7084
      2888.9404       2251.1204
  19085834.1564  -39151576.39249 -30235607.49447  19085833.9704   19085841.2004
       345.8764        269.5134
  21601615.2804  -22282352.06848 -17085810.50046  21601615.4364   21601624.7054
      2795.5454       2178.3434
  22015376.1944  -16600677.99848 -12658181.80546  22015376.1964   22015383.0254
      3627.0314       2826.2554
  22515667.6754  -12252899.58648  -9316653.38246  22515667.4834   22515676.0324
       901.9524        702.8194
  23668518.2924   -6108551.58347  -4433294.06645  23668518.3064   23668532.6154
      3835.3354       2988.5664
 98  9 18  2 37 59.9960000  0  9G10G19G16G31G18G27G13G 3G 2
  23277942.0184   -3856334.51047  -2992079.66345  23277941.8274   23277951.1434
      3066.0454       2389.1224
  19716792.9964  -35006316.46748 -26672824.98547  19716793.1324   19716801.7594
      1278.4294        996.1784
  21698325.8114    5196483.91348   4060801.14646  21698325.5394   21698336.3344
     -2579.4704      -2009.9754
  21934538.3184   -8241489.28448  -6375177.76246  21934538.0324   21934546.3034
      2876.1454       2241.1504
  19083912.3634  -39161673.00149 -30243474.97447  19083912.3174   19083919.7824
       327.6964        255.3484
  21585671.8184  -22366138.92748 -17151098.87446  21585671.6214   21585680.6334
      2790.5774       2174.4754
  21994686.8024  -16709397.30748 -12742898.09346  21994687.3404   21994694.5564
      3621.4974       2821.9404
  22510574.1334  -12279664.24048  -9337508.93646  22510574.6034   22510582.4984
       882.7384        687.8434
  23646639.4724   -6223527.45547  -4522885.44745  23646639.4254   23646653.7294
      3830.1414       2984.5204
 98  9 18  2 38 29.9960000  0  9G10G19G16G31G18G27G13G 3G 2
  23260471.9224   -3948139.19547  -3063615.76445  23260472.2634   23260482.0004
      3054.5704       2380.1854
  19709510.6124  -35044588.48048 -26702647.31447  19709510.3764   19709518.2684
      1273.5194        992.3524
  21713069.4694    5273960.99948   4121172.83846  21713069.0534   21713079.3274
     -2585.1294      -2014.3834
  21918147.4754   -8327623.54148  -6442295.31146  21918146.8164   21918155.7834
      2866.3834       2233.5404
  19082084.3804  -39171279.63549 -30250960.65747  19082084.3564   19082091.7524
       313.4074        244.2134
  21569747.8284  -22449817.36248 -17216302.76146  21569747.8664   21569757.0174
      2788.2074       2172.6254
  21974021.7064  -16817993.61948 -12827518.53446  21974022.2754   21974029.6074
      3618.8764       2819.9044
  22505582.9834  -12305897.56648  -9357950.46546  22505582.6214   22505590.7964
       866.7264        675.3704
  23624780.7914   -6338388.22747  -4612387.13445  23624781.0434   23624795.7844
      3827.7084       2982.6204
 98  9 18  2 38 59.9960000  0  9G10G19G16G31G18G27G13G 3G 2
  23243078.8724   -4039533.54847  -3134832.09045  23243078.5724   23243090.0044
      3033.1604       2363.4944
  19702265.7404  -35082659.44548 -26732312.98147  19702265.5454   19702273.5664
      1259.3094        981.2794
  21727854.6614    5351658.63148   4181716.39246  21727854.3744   21727864.8134
     -2599.8814      -2025.8784
  21901825.9104   -8413393.09548  -6509128.67346  21901825.7034   21901833.9084
      2846.2374       2217.8474
  19080348.1524  -39180404.11249 -30258070.63247  19080347.9604   19080355.4654
       289.6024        225.6634
  21553852.6974  -22533346.57248 -17281390.36546  21553852.6074   21553861.9704
      2775.1294       2162.4364
  21953380.4564  -16926463.30048 -12912040.30346  21953380.7854   21953388.7714
      3607.2194       2810.8174
  22500692.2944  -12331596.33248  -9377975.46946  22500691.9014   22500700.4774
       841.2574        655.5224
  23602951.1274   -6453107.70747  -4701778.72645  23602951.3254   23602965.2664
      3814.8134       2972.5784
 98  9 18  2 39 29.9960000  0  9G10G19G16G31G18G27G13G 3G 2
  23225783.1544   -4130429.32747  -3205659.93045  23225782.4774   23225792.2254
      3025.7404       2357.7224
  19695073.3754  -35120453.50748 -26761762.88247  19695073.4704   19695081.1844
      1259.2754        981.2524
  21742695.7874    5429648.42848   4242487.61146  21742695.3474   21742706.0704
     -2600.3874      -2026.2754
  21885589.4864   -8498711.96148  -6575610.84746  21885589.7824   21885597.8574
      2840.8834       2213.6754
  19078718.2144  -39188968.76049 -30264744.38147  19078718.1614   19078725.8694
       280.7214        218.7434
  21538005.3744  -22616623.76848 -17346281.59846  21538005.5394   21538015.0884
      2775.9454       2163.0694
  21932778.2574  -17034728.79448 -12996402.96946  21932778.6704   21932786.2634
      3609.7334       2812.7774
  22495920.3394  -12356672.23248  -9397515.10546  22495920.4404   22495928.6964
       829.7254        646.5384
  23581169.5154   -6567571.65647  -4790971.17545  23581169.5864   23581183.3274
      3815.1324       2972.8244
 98  9 18  2 39 59.9960000  0  9G10G19G16G31G18G27G13G 3G 2
  23208551.0604   -4220997.70247  -3276232.66845  23208549.9654   23208559.2454
      3013.5304       2348.2144
  19687902.9284  -35158135.18748 -26791125.21347  19687902.9144   19687910.6684
      1254.1204        977.2364
  21757558.5474    5507755.01648   4303349.83146  21757558.3444   21757569.3364
     -2605.4884      -2030.2484
  21869404.6774   -8583771.11148  -6641890.64946  21869404.0544   21869412.6504
      2830.8934       2205.8894
  19077157.2254  -39197173.17049 -30271137.42647  19077157.1564   19077164.3474
       267.5414        208.4724
  21522171.9684  -22699831.18648 -17411118.45146  21522171.7964   21522181.1014
      2772.6294       2160.4874
  21912180.4544  -17142973.39548 -13080749.35046  21912180.5604   21912187.8744
      3607.9224       2811.3644
  22491231.6504  -12381309.72448  -9416713.12446  22491231.5884   22491240.2714
       814.2344        634.4674
  23559406.9724   -6681936.75447  -4880086.60745  23559406.5404   23559419.8524
      3810.6414       2969.3214
 98  9 18  2 40 29.9960000  0  9G10G19G16G31G18G27G13G 3G 2
  23191398.5834   -4311131.73447  -3346466.94345  23191397.8414   23191406.9934
      2997.2294       2335.5094
  19680774.6704  -35195593.24748 -26820313.29347  19680774.7134   19680782.5824
      1244.8144        969.9854
  21772465.6234    5586088.23948   4364388.64846  21772464.9194   21772475.6634
     -2614.7274      -2037.4474
  21853290.3074   -8668449.42448  -6707873.69346  21853289.8724   21853298.3724
      2816.2094       2194.4474
  19075681.5454  -39204924.17949 -30277177.17447  19075681.6184   19075689.5034
       250.9584        195.5524
  21506367.9614  -22782881.77748 -17475833.11346  21506367.8214   21506376.9684
      2766.1074       2155.4054
  21891604.1604  -17251097.79648 -13165002.07646  21891605.0124   21891612.0024
      3602.2944       2806.9824
  22486642.5264  -12405424.05548  -9435503.48846  22486642.9554   22486651.5254
       795.3574        619.7574
  23537679.0834   -6796117.80247  -4969058.60245  23537678.7014   23537691.8944
      3803.4114       2963.6974
 98  9 18  2 40 59.9960000  0  9G10G19G16G31G18G27G13G 3G 2
  23174320.6734   -4400872.79747  -3416395.01045  23174319.0314   23174330.2174
      2984.9484       2325.9314
  19673682.7894  -35232861.01448 -26849353.09547  19673682.9494   19673691.2244
      1239.0754        965.5134
  21787405.5404    5664602.02448   4425568.15046  21787405.3964   21787416.1054
     -2620.1754      -2041.6944
  21837243.0604   -8752776.50348  -6773583.04446  21837242.3844   21837251.1924
      2804.9504       2185.6734
  19074285.3074  -39212263.48949 -30282896.10947  19074285.1584   19074292.9764
       237.6074        185.1484
  21490580.8204  -22865843.18848 -17540478.27946  21490580.6994   21490589.3194
      2764.3184       2154.0124
  21871043.0494  -17359149.68748 -13249198.28946  21871043.3984   21871050.4004
      3600.3304       2805.4524
  22482144.2684  -12429065.86548  -9453925.66346  22482144.0604   22482152.5374
       779.9114        607.7234
  23515973.0824   -6910182.87747  -5057940.22145  23515972.6624   23515985.7464
      3800.3664       2961.3174
 98  9 18  2 41 29.9960000  0  9G10G19G16G31G18G27G13G 3G 2
  23157328.5404   -4490159.35347  -3485968.90745  23157328.4784   23157339.9734
      2970.8164       2314.9234
  19666642.4184  -35269859.87048 -26878183.35547  19666642.2414   19666650.5614
      1230.8264        959.0864
  21802394.8994    5743368.23448   4486944.36246  21802394.3904   21802404.3004
     -2627.5294      -2047.4224
  21821278.7614   -8836669.15348  -6838953.89646  21821278.7534   21821286.7964
      2791.1834       2174.9434
  19072982.5804  -39219107.27249 -30288228.92347  19072982.6274   19072990.7804
       221.8344        172.8584
  21474817.1544  -22948681.57848 -17605027.58746  21474817.1844   21474825.8314
      2761.5314       2151.8384
  21850512.8924  -17467037.10048 -13333266.34546  21850513.2394   21850519.7224
      3595.5614       2801.7334
  22477751.5904  -12452150.13848  -9471913.38446  22477751.3284   22477759.6974
       762.3894        594.0714
  23494298.9564   -7024073.37247  -5146685.79145  23494299.1804   23494313.0454
      3795.8514       2957.8044
 98  9 18  2 41 59.9960000  0  9G10G19G16G31G18G27G13G 3G 2
  23140418.8744   -4579019.38347  -3555210.44845  23140419.2274   23140429.4614
      2951.1294       2299.5784
  19659649.8514  -35306606.33848 -26906816.94947  19659649.8974   19659658.2484
      1216.8634        948.2044
  21817425.1254    5822350.61348   4548489.02646  21817424.1164   21817434.3164
     -2639.8574      -2057.0324
  21805395.5454   -8920131.77048  -6903989.64646  21805395.9384   21805404.4284
      2770.8944       2159.1354
  19071773.9414  -39225458.53449 -30293177.96147  19071773.8914   19071782.0744
       199.2384        155.2504
  21459070.5274  -23031430.10348 -17669506.86246  21459070.5774   21459079.3624
      2752.8104       2145.0444
  21830010.4464  -17574778.02948 -13417220.25446  21830010.8264   21830017.9394
      3585.0314       2793.5294
  22473459.7844  -12474705.00248  -9489488.56746  22473459.4854   22473468.0424
       739.0734        575.9004
  23472650.4824   -7137840.55047  -5235335.25145  23472650.0584   23472664.2064
      3786.6114       2950.5974
 98  9 18  2 42 29.9960000  0  9G10G19G16G31G18G27G13G 3G 2
  23123582.1104   -4667501.25347  -3624157.32145  23123581.9864   23123591.1294
      2944.4654       2294.3824
  19652695.1174  -35343155.25948 -26935296.61347  19652695.1594   19652703.0174
      1216.4744        947.9024
  21832481.1224    5901474.90448   4610144.25946  21832481.0244   21832491.2644
     -2638.2564      -2055.7864
  21789589.5974   -9003198.87148  -6968717.20046  21789589.2224   21789596.9554
      2763.6864       2153.5214
  19070655.8574  -39231336.93949 -30297758.53247  19070655.6024   19070663.4164
       189.3764        147.5664
  21443333.6704  -23114126.48048 -17733945.50646  21443333.6884   21443342.6284
      2756.9454       2148.2664
  21809527.7004  -17682416.52548 -13501094.34546  21809527.9824   21809534.6374
      3587.7414       2795.6434
  22469260.0734  -12496769.90548  -9506681.96646  22469260.0674   22469268.6824
       728.6224        567.7584
  23451012.8144   -7251546.94147  -5323937.34245  23451012.5654   23451026.5364
      3790.4164       2953.5624
 98  9 18  2 42 59.9960000  0  9G10G19G16G31G18G27G13G 3G 2
  23106815.1554   -4755615.43347  -3692817.68045  23106813.6664   23106822.9084
      2928.2534       2281.7534
  19645776.0874  -35379514.56748 -26963628.51947  19645775.9244   19645784.1724
      1205.9764        939.7224
  21847561.2734    5980719.66448   4671893.36046  21847560.8324   21847571.1804
     -2646.3424      -2062.0834
  21773856.1594   -9085877.40848  -7033141.98446  21773855.6144   21773864.0944
      2746.6664       2140.2584
  19069628.1604  -39236734.66449 -30301964.55147  19069628.1564   19069636.3184
       168.9484        131.6474
  21427609.0714  -23196759.23348 -17798334.58146  21427609.0254   21427617.9934
      2750.2564       2143.0544
  21789062.3704  -17789962.65148 -13584896.45746  21789062.3814   21789069.5824
      3580.4784       2789.9814
  22465156.5054  -12518336.62448  -9523487.17046  22465156.5094   22465164.9914
       707.5484        551.3364
  23429388.8874   -7365181.42447  -5412483.38845  23429388.3734   23429401.8644
      3783.5034       2948.1734
 98  9 18  2 43 29.9960000  0  9G10G19G16G31G18G27G13G 3G 2
  23090135.5524   -4843266.53347  -3761117.20145  23090134.8944   23090143.4554
      2916.0764       2272.2594
  19638911.3154  -35415587.00248 -26991736.89347  19638911.3594   19638919.6074
      1199.8864        934.9764
  21862682.1594    6060178.78448   4733809.48946  21862681.8754   21862692.0174
     -2649.8754      -2064.8364
  21758213.7954   -9168076.57648  -7097193.24046  21758213.6504   21758222.2274
      2734.5124       2130.7864
  19068713.5614  -39241540.98549 -30305709.73047  19068713.3004   19068721.6594
       152.6794        118.9714
  21411921.0474  -23279203.14048 -17862576.50046  21411920.9194   21411929.2454
      2747.0034       2140.5184
  21768633.1414  -17897318.25448 -13668550.10146  21768633.3354   21768640.3464
      3577.8724       2787.9524
  22461167.2614  -12539298.44248  -9539821.02846  22461167.3234   22461176.1024
       690.9854        538.4294
  23407800.7664   -7478623.71847  -5500879.68245  23407800.4254   23407813.8714
      3780.3764       2945.7374
 98  9 18  2 43 59.9960000  0  9G10G19G16G31G18G27G13G 3G 2
  23073533.4554   -4930515.91747  -3829103.67745  23073532.9414   23073540.5454
      2902.7374       2261.8704
  19632087.2654  -35451449.06048 -27019681.33347  19632087.0794   19632095.1764
      1193.2434        929.7984
  21877829.6834    6139780.66348   4795836.86346  21877829.3534   21877840.1484
     -2654.7774      -2068.6564
  21742645.8944   -9249886.43948  -7160941.14546  21742645.6704   21742653.5534
      2721.9204       2120.9724
  19067897.1074  -39245834.04749 -30309054.96547  19067896.6774   19067904.6894
       136.0574        106.0194
  21396257.8814  -23361513.17648 -17926714.10246  21396257.6314   21396266.1794
      2742.8584       2137.2894
  21748221.3434  -18004577.50848 -13752128.69146  21748222.1264   21748228.8024
      3574.9664       2785.6854
  22457279.7314  -12559730.45748  -9555742.04446  22457279.6694   22457287.5814
       673.3994        524.7294
  23386237.4434   -7591940.37147  -5589178.06145  23386237.0874   23386250.2074
      3776.2894       2942.5484
 98  9 18  2 44 29.9960000  0  9G10G19G16G31G18G27G13G 3G 2
  23057013.4394   -5017325.59547  -3896747.55045  23057012.3704   23057020.2874
      2885.4604       2248.4074
  19625306.9204  -35487078.73248 -27047444.69047  19625306.9574   19625315.0304
      1183.0274        921.8374
  21893014.5904    6219574.42448   4858013.76146  21893014.0554   21893024.2294
     -2664.0864      -2075.9084
  21727153.6484   -9331296.93048  -7224377.85146  21727153.8324   21727161.7864
      2706.2994       2108.8004
  19067176.7934  -39249615.38749 -30312001.46547  19067176.7304   19067185.0544
       117.0464         91.2044
  21380620.9324  -23443681.86248 -17990741.57446  21380620.9344   21380629.6324
      2735.9804       2131.9324
  21727834.9324  -18111709.55248 -13835608.13846  21727835.3674   21727842.3724
      3568.0194       2780.2704
  22453499.5374  -12579598.41748  -9571223.53846  22453499.1204   22453506.8364
       652.0384        508.0784
  23364703.7574   -7705099.67047  -5677353.82445  23364703.0324   23364715.6024
      3768.4164       2936.4174
 98  9 18  2 44 59.9960000  0  9G10G19G16G31G18G27G13G 3G 2
  23040581.7424   -5103672.97047  -3964031.13745  23040581.2794   23040590.2974
      2870.9264       2237.0864
  19618574.9854  -35522456.38648 -27075011.67547  19618575.1494   19618582.9614
      1175.5444        916.0074
  21908243.6054    6299605.24448   4920375.37446  21908242.9504   21908253.7024
     -2671.2124      -2081.4634
  21711739.9484   -9412297.66848  -7287495.26246  21711739.6884   21711747.9054
      2693.8364       2099.0934
  19066554.6734  -39252884.39649 -30314548.74647  19066554.6664   19066563.2314
       101.0754         78.7594
  21365013.3384  -23525700.83248 -18054652.38146  21365013.3994   21365021.8034
      2732.1744       2128.9634
  21707477.4374  -18218685.28648 -13918965.79546  21707477.7714   21707485.0684
      3563.7194       2776.9224
  22449829.9594  -12598881.99448  -9586249.67546  22449829.4294   22449837.7244
       633.6734        493.7714
  23343204.8784   -7818073.25047  -5765384.90045  23343203.9204   23343217.2354
      3763.2444       2932.3854
 98  9 18  2 45 29.9960000  0  9G10G19G16G31G18G27G13G 3G 2
  23024233.5184   -5189579.60547  -4030971.32145  23024233.4264   23024243.2964
      2856.7704       2226.0614
  19611883.6394  -35557620.76148 -27102412.46347  19611883.5304   19611891.4974
      1169.4084        911.2264
  21923511.3524    6379838.47548   4982894.71646  21923511.0444   21923521.1474
     -2677.0494      -2086.0114
  21696393.6834   -9492941.92948  -7350334.90846  21696393.6544   21696402.2904
      2682.9774       2090.6284
  19066018.1904  -39255702.23949 -30316744.46947  19066018.1224   19066026.7714
        87.4774         68.1634
  21349421.2974  -23607635.97648 -18118497.86646  21349421.3804   21349430.3084
      2730.8874       2127.9624
  21687142.9364  -18325546.05248 -14002233.84646  21687143.5314   21687150.8754
      3560.8894       2774.7184
  22446259.5334  -12617642.10448  -9600867.91746  22446259.1604   22446267.7314
       617.6584        481.2954
  23321732.6864   -7930912.23747  -5853311.08645  23321732.1814   23321744.5284
      3760.1714       2929.9904
 98  9 18  2 45 59.9960000  0  9G10G19G16G31G18G27G13G 3G 2
  23007977.9414   -5275003.59847  -4097535.42145  23007977.0894   23007988.2684
      2839.8914       2212.9074
  19605238.1544  -35592540.44248 -27129622.59147  19605238.2474   19605246.4834
      1160.3984        904.2064
  21938824.3274    6460309.39448   5045599.27046  21938824.0724   21938834.3614
     -2685.6954      -2092.7474
  21681121.9864   -9573196.23248  -7412870.68446  21681121.8444   21681130.0314
      2668.8674       2079.6374
  19065570.9134  -39258057.26249 -30318579.55147  19065570.7104   19065578.7874
        71.2214         55.4954
  21333847.0454  -23689479.01848 -18182271.58646  21333847.1014   21333856.5094
      2727.0194       2124.9474
  21666838.1694  -18432248.36848 -14085378.43946  21666838.7164   21666845.9794
      3554.2114       2769.5144
  22442791.4814  -12635867.75548  -9615069.69846  22442791.7064   22442799.2734
       599.1924        466.9044
  23300287.6594   -8043600.46047  -5941119.80145  23300287.5984   23300300.1944
      3754.1954       2925.3354
 98  9 18  2 46 29.9960000  0  9G10G19G16G31G18G27G13G 3G 2
  22991822.1644   -5359906.71247  -4163693.65045  22991821.1224   22991831.4364
      2823.2264       2199.9114
  19598647.7454  -35627174.43048 -27156610.10347  19598647.7264   19598656.0274
      1151.4774        897.2554
  21954187.3904    6541042.98448   5108508.49946  21954187.1204   21954197.8094
     -2693.5274      -2098.8504
  21665936.9774   -9652998.71848  -7475054.38846  21665936.4044   21665943.7704
      2654.0184       2068.0654
  19065219.1114  -39259903.91149 -30320018.49747  19065219.0684   19065227.3774
        54.5484         42.5064
  21318299.0684  -23771185.86548 -18245939.18046  21318298.6454   21318308.3274
      2722.7664       2121.6334
  21646577.4764  -18538722.60048 -14168345.30846  21646577.6074   21646584.4934
      3547.1204       2763.9864
  22439430.5834  -12653528.31948  -9628831.15246  22439430.3864   22439438.6384
       581.0564        452.7714
  23278882.6144   -8156083.07547  -6028768.30445  23278882.0344   23278895.1104
      3747.4784       2920.1054
 98  9 18  2 46 59.9960000  0  9G10G19G16G31G18G27G13G 3G 2
  22975736.4304   -5444439.16247  -4229563.03345  22975734.9764   22975744.8674
      2812.1364       2191.2714
  19592083.7284  -35661669.60248 -27183489.43847  19592083.5514   19592091.6344
      1148.0394        894.5764
  21969568.7634    6621871.96148   5171492.06146  21969568.3554   21969579.0354
     -2694.9604      -2099.9644
  21650813.6704   -9732469.57748  -7536979.69446  21650813.3184   21650821.0514
      2643.7944       2060.0974
  19064941.0164  -39261364.72149 -30321156.79647  19064941.0704   19064949.3354
        42.6544         33.2364
  21302752.1274  -23852883.95348 -18309599.95046  21302752.1154   21302761.6044
      2723.7364       2122.3904
  21626330.3824  -18645120.57948 -14251252.74546  21626330.9544   21626337.5584
      3545.9584       2763.0814
  22436148.7764  -12670776.37648  -9642271.17446  22436148.2904   22436156.4024
       568.5864        443.0514
  23257494.7264   -8268479.98147  -6116350.02045  23257495.1224   23257506.1664
      3745.6894       2918.7104
 98  9 18  2 47 29.9960000  0  9G10G19G16G31G18G27G13G 3G 2
  22959733.2774   -5528536.78647  -4295093.62345  22959732.1884   22959741.8074
      2797.0454       2179.5124
  19585558.1834  -35695959.40448 -27210208.74947  19585558.4194   19585566.2384
      1140.5564        888.7454
  21984975.3534    6702834.33648   5234579.56846  21984975.2244   21984985.8664
     -2699.9314      -2103.8404
  21635770.9484   -9811521.43848  -7598578.50346  21635770.3684   21635778.1114
      2628.7934       2048.4074
  19064751.6074  -39262361.09349 -30321933.19247  19064751.3564   19064759.7514
        26.0854         20.3264
  21287219.6694  -23934506.90048 -18373202.16446  21287219.6374   21287228.9524
      2720.0264       2119.4984
  21606110.0924  -18751375.38848 -14334048.62546  21606110.6454   21606117.4264
      3540.1194       2758.5304
  22432958.0694  -12687542.07848  -9655335.33946  22432957.6274   22432966.0224
       551.3854        429.6504
  23236135.5864   -8380722.35847  -6203811.32545  23236135.4944   23236147.1254
      3739.6994       2914.0414
 98  9 18  2 47 59.9960000  0  9G10G19G16G31G18G27G13G 3G 2
  22943808.1984   -5612219.24947  -4360300.70345  22943807.4054   22943818.8774
      2783.0354       2168.6014
  19579069.6184  -35730057.05848 -27236778.33247  19579069.6424   19579077.4354
      1133.9754        883.6164
  22000403.8154    6783910.40848   5297755.66746  22000403.3224   22000413.7284
     -2703.6604      -2106.7464
  21620809.7064   -9890140.48948  -7659840.06746  21620809.1444   21620817.0104
      2613.8724       2036.7804
  19064654.5924  -39262868.88049 -30322328.87547  19064654.5964   19064662.6804
         9.1074          7.0964
  21271707.0334  -24016025.50848 -18436723.07646  21271707.0764   21271715.8844
      2715.9094       2116.2894
  21585921.2574  -18857468.31248 -14416718.36146  21585921.5664   21585928.1554
      3534.2904       2753.9904
  22429863.7034  -12703801.66648  -9668005.13746  22429863.5394   22429871.6054
       533.7364        415.8984
  23214807.5804   -8492801.59547  -6291145.51145  23214807.0564   23214819.8324
      3733.6544       2909.3304
 98  9 18  2 48 29.9960000  0  9G10G19G16G31G18G27G13G 3G 2
  22927957.6904   -5695514.68047  -4425206.20145  22927956.9604   22927966.8214
      2770.2914       2158.6724
  19572610.3574  -35764001.92848 -27263228.86747  19572610.3354   19572617.8974
      1129.2644        879.9464
  22015844.5164    6865051.76348   5360982.64046  22015843.8874   22015854.4924
     -2705.7324      -2108.3594
  21605926.7264   -9968350.24148  -7720782.68246  21605926.5284   21605933.8414
      2600.6144       2026.4524
  19064648.3054  -39262904.35349 -30322356.51947  19064647.9634   19064656.0044
        -6.3414         -4.9404
  21256210.2374  -24097462.31448 -18500180.24746  21256210.0514   21256218.8024
      2713.4944       2114.4094
  21565756.6064  -18963434.41648 -14499289.28946  21565757.4464   21565763.5464
      3530.6074       2751.1264
  22426864.4274  -12719559.95848  -9680284.30246  22426864.7894   22426873.1684
       517.0054        402.8604
  23193506.1594   -8604742.76347  -6378372.11546  23193505.6964   23193518.0174
      3729.5164       2906.1084
