     2.11           OBSERVATION DATA    M (MIXED)           RINEX VERSION / TYPE
teqc  2011Oct11     Kristine Larson     20131023 22:44:27UTCPGM / RUN BY / DATE
ONSA                                                        MARKER NAME
10402M004                                                   MARKER NUMBER
SWEPOS              LMV                                     OBSERVER / AGENCY
AG72YY6YV40         JPS E_GGD           2.6.1 Jan,10,2008   REC # / TYPE / VERS
  3370658.8318   711876.9387  5349786.7450                  APPROX POSITION XYZ
        0.9950        0.0000        0.0000                  ANTENNA: DELTA H/E/N
     1     1                                                WAVELENGTH FACT L1/2
     7    C1    L1    L2    P1    P2    S1    S2            # / TYPES OF OBSERV
    30.0000                                                 INTERVAL
    16                                                      LEAP SECONDS
020                 AOAD/M_B        OSOD                    ANT # / TYPE
Linux 2.4.21-27.ELsmp|Opteron|gcc|Linux x86_64|=+           COMMENT
teqc  2010Oct21                         20120921 02:30:38UTCCOMMENT
MSXP|IAx86-PII|bcc32 5.0|MSWin95->XP|486/DX+                COMMENT
teqc  2010Oct21                         20120920 01:01:33UTCCOMMENT
Forced Modulo Decimation to 30 seconds                      COMMENT
IMoS GFileSrv 3.61  Lantmäteriet        19.09.2012          COMMENT
teqc edited: all GLONASS satellites excluded                COMMENT
  2012     9    20     0     0    0.0000000     GPS         TIME OF FIRST OBS
                                                            END OF HEADER
 12  9 20  0  0  0.0000000  0 11G08G13G02G23G30G05G29G07G04G16G10
  23184847.270 7 121837208.549 7  94938098.51243  23184845.847 3  23184849.787 3
        46.000          29.000
  20701921.395 8 108789390.110 8  84770990.60246  20701921.250 6  20701923.013 6
        51.000          41.000
  21977322.819 7 115491636.059 7  89993496.25145  21977321.753 5  21977322.500 5
        46.000          35.000
  23118871.217 7 121490567.752 7  94668009.95543  23118869.988 3  23118870.943 3
        45.000          27.000
  24378635.675 5 128110593.610 5  99826444.29841  24378635.416 1  24378637.063 1
        39.000          17.000
  22701006.084 7 119294612.442 7  92956858.38944  22701006.225 4  22701008.502 4
        48.000          34.000
  24684588.887 6 129718413.192 6 101079309.34342  24684587.867 2  24684590.004 2
        41.000          20.000
  20874796.917 8 109697818.731 8  85478853.79246  20874796.991 6  20874799.243 6
        50.000          42.000
  23670864.133 6 124391217.703 6  96928233.28142  23670863.134 2  23670867.062 2
        42.000          24.000
  23276339.588 7 122318016.697 7  95312753.39543  23276338.292 3  23276341.620 3
        45.000          26.000
  20318840.024 8 106776260.472 8  83202306.67146  20318838.575 6  20318841.983 6
        52.000          42.000
 12  9 20  0  0 30.0000000  0 11G08G13G02G23G30G05G29G07G04G16G10
  23165169.178 7 121733803.382 7  94857523.10143  23165168.921 3  23165172.575 3
        45.000          29.000
  20712280.709 8 108843828.636 8  84813410.22946  20712280.480 6  20712282.242 6
        51.000          41.000
  21984107.442 7 115527293.709 7  90021281.42845  21984107.301 5  21984108.131 5
        47.000          35.000
  23136881.737 6 121585217.855 6  94741763.21743  23136881.740 3  23136882.140 3
        44.000          28.000
  24392674.831 6 128184370.977 6  99883933.11641  24392672.898 1  24392677.383 1
        40.000          16.000
  22684314.381 7 119206898.038 7  92888509.46444  22684314.664 4  22684317.303 4
        47.000          34.000
  24691053.537 5 129752395.080 5 101105788.62842  24691054.269 1  24691056.187 2
        39.000          20.000
  20866277.905 8 109653049.849 8  85443968.96846  20866277.794 6  20866279.899 6
        51.000          42.000
  23691158.559 6 124497870.081 6  97011338.99542  23691158.143 2  23691163.010 2
        42.000          24.000
  23278950.583 6 122331740.803 6  95323447.50943  23278950.548 3  23278953.159 3
        44.000          26.000
  20322524.034 8 106795622.646 8  83217394.07446  20322523.095 6  20322526.512 6
        51.000          42.000
 12  9 20  0  1  0.0000000  0 11G08G13G02G23G30G05G29G07G04G16G10
  23145534.485 6 121630624.087 6  94777123.69943  23145534.110 3  23145538.045 3
        44.000          29.000
  20722715.696 8 108898663.700 8  84856138.84946  20722715.342 6  20722716.813 6
        52.000          41.000
  21991002.790 7 115563527.822 7  90049515.79345  21991002.370 5  21991003.344 5
        49.000          35.000
  23154927.111 7 121680045.560 7  94815654.85043  23154926.999 3  23154927.142 3
        45.000          28.000
  24406806.973 6 128258635.418 6  99941800.96441  24406806.719 1  24406810.426 1
        42.000          19.000
  22667679.109 7 119119477.907 7  92820389.87244  22667678.863 4  22667681.378 4
        47.000          34.000
  24697618.135 5 129786902.571 5 101132677.48741  24697618.963 1  24697620.987 1
        36.000          19.000
  20857860.103 8 109608813.914 8  85409499.42746  20857859.910 6  20857861.950 6
        50.000          42.000
  23711487.379 6 124604698.078 6  97094581.55742  23711487.210 2  23711491.421 2
        43.000          23.000
  23281683.197 7 122346099.068 7  95334635.85943  23281683.017 3  23281685.472 3
        45.000          25.000
  20326314.953 8 106815541.952 8  83232915.60546  20326313.566 6  20326317.034 6
        52.000          42.000
 12  9 20  0  1 30.0000000  0 11G08G13G02G23G30G05G29G07G04G16G10
  23125943.664 7 121527672.779 7  94696901.94444  23125943.009 4  23125947.070 4
        45.000          30.000
  20733225.253 8 108953894.601 8  84899175.92146  20733225.287 6  20733226.972 6
        51.000          41.000
  21998007.191 7 115600337.324 7  90078198.50945  21998007.245 5  21998007.850 5
        48.000          35.000
  23173005.263 7 121775049.534 7  94889683.86543  23173005.351 3  23173006.362 3
        45.000          27.000
  24421030.357 6 128333386.663 6 100000048.82641  24421029.284 1  24421033.732 1
        40.000          18.000
  22651099.803 7 119032354.071 7  92752501.24545  22651099.918 4  22651102.499 5
        46.000          35.000
  24704285.599 5 129821934.700 5 101159975.28841  24704285.821 1  24704289.399 1
        38.000          19.000
  20849543.561 8 109565111.889 8  85375445.94446  20849543.697 6  20849545.690 6
        51.000          42.000
  23731849.468 6 124711698.800 6  97177958.70042  23731848.606 2  23731853.339 2
        42.000          23.000
  23284536.688 7 122361090.637 7  95346317.55543  23284535.025 3  23284537.885 3
        45.000          25.000
  20330211.010 8 106836018.247 8  83248871.15346  20330210.155 6  20330213.576 6
        52.000          42.000
 12  9 20  0  2  0.0000000  0 11G08G13G02G23G30G05G29G07G04G16G10
  23106396.896 7 121424951.415 7  94616859.36044  23106395.904 4  23106400.161 4
        46.000          30.000
  20743810.600 8 109009519.970 8  84942520.35546  20743810.630 6  20743812.217 6
        53.000          41.000
  22005121.092 8 115637720.733 8  90107328.41745  22005120.825 5  22005121.687 5
        50.000          36.000
  23191118.844 7 121870228.171 7  94963848.95243  23191117.563 3  23191117.455 3
        45.000          27.000
  24435347.138 5 128408620.296 5 100058672.31141  24435346.364 1  24435350.252 1
        39.000          18.000
  22634577.293 7 118945528.463 7  92684844.92545  22634577.509 5  22634579.962 5
        47.000          35.000
  24711050.579 5 129857488.959 5 101187679.80041  24711052.052 1  24711055.083 1
        38.000          19.000
  20841329.216 8 109521944.437 8  85341808.99046  20841329.305 6  20841331.226 6
        51.000          42.000
  23752242.462 6 124818869.210 6  97261468.07842  23752243.058 2  23752246.948 2
        42.000          22.000
  23287509.535 7 122376715.229 7  95358492.51143  23287508.938 3  23287511.117 3
        45.000          26.000
  20334213.643 8 106857051.160 8  83265260.42746  20334212.480 6  20334215.843 6
        53.000          42.000
 12  9 20  0  2 30.0000000  0 11G08G13G02G23G30G05G29G07G04G16G10
  23086893.622 7 121322462.363 7  94536997.80944  23086892.667 4  23086896.705 4
        45.000          30.000
  20754470.484 8 109065538.305 8  84986171.00746  20754470.398 6  20754472.217 6
        51.000          41.000
  22012343.584 7 115675676.314 7  90136904.18045  22012343.702 5  22012344.355 5
        49.000          35.000
  23209262.962 6 121965580.192 6  95038149.09143  23209262.764 3  23209262.343 3
        43.000          26.000
  24449755.897 6 128484334.687 6 100117670.46842  24449755.574 2  24449759.766 2
        40.000          20.000
  22618112.466 7 118859003.730 7  92617423.11445  22618112.355 5  22618114.965 5
        47.000          35.000
  24717916.908 5 129893564.134 5 101215790.17341  24717918.165 1  24717921.262 1
        37.000          19.000
  20833216.895 8 109479313.175 8  85308589.84046  20833216.744 6  20833218.823 6
        51.000          42.000
  23772667.940 6 124926206.516 6  97345107.52242  23772668.069 2  23772672.460 2
        41.000          22.000
  23290603.053 7 122392972.624 7  95371160.64743  23290602.387 3  23290604.195 3
        46.000          26.000
  20338321.742 8 106878640.602 8  83282083.36546  20338320.801 6  20338324.239 6
        51.000          42.000
 12  9 20  0  3  0.0000000  0 11G08G13G02G23G30G05G29G07G04G16G10
  23067435.468 7 121220207.646 7  94457318.84944  23067434.197 4  23067438.270 4
        46.000          30.000
  20765205.136 8 109121948.201 8  85030126.76546  20765204.915 6  20765206.680 6
        52.000          41.000
  22019675.457 7 115714202.840 7  90166924.83145  22019674.814 5  22019675.979 5
        47.000          35.000
  23227440.888 7 122061104.153 7  95112583.29143  23227440.409 3  23227440.248 3
        45.000          26.000
  24464253.664 5 128560527.109 5 100177041.42441  24464252.888 1  24464258.831 1
        39.000          19.000
  22601704.481 7 118772781.878 7  92550237.33945  22601704.676 5  22601707.508 5
        48.000          35.000
  24724883.003 5 129930159.405 5 101244305.94542  24724880.844 2  24724885.005 2
        39.000          20.000
  20825206.490 8 109437218.711 8  85275788.98046  20825206.437 6  20825208.529 6
        52.000          42.000
  23793125.183 6 125033707.971 6  97428874.84242  23793125.189 2  23793128.757 2
        41.000          21.000
  23293816.852 6 122409861.671 6  95384320.85443  23293816.614 3  23293818.646 3
        44.000          26.000
  20342536.129 8 106900786.036 8  83299339.53946  20342535.007 6  20342538.338 6
        51.000          42.000
 12  9 20  0  3 30.0000000  0 11G08G13G02G23G30G05G29G07G04G16G10
  23048021.703 7 121118189.448 7  94377824.20044  23048021.116 4  23048025.302 4
        45.000          30.000
  20776013.916 8 109178748.411 8  85074386.66846  20776013.803 6  20776015.243 6
        52.000          41.000
  22027114.998 7 115753298.750 7  90197389.14445  22027114.490 4  22027115.267 5
        49.000          35.000
  23245649.902 6 122156799.233 6  95187150.82643  23245649.722 3  23245650.754 3
        42.000          26.000
  24478844.283 5 128637193.960 5 100236781.76241  24478842.231 1  24478847.491 1
        39.000          19.000
  22585354.561 7 118686865.096 7  92483289.23845  22585355.394 5  22585357.854 5
        47.000          35.000
  24731944.937 5 129967272.692 5 101273225.44042  24731942.990 2  24731946.976 2
        39.000          21.000
  20817298.401 8 109395661.551 8  85243406.80246  20817298.277 6  20817300.250 6
        51.000          42.000
  23813613.113 6 125141370.704 6  97512767.85142  23813612.564 2  23813616.819 2
        40.000          21.000
  23297151.200 7 122427382.174 7  95397973.13343  23297150.457 3  23297152.554 3
        45.000          25.000
  20346855.923 8 106923487.168 8  83317028.72746  20346854.754 6  20346858.241 6
        52.000          42.000
 12  9 20  0  4  0.0000000  0 11G08G13G02G23G30G05G29G07G04G16G10
  23028653.099 7 121016409.839 7  94298515.46244  23028652.385 4  23028657.102 4
        46.000          30.000
  20786896.414 8 109235937.291 8  85118949.43346  20786896.341 6  20786898.187 6
        52.000          41.000
  22034662.396 7 115792962.628 7  90228296.04945  22034662.544 5  22034663.088 5
        47.000          35.000
  23263893.353 6 122252663.775 6  95261850.40543  23263892.612 3  23263892.948 3
        44.000          26.000
  24493522.277 5 128714333.656 5 100296890.64841  24493521.260 1  24493525.578 1
        39.000          17.000
  22569064.394 7 118601255.502 7  92416580.46545  22569064.363 5  22569066.928 5
        48.000          35.000
  24739103.145 5 130004901.925 5 101302547.01541  24739104.327 1  24739108.055 1
        38.000          19.000
  20809492.888 8 109354643.620 8  85211444.79746  20809492.934 6  20809495.002 6
        50.000          43.000
  23834129.498 6 125249191.722 6  97596784.17142  23834129.385 2  23834134.280 2
        41.000          20.000
  23300605.270 6 122445533.678 6  95412117.10743  23300604.472 3  23300607.748 3
        44.000          25.000
  20351281.598 8 106946743.366 8  83335150.43346  20351280.541 6  20351283.809 6
        51.000          42.000
 12  9 20  0  4 30.0000000  0 11G08G13G02G23G30G05G29G07G04G16G10
  23009331.553 7 120914871.023 7  94219394.34744  23009330.739 4  23009334.604 4
        45.000          30.000
  20797853.099 8 109293514.049 8  85163814.44746  20797852.696 6  20797854.740 6
        52.000          40.000
  22042318.264 7 115833192.819 7  90259644.22345  22042318.044 5  22042318.947 5
        48.000          35.000
  23282167.434 6 122348696.453 6  95336680.99643  23282167.052 3  23282167.657 3
        44.000          26.000
  24508291.555 6 128791942.801 6 100357365.22841  24508292.311 1  24508295.866 1
        41.000          19.000
  22552832.282 7 118515955.476 7  92350112.96345  22552832.455 5  22552834.317 5
        48.000          35.000
  24746365.568 5 130043045.210 5 101332268.85642  24746363.831 2  24746366.437 2
        39.000          20.000
  20801789.710 8 109314165.484 8  85179903.41646  20801790.048 6  20801792.134 6
        51.000          42.000
  23854677.983 6 125357168.159 6  97680921.62142  23854677.338 2  23854680.383 2
        40.000          20.000
  23304179.546 7 122464315.527 7  95426752.28143  23304179.319 3  23304181.570 3
        45.000          26.000
  20355812.595 8 106970554.307 8  83353704.40546  20355811.568 6  20355814.876 6
        52.000          42.000
 12  9 20  0  5  0.0000000  0 11G08G13G02G23G30G05G29G07G04G16G10
  22990055.169 7 120813574.949 7  94140462.38044  22990054.595 4  22990058.673 4
        45.000          30.000
  20808882.800 8 109351476.682 8  85208980.12646  20808882.647 6  20808884.522 6
        51.000          41.000
  22050081.851 7 115873987.455 7  90291432.23645  22050080.815 5  22050081.627 5
        47.000          35.000
  23300474.158 6 122444896.170 6  95411641.78043  23300473.310 3  23300474.094 3
        44.000          25.000
  24523149.495 6 128870019.252 6 100418204.02341  24523147.569 1  24523152.802 1
        40.000          18.000
  22536659.209 7 118430966.744 7  92283887.99045  22536659.605 5  22536661.724 5
        48.000          35.000
  24753719.631 5 130081701.977 5 101362390.93441  24753719.773 1  24753722.058 1
        39.000          19.000
  20794190.220 8 109274227.857 8  85148783.20146  20794190.269 6  20794192.213 6
        50.000          43.000
  23875254.291 6 125465296.831 6  97765177.68942  23875253.310 2  23875257.188 2
        42.000          20.000
  23307872.794 7 122483727.271 7  95441878.29143  23307872.575 3  23307875.467 3
        45.000          26.000
  20360449.413 8 106994920.050 8  83372690.68746  20360448.285 6  20360451.620 6
        51.000          42.000
 12  9 20  0  5 30.0000000  0 11G08G13G02G23G30G05G29G07G04G16G10
  22970825.609 7 120712523.740 7  94061721.22344  22970825.177 4  22970829.209 4
        46.000          31.000
  20819985.894 8 109409824.239 8  85254445.75446  20819985.701 6  20819987.701 6
        52.000          41.000
  22057951.538 7 115915345.367 7  90323659.14945  22057951.187 5  22057951.940 5
        48.000          35.000
  23318812.109 6 122541261.190 6  95486731.32943  23318811.400 3  23318811.826 3
        43.000          26.000
  24538095.512 6 128948559.527 6 100479403.93841  24538095.343 1  24538099.174 1
        41.000          19.000
  22520547.031 7 118346291.974 7  92217907.51745  22520546.799 5  22520549.174 5
        48.000          36.000
  24761169.847 5 130120869.871 5 101392911.34841  24761172.299 1  24761176.435 1
        37.000          19.000
  20786693.057 8 109234831.508 8  85118084.76746  20786693.276 6  20786695.185 6
        52.000          42.000
  23895858.879 6 125573575.266 6  97849550.45342  23895858.871 2  23895862.971 2
        42.000          21.000
  23311687.218 6 122503768.309 6  95457494.73343  23311686.228 3  23311688.898 3
        44.000          26.000
  20365191.465 8 107019839.940 8  83392108.77346  20365190.245 6  20365193.528 6
        52.000          42.000
 12  9 20  0  6  0.0000000  0 11G08G13G02G23G30G05G29G07G04G16G10
  22951643.096 7 120611719.189 7  93983172.26944  22951642.653 4  22951646.872 4
        45.000          31.000
  20831161.895 8 109468555.220 8  85300210.15646  20831161.888 6  20831163.613 6
        52.000          40.000
  22065929.268 7 115957264.554 7  90356323.41845  22065928.460 5  22065929.053 5
        48.000          35.000
  23337180.326 6 122637790.491 6  95561948.88843  23337180.612 3  23337180.107 3
        43.000          25.000
  24553127.992 5 129027562.813 5 100540965.41141  24553127.356 1  24553130.698 1
        38.000          18.000
  22504493.325 7 118261933.368 7  92152173.61045  22504493.756 5  22504495.983 5
        48.000          36.000
  24768724.098 6 130160547.440 6 101423828.87442  24768721.962 1  24768725.710 2
        40.000          20.000
  20779299.521 8 109195977.216 8  85087808.71846  20779299.512 6  20779301.559 6
        51.000          42.000
  23916491.517 6 125682000.515 6  97934037.61842  23916490.594 2  23916495.288 2
        40.000          21.000
  23315619.882 6 122524437.715 6  95473600.72543  23315619.733 3  23315622.076 3
        44.000          25.000
  20370038.848 8 107045313.511 8  83411958.30146  20370037.692 6  20370041.100 6
        51.000          42.000
 12  9 20  0  6 30.0000000  0 11G08G13G02G23G30G05G29G07G04G16G10
  22932507.897 7 120511163.587 7  93904817.29344  22932507.400 4  22932511.721 4
        46.000          31.000
  20842411.052 8 109527668.167 8  85346272.20046  20842410.903 6  20842412.377 6
        52.000          40.000
  22074012.244 7 115999743.455 7  90389423.84545  22074011.630 5  22074012.364 5
        48.000          35.000
  23355580.310 6 122734482.752 6  95637293.46242  23355580.223 2  23355579.304 2
        44.000          24.000
  24568250.353 5 129107025.117 5 100602884.48041  24568249.568 1  24568252.667 1
        39.000          18.000
  22488501.148 7 118177893.095 7  92086687.66245  22488501.453 5  22488503.496 5
        48.000          35.000
  24776372.275 6 130200733.222 6 101455142.47242  24776371.349 2  24776373.784 2
        41.000          20.000
  20772009.168 8 109157666.259 8  85057956.04146  20772009.180 6  20772011.286 6
        51.000          42.000
  23937151.338 6 125790569.552 6  98018636.81542  23937151.196 2  23937154.844 2
        40.000          21.000
  23319672.795 6 122545734.460 6  95490195.61343  23319672.647 3  23319674.041 3
        44.000          25.000
  20374991.330 8 107071340.480 8  83432239.05746  20374990.452 6  20374993.832 6
        51.000          42.000
 12  9 20  0  7  0.0000000  0 11G08G13G02G23G30G05G29G07G04G16G10
  22913420.957 7 120410859.029 7  93826657.92844  22913420.377 4  22913424.074 4
        47.000          31.000
  20853732.674 8 109587161.739 8  85392630.81146  20853732.122 6  20853733.698 6
        52.000          40.000
  22082201.668 7 116042780.482 7  90422959.16845  22082201.288 5  22082202.280 5
        48.000          35.000
  23374011.625 6 122831336.436 6  95712763.80843  23374010.629 3  23374011.141 3
        44.000          25.000
  24583457.558 5 129186942.864 5 100665157.99641  24583455.871 1  24583460.116 1
        37.000          17.000
  22472569.780 7 118094173.640 7  92021451.72945  22472570.126 5  22472571.965 5
        48.000          36.000
  24784111.859 5 130241425.022 5 101486850.50542  24784113.529 2  24784115.745 2
        39.000          21.000
  20764822.396 8 109119899.484 8  85028527.40446  20764822.465 6  20764824.483 6
        51.000          42.000
  23957837.833 6 125899279.691 6  98103345.97142  23957838.445 2  23957842.544 2
        41.000          21.000
  23323845.051 7 122567658.327 7  95507279.13643  23323844.614 3  23323846.595 3
        45.000          25.000
  20380049.539 8 107097920.004 8  83452950.36346  20380048.568 6  20380051.788 6
        52.000          42.000
 12  9 20  0  7 30.0000000  0 11G08G13G02G23G30G05G29G07G04G16G10
  22894381.676 7 120310807.632 7  93748695.84544  22894380.768 4  22894384.656 4
        46.000          31.000
  20865125.510 8 109647034.912 8  85439285.23046  20865125.439 6  20865127.309 6
        52.000          40.000
  22090497.303 7 116086374.080 7  90456928.18845  22090496.808 5  22090497.813 5
        49.000          35.000
  23392472.314 6 122928350.428 6  95788359.08043  23392471.968 3  23392472.935 3
        44.000          25.000
  24598751.068 4 129267313.998 4 100727784.73241  24598750.244 1  24598753.359 1
        34.000          13.000
  22456700.302 7 118010776.481 7  91956466.92145  22456700.287 5  22456702.301 5
        48.000          36.000
  24791953.945 6 130282621.204 6 101518951.62442  24791953.572 2  24791956.768 2
        41.000          20.000
  20757739.385 8 109082677.655 8  84999523.38546  20757739.301 6  20757741.338 6
        51.000          42.000
  23978550.921 6 126008127.795 6  98188162.62942  23978550.885 2  23978555.229 2
        40.000          22.000
  23328136.396 6 122590208.564 6  95524850.74143  23328135.130 3  23328137.874 3
        44.000          25.000
  20385212.666 8 107125051.564 8  83474091.83146  20385211.372 6  20385214.758 6
        52.000          42.000
 12  9 20  0  8  0.0000000  0 11G08G13G02G23G30G05G29G07G04G16G10
  22875391.383 7 120211011.263 7  93670932.47544  22875390.363 4  22875394.436 4
        47.000          31.000
  20876590.880 8 109707285.886 8  85486234.04246  20876591.082 6  20876592.459 6
        52.000          40.000
  22098898.390 7 116130522.343 7  90491329.41444  22098897.817 4  22098898.790 4
        48.000          34.000
  23410964.497 7 123025523.332 7  95864078.16443  23410962.850 3  23410964.364 3
        45.000          25.000
  24614131.593 4 129348135.056 4 100790761.65141  24614131.846 1  24614134.025 1
        34.000          14.000
  22440891.674 7 117927704.216 7  91891735.35945  22440891.990 5  22440894.174 5
        47.000          36.000
  24799889.011 6 130324319.409 6 101551443.64342  24799887.659 2  24799892.683 2
        41.000          21.000
  20750759.851 8 109046001.132 8  84970944.29546  20750760.077 6  20750762.167 6
        51.000          42.000
  23999290.553 6 126117111.195 6  98273084.72942  23999288.945 2  23999294.924 2
        41.000          21.000
  23332545.756 6 122613384.174 6  95542909.56743  23332545.742 3  23332548.089 3
        44.000          26.000
  20390480.307 8 107152734.599 8  83495663.01246  20390479.448 6  20390482.729 6
        53.000          42.000
 12  9 20  0  8 30.0000000  0 11G08G13G02G23G30G05G29G07G04G16G10
  22856449.232 7 120111471.964 7  93593369.43944  22856448.288 4  22856452.732 4
        46.000          31.000
  20888128.321 8 109767913.383 8  85533476.25346  20888128.098 6  20888129.698 6
        52.000          40.000
  22107404.799 7 116175223.669 7  90526161.61044  22107404.477 4  22107405.255 4
        48.000          34.000
  23429485.808 6 123122853.933 6  95939920.13643  23429485.240 3  23429485.814 3
        44.000          26.000
  24629597.274 5 129429403.924 5 100854087.43241  24629595.728 1  24629600.052 1
        35.000          15.000
  22425145.748 7 117844958.866 7  91827258.40545  22425145.956 5  22425148.138 5
        48.000          36.000
  24807913.339 5 130366518.415 5 101584325.93542  24807915.596 1  24807921.636 2
        36.000          20.000
  20743884.783 7 109009871.180 7  84942791.11046  20743884.771 6  20743886.819 6
        49.000          42.000
  24020053.940 6 126226226.988 6  98358109.96442  24020054.467 2  24020059.455 2
        41.000          22.000
  23337074.692 6 122637184.596 6  95561455.33143  23337074.568 3  23337077.236 3
        44.000          26.000
  20395853.246 8 107180968.915 8  83517663.77946  20395852.222 6  20395855.587 6
        52.000          42.000
 12  9 20  0  9  0.0000000  0 11G08G13G02G23G30G05G29G07G04G16G10
  22837556.873 7 120012192.035 7  93516008.49144  22837555.911 4  22837560.299 4
        46.000          31.000
  20899736.494 8 109828916.292 8  85581010.97546  20899736.476 5  20899738.024 6
        52.000          40.000
  22116016.082 7 116220475.961 7  90561423.11744  22116015.533 4  22116016.705 4
        48.000          34.000
  23448036.715 6 123220340.707 6  96015883.76443  23448036.439 3  23448036.811 3
        44.000          26.000
  24645147.446 5 129511118.933 5 100917761.12441  24645145.860 1  24645150.917 1
        35.000          16.000
  22409463.066 7 117762542.900 7  91763038.20645  22409462.726 5  22409464.789 5
        49.000          36.000
  24816042.517 5 130409216.410 5 101617596.99542  24816042.529 2  24816047.309 2
        39.000          21.000
  20737113.686 8 108974288.437 8  84915064.31946  20737113.636 6  20737115.564 6
        51.000          43.000
  24040843.698 6 126335472.179 6  98443236.03642  24040843.663 2  24040847.196 2
        41.000          22.000
  23341723.229 6 122661608.669 6  95580487.04643  23341722.629 3  23341724.983 3
        44.000          26.000
  20401331.097 8 107209753.945 8  83540093.66146  20401329.705 6  20401333.176 6
        52.000          42.000
 12  9 20  0  9 30.0000000  0 11G08G13G02G23G30G05G29G07G04G16G10
  22818713.770 7 119913173.503 7  93438851.24044  22818713.388 4  22818717.427 4
        46.000          31.000
  20911416.358 8 109890292.889 8  85628836.90146  20911416.113 6  20911417.553 6
        52.000          40.000
  22124732.445 7 116266278.151 7  90597113.10745  22124731.468 4  22124732.342 5
        48.000          35.000
  23466617.511 6 123317982.542 6  96091968.25243  23466617.435 3  23466617.438 3
        44.000          26.000
  24660780.683 5 129593276.753 5 100981780.14141  24660780.202 1  24660784.427 1
        36.000          17.000
  22393842.181 7 117680458.740 7  91699076.61145  22393842.386 5  22393844.865 5
        48.000          36.000
  24824265.757 6 130452411.714 6 101651255.58042  24824264.344 2  24824266.916 2
        40.000          20.000
  20730447.086 8 108939253.570 8  84887764.44046  20730446.634 6  20730448.560 6
        51.000          43.000
  24061655.792 6 126444844.193 6  98528460.94742  24061656.390 2  24061660.637 2
        40.000          22.000
  23346489.357 6 122686655.715 6  95600004.14343  23346488.892 3  23346491.710 3
        42.000          27.000
  20406913.198 8 107239089.124 8  83562952.23646  20406912.029 6  20406915.549 6
        51.000          42.000
 12  9 20  0 10  0.0000000  0 11G08G13G02G23G30G05G29G07G04G16G10
  22799921.663 7 119814418.289 7  93361899.16544  22799921.185 4  22799925.256 4
        47.000          32.000
  20923166.549 8 109952042.080 8  85676953.15446  20923166.304 5  20923167.981 6
        51.000          40.000
  22133552.642 7 116312627.967 7  90633229.81644  22133551.722 4  22133552.427 4
        48.000          34.000
  23485226.353 6 123415777.974 6  96168172.45943  23485226.356 3  23485227.386 3
        44.000          26.000
  24676497.982 4 129675873.968 4 101046141.32641  24676496.975 1  24676502.733 1
        34.000          14.000
  22378285.693 7 117598708.154 7  91635374.86445  22378286.204 5  22378288.374 5
        49.000          36.000
  24832575.639 5 130496102.400 5 101685300.33641  24832575.979 1  24832580.076 1
        39.000          19.000
  20723884.176 8 108904767.299 8  84860892.03946  20723884.070 6  20723886.078 6
        51.000          43.000
  24082491.752 6 126554340.023 6  98613782.31142  24082491.259 2  24082496.439 2
        40.000          21.000
  23351373.701 7 122712324.931 7  95620006.02943  23351373.638 3  23351376.402 3
        45.000          25.000
  20412600.089 8 107268973.989 8  83586239.13646  20412598.965 6  20412602.348 6
        53.000          42.000
 12  9 20  0 10 30.0000000  0 11G08G13G02G23G30G05G29G07G04G16G10
  22781179.399 7 119715928.530 7  93285153.94644  22781178.617 4  22781182.739 4
        46.000          32.000
  20934987.775 8 110014162.479 8  85725358.67245  20934987.492 5  20934989.184 5
        52.000          39.000
  22142476.058 7 116359523.397 7  90669771.67944  22142475.765 4  22142476.717 4
        47.000          34.000
  23503865.770 6 123513725.979 6  96244495.51743  23503865.431 3  23503865.506 3
        44.000          26.000
  24692300.003 5 129758908.991 5 101110844.08841  24692298.413 1  24692304.626 1
        36.000          14.000
  22362792.921 7 117517293.690 7  91571935.07945  22362793.398 5  22362795.734 5
        48.000          36.000
  24840983.920 5 130540286.502 5 101719729.70841  24840984.234 1  24840986.792 1
        37.000          17.000
  20717426.213 8 108870830.522 8  84834447.81846  20717426.282 6  20717428.152 6
        51.000          43.000
  24103351.399 6 126663956.828 6  98699197.96242  24103352.079 2  24103356.508 2
        41.000          21.000
  23356376.934 7 122738615.369 7  95640492.04843  23356376.567 2  23356378.653 3
        45.000          25.000
  20418391.410 8 107299408.063 8  83609953.99246  20418390.408 6  20418393.951 6
        52.000          42.000
 12  9 20  0 11  0.0000000  0 11G08G13G02G23G30G05G29G07G04G16G10
  22762488.681 7 119617706.346 7  93208617.22244  22762487.998 4  22762491.771 4
        46.000          32.000
  20946879.114 8 110076652.144 8  85774051.90346  20946878.887 5  20946880.640 6
        50.000          40.000
  22151503.606 7 116406962.832 7  90706737.44644  22151503.165 4  22151504.043 4
        48.000          34.000
  23522533.296 7 123611825.255 7  96320936.44943  23522532.949 3  23522534.119 3
        45.000          26.000
  24708185.126 5 129842377.972 5 101175884.92541  24708182.472 1  24708187.236 1
        35.000          14.000
  22347364.678 7 117436217.196 7  91508758.59745  22347364.814 5  22347366.931 5
        48.000          36.000
  24849489.268 6 130584961.965 6 101754541.79441  24849487.081 1  24849488.096 1
        40.000          18.000
  20711072.744 8 108837443.722 8  84808432.15546  20711072.817 6  20711074.793 6
        50.000          43.000
  24124233.976 6 126773691.773 6  98784705.67642  24124233.053 2  24124237.799 2
        41.000          21.000
  23361498.959 7 122765526.177 7  95661461.51043  23361498.436 3  23361499.592 3
        46.000          25.000
  20424286.894 8 107330390.284 8  83634095.96846  20424285.960 6  20424289.534 6
        52.000          42.000
 12  9 20  0 11 30.0000000  0 11G08G13G02G23G30G05G29G07G04G16G10
  22743848.862 7 119519753.802 7  93132290.61144  22743847.968 4  22743852.003 4
        45.000          32.000
  20958840.405 8 110139510.462 8  85823032.41745  20958840.392 5  20958842.077 5
        52.000          39.000
  22160634.032 7 116454944.644 7  90744125.84444  22160633.678 4  22160634.735 4
        48.000          34.000
  23541230.749 7 123710074.233 7  96397494.03843  23541229.520 3  23541230.242 3
        45.000          26.000
  24724149.224 4 129926278.611 4 101241262.13841  24724147.251 1  24724153.775 1
        34.000          14.000
  22332001.156 7 117355481.168 7  91445847.40045  22332001.116 5  22332003.670 5
        48.000          36.000
  24858082.875 5 130630127.193 5 101789735.62041  24858081.160 1  24858083.556 1
        39.000          18.000
  20704824.314 8 108804607.404 8  84782845.44046  20704824.283 6  20704826.201 6
        51.000          42.000
  24145137.234 6 126883541.843 6  98870303.06942  24145137.071 2  24145141.690 2
        41.000          20.000
  23366737.491 7 122793056.459 7  95682913.74343  23366736.817 3  23366738.581 3
        45.000          26.000
  20430287.119 8 107361920.171 8  83658664.70846  20430285.915 6  20430289.444 6
        52.000          42.000
 12  9 20  0 12  0.0000000  0 11G08G13G02G23G30G05G29G07G04G16G10
  22725260.873 7 119422072.833 7  93056175.61944  22725259.989 4  22725263.538 4
        47.000          32.000
  20970872.077 8 110202735.616 8  85872298.77345  20970872.027 5  20970873.555 5
        52.000          39.000
  22169867.475 7 116503466.683 7  90781935.20044  22169867.120 4  22169868.307 4
        48.000          34.000
  23559954.195 6 123808471.632 6  96474167.26243  23559953.947 3  23559954.859 3
        44.000          25.000
  24740194.927 4 130010607.653 4 101306973.34241  24740193.483 1  24740201.204 1
        33.000          14.000
  22316702.495 7 117275087.634 7  91383203.07345  22316702.991 5  22316705.134 5
        48.000          36.000
  24866766.183 5 130675779.601 5 101825308.80341  24866767.197 1  24866772.206 1
        38.000          19.000
  20698680.616 8 108772322.366 8  84757688.30346  20698680.566 6  20698682.678 6
        52.000          42.000
  24166063.074 6 126993504.193 6  98955987.99242  24166062.870 2  24166068.170 2
        40.000          20.000
  23372093.328 7 122821205.186 7  95704847.82043  23372092.682 3  23372094.373 3
        46.000          25.000
  20436391.004 8 107393997.094 8  83683659.70246  20436389.983 6  20436393.523 6
        51.000          42.000
 12  9 20  0 12 30.0000000  0 11G08G13G02G23G30G05G29G07G04G16G10
  22706724.433 7 119324665.478 7  92980273.82844  22706723.922 4  22706727.883 4
        47.000          32.000
  20982972.356 8 110266326.284 8  85921849.93745  20982972.509 5  20982974.401 5
        50.000          39.000
  22179203.540 7 116552527.187 7  90820164.14344  22179202.861 4  22179203.682 4
        46.000          34.000
  23578707.680 6 123907016.359 6  96550955.30443  23578706.590 3  23578707.566 3
        44.000          26.000
  24756324.287 4 130095362.545 4 101373016.19741  24756323.035 1  24756329.385 1
        34.000          16.000
  22301469.814 7 117195038.920 7  91320827.50245  22301469.990 5  22301472.315 5
        49.000          36.000
  24875549.410 5 130721917.937 5 101861260.60642  24875548.419 1  24875552.546 2
        39.000          20.000
  20692641.550 8 108740589.485 8  84732961.40646  20692641.865 6  20692644.015 6
        51.000          43.000
  24187008.439 5 127103576.262 5  99041758.36742  24187008.578 2  24187013.399 2
        39.000          20.000
  23377567.308 6 122849971.446 6  95727263.11643  23377567.122 3  23377568.861 3
        44.000          25.000
  20442599.677 8 107426620.667 8  83709080.65946  20442598.115 6  20442601.548 6
        52.000          42.000
 12  9 20  0 13  0.0000000  0 11G08G13G02G23G30G05G29G07G04G16G10
  22688241.912 7 119227533.959 7  92904586.97544  22688240.560 4  22688244.210 4
        47.000          32.000
  20995143.094 8 110330281.011 8  85971684.78745  20995142.947 5  20995144.477 5
        51.000          39.000
  22188641.135 7 116602124.285 7  90858811.20044  22188641.195 4  22188641.860 4
        47.000          34.000
  23597488.235 7 124005707.158 7  96627857.16843  23597487.310 3  23597487.872 3
        45.000          26.000
  24772533.098 5 130180540.128 5 101439388.43341  24772532.875 1  24772535.844 1
        36.000          17.000
  22286303.412 7 117115337.026 7  91258722.17045  22286303.699 5  22286305.515 5
        49.000          36.000
  24884421.763 5 130768540.155 5 101897589.56841  24884420.600 1  24884424.134 1
        39.000          18.000
  20686708.613 8 108709409.237 8  84708665.12846  20686708.549 6  20686710.638 6
        52.000          43.000
  24207974.401 5 127213755.229 5  99127612.04942  24207973.851 2  24207979.166 2
        39.000          20.000
  23383158.545 6 122879353.948 6  95750158.61843  23383158.325 3  23383161.892 3
        43.000          25.000
  20448911.166 8 107459789.990 8  83734926.87146  20448910.008 6  20448913.513 6
        52.000          43.000
 12  9 20  0 13 30.0000000  0 11G08G13G02G23G30G05G29G07G04G16G10
  22669811.049 7 119130679.999 7  92829116.39544  22669809.968 4  22669813.384 4
        47.000          32.000
  21007382.011 8 110394598.466 8  86021802.28845  21007382.055 5  21007383.998 5
        51.000          39.000
  22198181.897 7 116652255.930 7  90897874.80244  22198180.772 4  22198181.561 4
        48.000          33.000
  23616295.501 6 124104542.715 6  96704871.81143  23616294.997 3  23616295.423 3
        44.000          26.000
  24788822.511 5 130266136.690 5 101506086.71641  24788823.058 1  24788825.046 1
        36.000          16.000
  22271203.351 7 117035984.269 7  91196888.85745  22271203.196 5  22271205.388 5
        49.000          37.000
  24893382.456 5 130815644.141 5 101934293.91641  24893384.136 1  24893387.045 1
        37.000          17.000
  20680880.456 8 108678782.011 8  84684799.78046  20680880.410 6  20680882.400 6
        50.000          43.000
  24228961.385 6 127324037.909 6  99213546.57742  24228961.169 2  24228965.922 2
        41.000          20.000
  23388867.574 6 122909351.603 6  95773533.40543  23388866.966 3  23388869.446 3
        44.000          25.000
  20455326.939 8 107493504.446 8  83761197.86446  20455325.686 6  20455329.142 6
        51.000          42.000
 12  9 20  0 14  0.0000000  0 11G08G13G02G23G30G05G29G07G04G16G10
  22651433.238 7 119034105.661 7  92753863.68944  22651432.219 4  22651436.207 4
        47.000          32.000
  21019690.637 8 110459277.199 8  86072201.30345  21019690.367 5  21019691.952 5
        52.000          39.000
  22207822.390 7 116702920.242 7  90937353.45444  22207821.959 4  22207822.474 4
        47.000          33.000
  23635129.771 6 124203521.354 6  96781997.95943  23635129.679 3  23635130.121 3
        43.000          25.000
  24805191.185 5 130352152.261 5 101573112.15841  24805190.412 1  24805192.193 1
        37.000          18.000
  22256169.771 7 116956982.786 7  91135329.21045  22256169.605 5  22256171.674 5
        48.000          36.000
  24902439.510 5 130863228.310 5 101971372.54241  24902439.645 1  24902441.363 1
        39.000          16.000
  20675157.723 8 108648708.749 8  84661366.08346  20675157.646 6  20675159.639 6
        52.000          43.000
  24249966.545 6 127434421.548 6  99299559.73142  24249966.464 2  24249971.664 2
        41.000          20.000
  23394692.051 6 122939963.765 6  95797387.05843  23394691.384 3  23394694.450 3
        44.000          25.000
  20461846.313 8 107527763.246 8  83787893.02646  20461845.044 6  20461848.411 6
        53.000          42.000
 12  9 20  0 14 30.0000000  0 11G08G13G02G23G30G05G29G07G04G16G10
  22633109.162 7 118937813.202 7  92678830.64544  22633108.159 4  22633111.923 4
        48.000          32.000
  21032066.306 8 110524315.694 8  86122880.64945  21032066.565 5  21032068.211 5
        51.000          39.000
  22217564.459 7 116754115.323 7  90977245.68744  22217564.098 4  22217564.635 4
        47.000          33.000
  23653991.736 6 124302642.032 6  96859234.80242  23653991.665 2  23653991.623 2
        43.000          24.000
  24821636.979 5 130438581.244 5 101640459.40241  24821636.122 1  24821639.691 1
        35.000          15.000
  22241203.777 7 116878335.196 7  91074045.47445  22241203.509 5  22241205.549 5
        48.000          37.000
  24911585.436 6 130911290.206 6 102008823.29441  24911584.322 1  24911589.015 1
        40.000          18.000
  20669540.225 8 108619189.808 8  84638364.32846  20669540.336 6  20669542.251 6
        50.000          43.000
  24270991.014 6 127544903.604 6  99385649.62442  24270990.943 2  24270994.582 2
        40.000          20.000
  23400634.559 6 122971188.933 6  95821718.30243  23400634.097 3  23400636.190 3
        44.000          25.000
  20468468.664 8 107562565.785 8  83815011.88146  20468467.665 6  20468471.078 6
        51.000          42.000
 12  9 20  0 15  0.0000000  0 11G08G13G02G23G30G05G29G07G04G16G10
  22614839.186 7 118841804.414 7  92604018.62944  22614838.442 4  22614841.928 4
        47.000          32.000
  21044511.852 8 110589712.885 8  86173839.49045  21044511.367 5  21044513.028 5
        52.000          39.000
  22227407.163 7 116805838.975 7  91017549.80444  22227406.599 4  22227407.513 4
        47.000          33.000
  23672881.590 6 124401903.601 6  96936581.44442  23672881.089 2  23672881.658 2
        44.000          24.000
  24838162.995 5 130525421.616 5 101708127.19441  24838161.679 1  24838164.319 1
        36.000          13.000
  22226305.178 7 116800043.209 7  91013038.71045  22226305.257 5  22226307.087 5
        49.000          37.000
  24920819.265 5 130959827.921 5 102046644.91541  24920820.151 1  24920825.034 1
        38.000          17.000
  20664028.407 8 108590225.799 8  84615794.99046  20664028.680 6  20664030.469 6
        51.000          43.000
  24292034.064 6 127655481.102 6  99471813.86141  24292033.132 1  24292037.654 1
        41.000          19.000
  23406692.433 6 123003026.101 6  95846526.48842  23406692.735 2  23406693.083 2
        43.000          24.000
  20475194.851 8 107597911.261 8  83842553.79946  20475193.751 6  20475197.185 6
        52.000          42.000
 12  9 20  0 15 30.0000000  0 12G08G13G02G23G30G05G26G29G07G04G16G10
  22596623.281 7 118746081.265 7  92529429.18044  22596623.032 4  22596626.522 4
        47.000          32.000
  21057024.019 8 110655467.195 8  86225076.60645  21057023.861 5  21057025.326 5
        51.000          39.000
  22237350.477 7 116858089.264 7  91058264.28244  22237349.976 4  22237350.688 4
        47.000          33.000
  23691796.253 6 124501304.845 6  97014036.89442  23691796.247 2  23691796.892 2
        42.000          23.000
  24854764.981 5 130612670.042 5 101776112.47341  24854764.786 1  24854768.655 1
        35.000          11.000
  22211474.829 7 116722108.975 7  90952310.74345  22211474.680 5  22211476.698 5
        49.000          37.000
  24974378.089 5 131241244.654 5
        35.000
  24930146.058 5 131008839.444 5 102084835.71941  24930147.271 1  24930149.736 1
        38.000          17.000
  20658622.798 8 108561816.915 8  84593658.21046  20658622.622 6  20658624.563 6
        52.000          42.000
  24313092.665 6 127766151.127 6  99558050.20442  24313093.249 1  24313097.893 2
        40.000          20.000
  23412867.254 6 123035473.952 6  95871810.48442  23412867.214 2  23412868.872 2
        42.000          24.000
  20482023.869 8 107633798.807 8  83870518.10946  20482022.784 6  20482026.509 6
        52.000          42.000
 12  9 20  0 16  0.0000000  0 12G08G13G02G23G30G05G26G29G07G04G16G10
  22578462.517 7 118650645.921 7  92455064.01744  22578461.807 4  22578466.149 4
        47.000          33.000
  21069604.357 8 110721577.446 8  86276591.08745  21069604.175 5  21069605.800 5
        52.000          39.000
  22247393.335 7 116910864.250 7  91099387.60844  22247392.346 4  22247393.350 4
        46.000          33.000
  23710737.983 6 124600844.402 6  97091600.13942  23710738.011 2  23710738.773 2
        41.000          23.000
  24871446.601 5 130700324.552 5 101844414.57541  24871444.880 1  24871451.645 1
        38.000          12.000
  22196712.466 7 116644534.993 7  90891863.50145  22196712.748 5  22196714.752 5
        49.000          37.000
  24951473.906 5 131120877.786 5
        37.000
  24939565.116 5 131058322.763 5 102123394.04441  24939563.074 1  24939567.313 1
        39.000          16.000
  20653322.157 8 108533963.847 8  84571954.54246  20653322.366 6  20653324.106 6
        51.000          43.000
  24334170.336 5 127876910.917 5  99644356.50741  24334169.912 1  24334173.817 1
        39.000          19.000
  23419157.790 6 123068531.237 6  95897569.25442  23419157.009 2  23419159.397 2
        42.000          24.000
  20488956.239 8 107670227.965 8  83898904.44646  20488955.169 6  20488958.495 6
        51.000          42.000
 12  9 20  0 16 30.0000000  0 12G08G13G02G23G30G05G26G29G07G04G16G10
  22560356.630 7 118555500.291 7  92380924.59744  22560356.211 4  22560360.229 4
        47.000          33.000
  21082251.671 8 110788041.790 8  86328381.49045  21082251.897 5  21082253.445 5
        51.000          38.000
  22257535.374 7 116964161.764 7  91140918.11044  22257534.624 4  22257535.995 4
        48.000          33.000
  23729705.436 6 124700520.970 6  97169270.14842  23729705.319 2  23729706.165 2
        41.000          22.000
  24888203.042 5 130788381.923 5 101913030.44541  24888201.357 1  24888209.172 1
        37.000          13.000
  22182019.770 7 116567323.240 7  90831698.44645  22182019.779 5  22182021.909 5
        49.000          37.000
  24928579.438 5 131000564.522 5 102078375.21941  24928575.970 1  24928581.690 1
        37.000          14.000
  24949067.378 5 131108275.713 5 102162318.28741  24949068.605 1  24949072.913 1
        36.000          16.000
  20648128.045 8 108506667.099 8  84550684.36846  20648127.933 6  20648129.661 6
        52.000          43.000
  24355263.641 6 127987757.640 6  99730730.51541  24355263.696 1  24355267.944 1
        40.000          19.000
  23425564.146 6 123102197.714 6  95923802.89643  23425562.800 3  23425566.011 3
        43.000          25.000
  20495991.045 8 107707197.794 8  83927712.10146  20495990.228 6  20495993.756 6
        51.000          42.000
 12  9 20  0 17  0.0000000  0 12G08G13G02G23G30G05G26G29G07G04G16G10
  22542306.474 7 118460646.137 7  92307012.29744  22542306.078 4  22542310.317 4
        47.000          33.000
  21094967.299 8 110854858.758 8  86380446.65045  21094966.708 5  21094968.160 5
        51.000          39.000
  22267776.675 7 117017979.935 7  91182854.31444  22267775.906 4  22267777.096 4
        47.000          34.000
  23748699.609 6 124800333.122 6  97247045.77842  23748699.689 2  23748700.053 2
        41.000          23.000
  24905035.095 5 130876838.837 5 101981957.47341  24905035.410 1  24905037.819 1
        38.000          11.000
  22167396.520 7 116490476.216 7  90771817.69545  22167396.386 5  22167398.551 5
        48.000          37.000
  24905693.652 5 130880306.353 5 101984667.59941  24905693.725 1  24905698.032 1
        36.000          13.000
  24958663.019 5 131158696.315 5 102201607.01741  24958664.504 1  24958668.893 1
        36.000          15.000
  20643039.749 8 108479927.720 8  84529848.50246  20643039.760 6  20643041.431 6
        51.000          43.000
  24376372.124 5 128098688.467 5  99817170.08541  24376371.693 1  24376377.365 1
        39.000          18.000
  23432086.746 6 123136471.324 6  95950509.54743  23432086.007 3  23432088.720 3
        44.000          26.000
  20503128.987 8 107744707.449 8  83956940.38346  20503128.061 6  20503131.535 6
        52.000          42.000
 12  9 20  0 17 30.0000000  0 12G08G13G02G23G30G05G26G29G07G04G16G10
  22524312.383 7 118366085.674 7  92233328.83644  22524311.998 4  22524315.826 4
        47.000          33.000
  21107748.565 8 110922027.384 8  86432785.85545  21107748.445 5  21107750.209 5
        51.000          39.000
  22278116.306 7 117072316.612 7  91225194.56044  22278115.804 4  22278117.434 4
        46.000          33.000
  23767720.294 6 124900279.989 6  97324926.38542  23767717.810 2  23767719.100 2
        41.000          21.000
  24921945.012 5 130965693.527 5 102051194.88341  24921944.137 1  24921948.086 1
        39.000          15.000
  22152842.892 8 116413996.016 8  90712222.78145  22152842.756 5  22152844.549 5
        50.000          37.000
  24882820.409 5 130760104.702 5 101891004.05341  24882820.262 1  24882824.342 1
        36.000          14.000
  24968349.928 5 131209582.354 5 102241258.57041  24968346.623 1  24968352.601 1
        37.000          13.000
  20638057.638 8 108453745.578 8  84509446.85646  20638057.509 6  20638059.090 6
        51.000          43.000
  24397498.177 6 128209700.736 6  99903673.10241  24397498.086 1  24397501.902 1
        40.000          18.000
  23438723.947 6 123171351.214 6  95977688.64843  23438723.789 3  23438725.995 3
        43.000          27.000
  20510369.509 8 107782756.238 8  83986588.78146  20510368.623 6  20510371.975 6
        52.000          42.000
 12  9 20  0 18  0.0000000  0 12G08G13G02G23G30G05G26G29G07G04G16G10
  22506374.754 7 118271820.723 7  92159875.64944  22506373.580 4  22506377.851 4
        47.000          33.000
  21120596.449 8 110989546.068 8  86485397.80745  21120596.589 5  21120598.655 5
        51.000          39.000
  22288553.939 7 117127169.618 7  91267937.13244  22288554.090 4  22288555.156 4
        47.000          33.000
  23786763.290 6 125000360.040 6  97402910.79742  23786762.648 2  23786764.253 2
        42.000          21.000
  24938928.806 6 131054942.845 6 102120739.91941  24938926.963 1  24938933.224 1
        40.000          16.000
  22138358.779 7 116337884.327 7  90652914.87445  22138359.037 5  22138361.315 5
        48.000          37.000
  24859957.474 5 130639961.042 5 101797385.67441  24859958.327 1  24859961.886 1
        37.000          15.000
  24978120.472 5 131260931.751 5 102281271.14741  24978120.972 1  24978121.172 1
        36.000          11.000
  20633181.485 8 108428121.279 8  84489479.88446  20633181.229 6  20633183.157 6
        52.000          43.000
  24418639.512 6 128320791.649 6  99990237.41841  24418638.330 1  24418641.100 1
        41.000          18.000
  23445476.236 7 123206835.931 7  96005339.12043  23445476.173 3  23445478.835 3
        45.000          27.000
  20517712.431 8 107821343.145 8  84016656.48946  20517711.428 6  20517714.808 6
        52.000          42.000
 12  9 20  0 18 30.0000000  0 12G08G13G02G23G30G05G26G29G07G04G16G10
  22488493.342 7 118177853.441 7  92086654.41144  22488492.654 4  22488496.346 4
        48.000          34.000
  21133511.826 8 111057413.280 8  86538281.35545  21133511.550 5  21133513.388 5
        51.000          38.000
  22299090.747 7 117182536.943 7  91311080.48144  22299090.073 4  22299091.625 4
        48.000          33.000
  23805833.105 6 125100571.977 6  97480997.97342  23805831.830 2  23805832.841 2
        40.000          21.000
  24955986.259 5 131144583.802 5 102190590.28741  24955984.720 1  24955989.588 1
        39.000          15.000
  22123945.698 7 116262144.084 7  90593896.57345  22123945.949 5  22123948.238 5
        49.000          37.000
  24837106.286 5 130519876.813 5 101703813.66241  24837105.853 1  24837110.023 1
        36.000          13.000
  24987975.768 5 131312742.154 5 102321642.78941  24987978.928 1  24987983.010 1
        35.000          11.000
  20628411.418 8 108403054.958 8  84469947.70346  20628411.132 6  20628412.918 6
        52.000          43.000
  24439791.546 5 128431958.181 5 100076860.65941  24439792.815 1  24439795.172 1
        39.000          17.000
  23452343.974 6 123242923.802 6  96033459.50043  23452343.238 3  23452345.487 3
        44.000          26.000
  20525157.843 8 107860467.416 8  84047142.93046  20525156.508 6  20525160.085 6
        51.000          42.000
 12  9 20  0 19  0.0000000  0 12G08G13G02G23G30G05G26G29G07G04G16G10
  22470668.745 7 118084186.037 7  92013666.83944  22470668.402 4  22470672.398 4
        49.000          34.000
  21146492.509 8 111125627.626 8  86591435.39445  21146492.395 5  21146494.362 5
        50.000          39.000
  22309724.021 7 117238416.179 7  91354622.70444  22309723.942 4  22309724.388 4
        46.000          33.000
  23824928.415 6 125200914.679 6  97559187.04142  23824928.681 2  23824928.641 2
        42.000          21.000
  24973117.411 6 131234613.041 6 102260743.23341  24973116.874 1  24973120.324 1
        41.000          14.000
  22109604.027 7 116186777.117 7  90535169.08245  22109604.169 5  22109606.336 5
        49.000          38.000
  24814266.436 5 130399853.436 5 101610288.97141  24814265.260 1  24814269.195 1
        38.000          15.000
  24997924.475 4 131365011.851 4 102362372.34841  24997925.531 1  24997928.264 1
        34.000          11.000
  20623747.327 8 108378546.912 8  84450850.53846  20623747.474 6  20623749.304 6
        52.000          43.000
  24460960.565 6 128543197.698 6 100163540.78541  24460961.428 1  24460964.240 1
        40.000          16.000
  23459326.483 6 123279614.219 6  96062049.52143  23459325.933 3  23459328.166 3
        43.000          26.000
  20532704.594 8 107900128.250 8  84078047.45746  20532703.685 6  20532707.297 6
        51.000          42.000
 12  9 20  0 19 30.0000000  0 12G08G13G02G23G30G05G26G29G07G04G16G10
  22452902.212 7 117990820.221 7  91940914.27544  22452901.367 4  22452905.511 4
        48.000          34.000
  21159538.895 8 111194187.758 8  86644858.86845  21159538.815 5  21159540.837 5
        51.000          39.000
  22320454.898 7 117294805.504 7  91398562.40244  22320454.538 4  22320455.207 4
        46.000          33.000
  23844047.906 6 125301387.099 6  97637477.17642  23844047.273 2  23844048.077 2
        41.000          21.000
  24990321.982 5 131325027.573 5 102331196.18741  24990321.832 1  24990327.532 1
        38.000          15.000
  22095333.786 7 116111785.748 7  90476734.27745  22095334.034 5  22095335.667 5
        49.000          37.000
  24791437.022 5 130279892.416 5 101516812.95741  24791436.796 1  24791441.686 1
        37.000          14.000
  25007961.724 5 131417739.111 5 102403458.50341  25007956.783 1  25007961.451 1
        36.000          12.000
  20619190.143 8 108354598.356 8  84432189.34246  20619190.223 6  20619192.027 6
        52.000          43.000
  24482140.394 5 128654507.565 5 100250275.69341  24482141.554 1  24482145.209 1
        39.000          17.000
  23466422.814 7 123316905.187 7  96091107.28443  23466422.004 3  23466424.239 3
        45.000          26.000
  20540353.875 8 107940324.655 8  84109369.32546  20540352.765 6  20540356.366 6
        51.000          42.000
 12  9 20  0 20  0.0000000  0 12G08G13G02G23G30G05G26G29G07G04G16G10
  22435193.046 7 117897757.810 7  91868398.15744  22435192.179 4  22435196.059 4
        49.000          34.000
  21172651.131 8 111263092.176 8  86698550.62445  21172651.110 5  21172652.690 5
        50.000          39.000
  22331281.612 7 117351702.606 7  91442897.77044  22331281.697 4  22331282.525 4
        46.000          33.000
  23863190.251 6 125401987.500 6  97715867.04642  23863190.189 2  23863190.813 2
        40.000          20.000
  25007600.747 6 131415824.166 6 102401946.70841  25007600.353 1  25007603.773 1
        40.000          16.000
  22081135.232 7 116037171.831 7  90418593.57145  22081135.455 5  22081137.483 5
        49.000          38.000
  24768623.134 5 130159995.296 5 101423386.72141  24768621.851 1  24768626.077 1
        37.000          15.000
  25018079.734 5 131470920.759 5 102444898.69541  25018078.664 1  25018082.916 1
        35.000          10.000
  20614739.305 8 108331208.969 8  84413963.85946  20614739.452 6  20614741.171 6
        50.000          43.000
  24503337.411 6 128765884.636 6 100337062.99641  24503337.113 1  24503340.941 1
        40.000          15.000
  23473632.743 6 123354795.877 6  96120632.46343  23473631.767 3  23473634.283 3
        44.000          26.000
  20548104.941 8 107981055.379 8  84141107.53946  20548103.661 6  20548107.144 6
        52.000          42.000
 12  9 20  0 20 30.0000000  0 12G08G13G02G23G30G05G26G29G07G04G16G10
  22417541.855 7 117805000.965 7  91796120.12544  22417541.020 4  22417545.248 4
        48.000          34.000
  21185828.129 8 111332339.544 8  86752509.62045  21185828.226 5  21185830.088 5
        50.000          38.000
  22342205.178 7 117409105.310 7  91487627.11544  22342204.686 4  22342205.831 4
        47.000          33.000
  23882359.326 6 125502714.800 6  97794355.79942  23882357.883 2  23882357.761 2
        41.000          21.000
  25024950.767 5 131507001.096 5 102472993.96241  25024949.574 1  25024954.328 1
        38.000          16.000
  22067008.814 7 115962937.767 7  90360748.90845  22067009.006 5  22067010.787 5
        49.000          38.000
  24745818.644 5 130040163.402 5 101330011.23241  24745819.270 1  24745824.457 1
        35.000          12.000
  25028282.530 5 131524554.771 5 102486691.35241  25028285.292 1  25028289.839 1
        35.000          11.000
  20610395.156 7 108308379.108 7  84396174.37046  20610394.976 6  20610396.743 6
        49.000          43.000
  24524543.394 5 128877326.537 5 100423900.79141  24524542.806 1  24524546.479 1
        39.000          16.000
  23480956.796 7 123393285.023 7  96150624.11243  23480956.552 3  23480958.473 3
        45.000          26.000
  20555957.430 8 108022320.033 8  84173261.80046  20555955.988 6  20555959.656 6
        51.000          42.000
 12  9 20  0 21  0.0000000  0 12G08G13G02G23G30G05G26G29G07G04G16G10
  22399948.777 7 117712551.515 7  91724081.61444  22399948.309 4  22399952.241 4
        48.000          34.000
  21199070.982 8 111401928.470 8  86806734.74845  21199070.735 5  21199072.337 5
        50.000          38.000
  22353224.574 7 117467011.397 7  91532748.70944  22353223.927 4  22353224.676 4
        47.000          33.000
  23901551.675 6 125603567.833 6  97872942.52942  23901550.890 2  23901550.474 2
        42.000          21.000
  25042372.464 5 131598553.613 5 102544333.30741  25042370.978 1  25042376.369 1
        37.000          13.000
  22052955.175 7 115889085.694 7  90303201.88545  22052955.502 5  22052957.177 5
        49.000          38.000
  24723028.074 5 129920398.391 5 101236687.93741  24723028.738 1  24723030.770 1
        37.000          15.000
  25038578.679 4 131578639.416 4 102528835.24541  25038578.434 1  25038579.391 1
        34.000          11.000
  20606157.129 8 108286109.161 8  84378821.18046  20606157.041 6  20606158.936 6
        51.000          43.000
  24545760.864 5 128988830.236 5 100510786.74541  24545760.882 1  24545765.114 1
        38.000          16.000
  23488394.682 7 123432370.940 7  96181080.80143  23488394.117 3  23488396.915 3
        45.000          27.000
  20563911.036 8 108064117.488 8  84205831.22346  20563909.757 6  20563913.383 6
        52.000          42.000
 12  9 20  0 21 30.0000000  0 12G08G13G02G23G30G05G26G29G07G04G16G10
  22382415.274 7 117620411.513 7  91652284.22944  22382414.616 4  22382418.237 4
        48.000          34.000
  21212378.360 8 111471857.575 8  86861224.96745  21212377.910 5  21212379.577 5
        51.000          38.000
  22364339.371 7 117525418.473 7  91578260.66944  22364338.716 4  22364339.246 4
        48.000          32.000
  23920766.728 6 125704545.348 6  97951626.29442  23920765.044 2  23920766.483 2
        42.000          21.000
  25059867.206 5 131690478.972 5 102615962.84441  25059864.923 1  25059867.750 1
        38.000          12.000
  22038974.300 7 115815617.785 7  90245954.15245  22038974.563 5  22038976.933 5
        49.000          37.000
  24700250.658 5 129800701.552 5 101143417.73441  24700249.783 1  24700255.652 1
        36.000          14.000
  25048957.020 5 131633172.295 5 102571328.36841  25048957.898 1  25048954.756 1
        35.000           9.000
  20602025.973 8 108264399.131 8  84361904.28146  20602025.808 6  20602027.555 6
        51.000          43.000
  24566990.167 5 129100393.039 5 100597718.76341  24566990.745 1  24566995.845 1
        38.000          16.000
  23495945.193 6 123472051.813 6  96212000.96143  23495945.002 3  23495947.466 3
        43.000          26.000
  20571966.049 8 108106446.937 8  84238815.19646  20571964.886 6  20571968.238 6
        52.000          41.000
 12  9 20  0 22  0.0000000  0 12G08G13G02G23G30G05G26G29G07G04G16G10
  22364941.147 7 117528582.891 7  91580729.49244  22364940.515 4  22364943.802 4
        49.000          34.000
  21225748.795 8 111542125.326 8  86915979.04845  21225748.960 5  21225750.812 5
        50.000          38.000
  22375547.574 7 117584324.637 7  91624161.54144  22375548.230 4  22375549.376 4
        47.000          33.000
  23940004.787 6 125805645.951 6  98030405.95942  23940004.945 2  23940005.540 2
        41.000          21.000
  25077429.115 5 131782776.105 5 102687882.27041  25077429.076 1  25077431.792 1
        38.000          13.000
  22025067.668 8 115742536.538 8  90189007.74745  22025067.917 5  22025069.895 5
        50.000          38.000
  24677486.706 5 129681074.505 5 101050201.96041  24677486.263 1  24677490.713 1
        39.000          15.000
  25059414.403 4 131688151.175 4 102614169.10841  25059416.762 1  25059424.671 1
        34.000           7.000
  20598001.146 8 108243249.896 8  84345424.36946  20598001.159 6  20598003.036 6
        52.000          44.000
  24588231.841 5 129212012.084 5 100684694.61241  24588231.918 1  24588234.326 1
        39.000          16.000
  23503608.884 6 123512326.681 6  96243383.98343  23503608.097 3  23503610.636 3
        42.000          25.000
  20580122.042 8 108149307.247 8  84272212.82546  20580120.912 6  20580124.377 6
        51.000          42.000
 12  9 20  0 22 30.0000000  0 11G08G13G02G23G05G26G29G07G04G16G10
  22347526.106 7 117437067.467 7  91509418.79845  22347525.648 5  22347529.175 5
        48.000          35.000
  21239185.229 8 111612730.287 8  86970995.89745  21239185.125 5  21239186.400 5
        51.000          38.000
  22386852.697 7 117643727.630 7  91670449.54544  22386852.021 4  22386852.936 4
        47.000          32.000
  23959268.244 6 125906868.611 6  98109280.71342  23959267.240 2  23959267.232 2
        42.000          21.000
  22011235.196 7 115669843.241 7  90132363.57045  22011235.042 5  22011236.862 5
        49.000          38.000
  24654735.887 5 129561518.652 5 100957041.64141  24654736.674 1  24654737.963 1
        38.000          16.000
  25069962.599 4 131743573.647 4 102657355.44341  25069962.353 1  25069970.175 1
        31.000           5.000
  20594083.381 8 108222661.625 8  84329381.57846  20594083.372 6  20594085.287 6
        51.000          43.000
  24609481.166 5 129323684.684 5 100771712.20741  24609482.590 1  24609484.532 1
        37.000          15.000
  23511385.924 6 123553194.038 6  96275228.71643  23511384.919 3  23511388.991 3
        42.000          25.000
  20588378.973 8 108192697.787 8  84306023.62346  20588377.946 6  20588381.398 6
        52.000          41.000
 12  9 20  0 23  0.0000000  0 11G08G13G02G23G05G26G29G07G04G16G10
  22330171.523 7 117345867.237 7  91438353.70445  22330170.723 5  22330174.190 5
        49.000          35.000
  21252684.911 8 111683671.149 8  87026274.49845  21252684.651 5  21252686.214 5
        50.000          38.000
  22398250.836 7 117703624.859 7  91717122.66844  22398250.435 4  22398251.435 4
        46.000          33.000
  23978552.573 6 126008212.124 6  98188249.63942  23978550.899 2  23978553.365 2
        42.000          22.000
  21997476.298 8 115597540.697 8  90076023.90245  21997476.590 5  21997478.252 5
        50.000          38.000
  24631999.206 5 129442035.504 5 100863937.88241  24631997.706 1  24632003.215 1
        38.000          13.000
  25080595.633 4 131799437.657 4 102700885.81341  25080592.099 1  25080597.827 1
        31.000           5.000
  20590272.601 8 108202634.314 8  84313775.89446  20590272.274 6  20590274.071 6
        52.000          43.000
  24630742.864 5 129435408.136 5 100858769.41241  24630742.432 1  24630745.791 1
        39.000          15.000
  23519275.159 6 123594652.151 6  96307533.68043  23519275.419 3  23519277.591 3
        44.000          25.000
  20596736.235 8 108236617.385 8  84340246.66846  20596735.444 6  20596739.074 6
        51.000          42.000
 12  9 20  0 23 30.0000000  0 11G08G13G02G23G05G26G29G07G04G16G10
  22312876.733 7 117254984.144 7  91367535.72645  22312876.206 5  22312879.792 5
        48.000          35.000
  21266247.901 8 111754946.535 8  87081813.75645  21266247.700 5  21266249.313 5
        50.000          37.000
  22409742.746 7 117764014.358 7  91764179.38144  22409742.131 4  22409742.895 4
        47.000          33.000
  23997860.218 6 126109674.980 6  98267311.54942  23997859.917 2  23997860.430 2
        42.000          21.000
  21983792.232 7 115525631.047 7  90019990.37445  21983792.431 5  21983794.323 5
        49.000          38.000
  24609276.175 5 129322626.583 5 100770892.11541  24609277.174 1  24609280.172 1
        37.000          13.000
  25091307.816 4 131855740.784 4 102744758.31941  25091305.565 1  25091312.345 1
        31.000           2.000
  20586567.751 8 108183168.211 8  84298607.51446  20586568.011 6  20586569.870 6
        50.000          43.000
  24652011.886 5 129547179.720 5 100945864.12241  24652013.012 1  24652015.683 1
        38.000          15.000
  23527277.054 6 123636699.993 6  96340298.26542  23527276.750 2  23527278.198 2
        43.000          24.000
  20605194.707 8 108281064.913 8  84374881.09546  20605193.564 6  20605197.016 6
        51.000          41.000
 12  9 20  0 24  0.0000000  0 11G08G13G02G23G05G26G29G07G04G16G10
  22295642.824 7 117164419.825 7  91296966.13145  22295642.306 5  22295645.949 5
        48.000          35.000
  21279874.826 8 111826554.441 8  87137612.11845  21279874.369 5  21279875.984 5
        50.000          38.000
  22421327.893 7 117824893.715 7  91811617.80744  22421327.363 4  22421328.377 4
        46.000          33.000
  24017190.144 6 126211256.056 6  98346465.55942  24017189.396 2  24017191.270 2
        41.000          21.000
  21970183.883 8 115454116.501 8  89964264.78945  21970183.642 5  21970185.416 5
        50.000          39.000
  24586568.511 5 129203293.329 5 100677905.23741  24586568.036 1  24586571.624 1
        39.000          15.000
  25102103.846 4 131912481.301 4 102788971.58341  25102106.210 1  25102107.368 1
        31.000           6.000
  20582970.541 8 108164263.685 8  84283876.72446  20582970.489 6  20582972.460 6
        52.000          43.000
  24673289.770 5 129658996.498 5 101032994.06541  24673290.086 1  24673292.734 1
        37.000          16.000
  23535389.857 6 123679335.622 6  96373520.86943  23535389.880 3  23535391.484 3
        42.000          25.000
  20613753.389 8 108326039.373 8  84409926.10846  20613752.125 6  20613755.542 6
        51.000          41.000
 12  9 20  0 24 30.0000000  0 11G08G13G02G23G05G26G29G07G04G16G10
  22278469.787 7 117074176.446 7  91226646.61745  22278469.681 5  22278473.201 5
        48.000          35.000
  21293563.775 8 111898494.145 8  87193669.03045  21293563.821 5  21293565.779 5
        50.000          38.000
  22433005.606 7 117886260.611 7  91859436.17644  22433005.221 4  22433005.829 4
        46.000          33.000
  24036543.304 6 126312954.144 6  98425710.75842  24036542.240 2  24036543.403 2
        42.000          21.000
  21956649.960 7 115382999.203 7  89908848.74245  21956650.535 5  21956652.432 5
        49.000          39.000
  24563873.734 5 129084037.362 5 100584978.56541  24563875.093 1  24563878.425 1
        38.000          15.000
  25112981.550 4 131969655.858 4 102833523.03741  25112982.146 1  25112988.851 1
        31.000           6.000
  20579479.914 8 108145920.677 8  84269583.48146  20579479.942 6  20579481.903 6
        51.000          43.000
  24694576.903 5 129770855.737 5 101120157.07941  24694576.754 1  24694580.242 1
        38.000          15.000
  23543615.997 6 123722557.524 6  96407200.24442  23543614.727 3  23543617.281 2
        44.000          24.000
  20622411.777 8 108371539.807 8  84445380.97546  20622410.551 6  20622413.873 6
        52.000          41.000
 12  9 20  0 25  0.0000000  0 11G08G13G02G23G05G26G29G07G04G16G10
  22261359.209 7 116984255.872 7  91156578.64545  22261358.270 5  22261362.288 5
        49.000          35.000
  21307316.407 8 111970763.958 8  87249983.16445  21307316.342 5  21307318.249 5
        50.000          38.000
  22444775.298 7 117948112.557 7  91907632.49844  22444774.994 4  22444775.878 4
        48.000          32.000
  24055918.533 6 126414768.093 6  98505046.24642  24055917.552 2  24055917.528 2
        44.000          22.000
  21943192.770 8 115312281.280 8  89853743.85245  21943192.998 5  21943195.068 5
        50.000          39.000
  24541195.195 5 128964860.038 5 100492113.17941  24541194.873 1  24541198.962 1
        38.000          16.000
  25123947.153 4 132027262.917 4 102878411.58741  25123947.962 1  25123953.474 1
        30.000           7.000
  20576096.155 8 108128139.676 8  84255728.17146  20576096.371 6  20576098.218 6
        51.000          43.000
  24715870.028 5 129882754.907 5 101207351.19741  24715870.467 1  24715873.074 1
        37.000          14.000
  23551951.046 6 123766364.245 6  96441335.36243  23551950.676 3  23551952.841 3
        44.000          25.000
  20631169.953 8 108417565.242 8  84481244.92946  20631168.867 6  20631172.330 6
        52.000          41.000
 12  9 20  0 25 30.0000000  0 11G08G13G02G23G05G26G29G07G04G16G10
  22244309.339 7 116894660.062 7  91086763.74345  22244308.547 5  22244312.514 5
        48.000          35.000
  21321131.688 8 112043362.429 8  87306553.40145  21321131.398 5  21321133.297 5
        50.000          37.000
  22456636.888 7 118010447.325 7  91956205.04444  22456636.732 4  22456637.914 4
        47.000          32.000
  24075312.829 6 126516696.625 6  98584471.02842  24075312.321 2  24075314.439 2
        41.000          22.000
  21929812.456 8 115241964.647 8  89798951.71545  21929812.513 5  21929814.258 5
        50.000          39.000
  24518532.899 5 128845762.964 5 100399310.35441  24518533.365 1  24518535.227 1
        39.000          16.000
  25134993.628 4 132085300.116 4 102923635.35041  25134993.677 1  25134994.283 1
        32.000           5.000
  20572819.955 8 108110920.712 8  84242310.80646  20572819.658 6  20572821.518 6
        51.000          43.000
  24737170.577 5 129994691.067 5 101294574.19041  24737170.624 1  24737174.378 1
        38.000          15.000
  23560398.194 6 123810753.963 6  96475924.65743  23560397.425 3  23560400.650 3
        43.000          25.000
  20640027.990 8 108464114.158 8  84517516.79846  20640026.846 6  20640030.295 6
        51.000          41.000
 12  9 20  0 26  0.0000000  0 11G08G13G02G23G05G26G29G07G04G16G10
  22227321.841 7 116805390.558 7  91017203.10345  22227321.144 5  22227325.058 5
        49.000          35.000
  21335008.735 8 112116287.934 8  87363378.46345  21335008.830 5  21335010.871 5
        51.000          37.000
  22468588.962 7 118073262.518 7  92005151.94844  22468589.819 4  22468590.629 4
        46.000          32.000
  24094733.297 6 126618738.273 6  98663983.95542  24094731.906 2  24094732.911 2
        42.000          22.000
  21916508.235 8 115172051.391 8  89744473.88745  21916508.373 5  21916510.178 5
        51.000          39.000
  24495884.115 5 128726747.600 5 100306571.15141  24495884.663 1  24495889.283 1
        37.000          15.000
  25146116.980 4 132143764.849 4 102969192.24741  25146116.979 1  25146120.759 1
        32.000           4.000
  20569650.005 8 108094263.795 8  84229331.40046  20569649.979 6  20569651.821 6
        52.000          43.000
  24758477.846 5 130106661.765 5 101381824.05341  24758477.949 1  24758481.430 1
        38.000          16.000
  23568956.310 6 123855725.409 6  96510967.25242  23568955.671 2  23568956.899 2
        44.000          24.000
  20648985.463 8 108511185.729 8  84554195.92546  20648984.168 6  20648987.828 6
        52.000          41.000
 12  9 20  0 26 30.0000000  0 11G08G13G02G23G05G26G29G07G04G16G10
  22210397.260 7 116716449.782 7  90947898.62545  22210396.213 5  22210400.132 5
        49.000          35.000
  21348948.115 8 112189539.423 8  87420457.54145  21348948.016 5  21348949.919 5
        50.000          37.000
  22480634.320 7 118136556.011 7  92054471.54844  22480634.119 4  22480635.179 4
        46.000          32.000
  24114171.812 6 126720892.274 6  98743584.41442  24114170.531 2  24114170.830 2
        41.000          22.000
  21903281.253 8 115102543.804 8  89690312.15245  21903281.481 5  21903283.315 5
        50.000          39.000
  24473253.622 5 128607815.540 5 100213896.88141  24473249.995 1  24473256.969 1
        38.000          15.000
  25157322.999 4 132202655.116 4 103015080.84241  25157317.852 1  25157331.532 1
        30.000           2.000
  20566587.198 8 108078169.292 8  84216790.24246  20566587.432 6  20566589.132 6
        52.000          43.000
  24779790.991 5 130218664.136 5 101469098.60541  24779791.364 1  24779794.316 1
        38.000          15.000
  23577624.547 6 123901276.664 6  96546461.68042  23577623.710 2  23577626.205 2
        44.000          24.000
  20658042.210 8 108558778.913 8  84591281.50946  20658041.086 6  20658044.529 6
        52.000          41.000
 12  9 20  0 27  0.0000000  0 11G08G13G02G23G05G26G29G07G04G16G10
  22193534.840 7 116627839.350 7  90878851.55645  22193534.267 5  22193538.158 5
        49.000          35.000
  21362949.295 8 112263115.199 8  87477789.30745  21362949.308 5  21362950.585 5
        50.000          37.000
  22492769.098 7 118200325.128 7  92104161.75244  22492768.941 4  22492770.347 4
        45.000          31.000
  24133631.094 6 126823157.449 6  98823271.53442  24133631.067 2  24133631.548 2
        41.000          21.000
  21890132.276 7 115033443.869 7  89636468.02145  21890132.233 5  21890134.030 5
        49.000          39.000
  24450637.008 5 128488968.279 5 100121288.73041  24450635.840 1  24450640.422 1
        37.000          16.000
  25168611.459 3 132261967.947 3 103061298.73941  25168614.933 1  25168612.606 1
        29.000           1.000
  20563631.949 8 108062636.991 8  84204687.15946  20563631.620 6  20563633.502 6
        51.000          44.000
  24801109.915 5 130330695.435 5 101556395.69741  24801110.131 1  24801113.538 1
        38.000          15.000
  23586402.078 6 123947406.347 6  96582406.92842  23586401.530 2  23586404.118 2
        43.000          24.000
  20667197.812 8 108606892.593 8  84628772.67346  20667196.604 6  20667200.278 6
        50.000          41.000
 12  9 20  0 27 30.0000000  0 11G08G13G02G23G05G26G29G07G04G16G10
  22176736.155 7 116539561.203 7  90810063.41745  22176735.536 5  22176739.114 5
        49.000          36.000
  21377011.897 8 112337013.938 8  87535372.74245  21377011.750 5  21377013.300 5
        50.000          37.000
  22504995.021 7 118264567.260 7  92154220.56844  22504993.846 4  22504995.098 4
        46.000          31.000
  24153113.035 6 126925532.439 6  98903044.20042  24153112.623 2  24153112.577 2
        41.000          21.000
  21877060.696 8 114964754.143 8  89582943.62645  21877061.056 5  21877062.739 5
        51.000          39.000
  24428035.655 5 128370207.251 5 100028747.75241  24428036.342 1  24428040.567 1
        36.000          16.000
  25179978.821 3 132321701.360 3
        27.000
  20560782.781 8 108047667.240 8  84193022.43446  20560783.167 6  20560784.779 6
        51.000          43.000
  24822433.829 5 130442752.975 5 101643713.25341  24822433.964 1  24822437.334 1
        37.000          15.000
  23595290.442 6 123994112.470 6  96618801.30542  23595290.066 2  23595292.037 2
        43.000          23.000
  20676452.627 8 108655525.882 8  84666668.72046  20676451.422 6  20676454.920 6
        52.000          41.000
 12  9 20  0 28  0.0000000  0 11G08G13G02G23G05G26G29G07G04G16G10
  22160000.952 8 116451616.939 8  90741535.45745  22160000.204 5  22160003.876 5
        50.000          36.000
  21391135.266 8 112411234.177 8  87593206.68745  21391135.023 5  21391137.156 5
        50.000          37.000
  22517309.249 7 118329280.326 7  92204646.34444  22517308.383 4  22517309.509 4
        46.000          31.000
  24172614.564 6 127028015.749 6  98982901.29542  24172613.497 2  24172615.200 2
        40.000          20.000
  21864068.133 8 114896476.425 8  89529740.22345  21864068.203 5  21864070.068 5
        50.000          39.000
  24405453.191 5 128251534.099 5  99936275.19641  24405453.448 1  24405456.901 1
        37.000          16.000
  25191421.567 3 132381853.168 3
        26.000
  20558041.365 8 108033259.719 8  84181795.80646  20558041.350 6  20558043.088 6
        52.000          43.000
  24843763.243 5 130554834.114 5 101731049.17841  24843761.964 1  24843765.833 1
        38.000          16.000
  23604287.572 6 124041393.454 6  96655643.56242  23604287.584 2  23604290.399 2
        43.000          23.000
  20685805.527 8 108704677.275 8  84704968.48546  20685804.539 6  20685808.094 6
        52.000          42.000
 12  9 20  0 28 30.0000000  0 10G08G13G02G23G05G26G07G04G16G10
  22143329.296 7 116364008.780 7  90673269.39745  22143328.895 5  22143332.604 5
        49.000          36.000
  21405319.801 7 112485774.529 7  87651290.06845  21405319.561 5  21405321.788 5
        49.000          37.000
  22529713.181 7 118394461.705 7  92255437.00244  22529711.936 4  22529713.707 4
        46.000          31.000
  24192137.771 6 127130606.203 6  99062841.84842  24192137.025 2  24192137.737 2
        40.000          20.000
  21851153.732 8 114828612.908 8  89476859.52845  21851154.073 5  21851156.164 5
        50.000          39.000
  24382887.615 5 128132950.475 5  99843872.47341  24382886.840 1  24382891.620 1
        38.000          17.000
  20555406.789 8 108019414.768 8  84171007.54446  20555406.850 6  20555408.535 6
        50.000          43.000
  24865092.904 5 130666936.144 5 101818401.40741  24865093.390 1  24865099.354 1
        37.000          15.000
  23613394.064 6 124089247.779 6  96692932.64542  23613393.671 2  23613396.224 2
        44.000          23.000
  20695257.069 8 108754345.896 8  84743671.28746  20695255.959 6  20695259.712 6
        51.000          41.000
 12  9 20  0 29  0.0000000  0 10G08G13G02G23G05G26G07G04G16G10
  22126722.848 8 116276738.246 8  90605266.42045  22126722.035 5  22126725.703 5
        50.000          36.000
  21419565.237 8 112560633.510 8  87709621.73045  21419564.930 5  21419566.648 5
        50.000          37.000
  22542205.119 7 118460109.063 7  92306590.77644  22542204.221 4  22542205.275 4
        46.000          31.000
  24211679.345 5 127233302.777 5  99142865.10542  24211678.256 2  24211681.532 2
        39.000          20.000
  21838319.090 8 114761165.770 8  89424303.31346  21838319.231 5  21838321.191 6
        50.000          40.000
  24360339.806 5 128014457.657 5  99751540.51941  24360339.585 1  24360343.754 1
        39.000          17.000
  20552879.252 8 108006132.585 8  84160657.79946  20552879.231 6  20552880.985 6
        51.000          44.000
  24886431.266 5 130779056.079 5 101905767.54641  24886429.641 1  24886434.610 1
        38.000          16.000
  23622609.419 6 124137673.470 6  96730666.98142  23622609.064 2  23622610.552 2
        44.000          22.000
  20704807.226 8 108804530.118 8  84782775.85746  20704805.874 6  20704809.437 6
        52.000          41.000
 12  9 20  0 29 30.0000000  0 10G08G13G02G23G05G26G07G04G16G10
  22110180.307 7 116189807.392 7  90537528.10145  22110179.729 5  22110183.255 5
        49.000          36.000
  21433870.156 7 112635809.683 7  87768200.55745  21433870.357 5  21433872.408 5
        49.000          37.000
  22554784.951 7 118526219.683 7  92358105.52044  22554784.831 4  22554785.883 4
        47.000          31.000
  24231241.811 6 127336104.248 6  99222970.12642  24231242.490 2  24231243.221 2
        40.000          20.000
  21825563.610 8 114694137.127 8  89372073.19146  21825564.076 5  21825566.189 6
        50.000          40.000
  24337809.629 5 127896057.296 5  99659280.56441  24337808.794 1  24337812.738 1
        38.000          17.000
  20550458.404 8 107993412.798 8  84150746.28746  20550458.644 6  20550460.567 6
        51.000          43.000
  24907769.351 5 130891191.576 5 101993145.87041  24907768.088 1  24907771.504 1
        38.000          15.000
  23631933.213 6 124186668.718 6  96768845.04242  23631932.591 2  23631935.066 2
        42.000          22.000
  20714454.698 8 108855229.114 8  84822281.55946  20714453.763 6  20714457.108 6
        52.000          41.000
 12  9 20  0 30  0.0000000  0 10G08G13G02G23G05G26G07G04G16G10
  22093703.049 7 116103218.059 7  90470055.92045  22093702.270 5  22093705.756 5
        49.000          36.000
  21448236.174 8 112711301.498 8  87827025.34145  21448235.717 5  21448238.082 5
        50.000          37.000
  22567453.494 7 118592791.497 7  92409979.62844  22567453.244 4  22567454.199 4
        47.000          31.000
  24250825.572 6 127439009.352 6  99303155.83941  24250823.914 1  24250823.511 1
        40.000          19.000
  21812888.596 7 114627528.726 7  89320170.52445  21812889.045 5  21812891.043 5
        49.000          39.000
  24315295.361 5 127777751.006 5  99567093.92541  24315294.842 1  24315300.091 1
        38.000          18.000
  20548145.283 8 107981255.428 8  84141273.02146  20548145.247 6  20548147.021 6
        51.000          43.000
  24929110.309 5 131003339.873 5 102080534.11041  24929110.059 1  24929112.855 1
        37.000          15.000
  23641364.553 6 124236231.843 6  96807465.66542  23641363.982 2  23641365.880 2
        43.000          22.000
  20724200.342 8 108906441.486 8  84862187.28446  20724199.041 6  20724202.609 6
        52.000          41.000
 12  9 20  0 30 30.0000000  0 10G08G13G02G23G05G26G07G04G16G10
  22077290.797 7 116016971.926 7  90402851.18145  22077290.196 5  22077293.704 5
        49.000          36.000
  21462661.639 7 112787107.678 7  87886095.08845  21462661.501 5  21462663.758 5
        49.000          37.000
  22580208.589 7 118659821.896 7  92462211.08544  22580208.957 4  22580209.831 4
        46.000          31.000
  24270425.179 5 127542016.760 5  99383421.30841  24270425.299 1  24270427.663 1
        39.000          18.000
  21800294.141 8 114561343.132 8  89268597.37246  21800294.223 6  21800296.323 6
        51.000          40.000
  24292800.615 5 127659540.258 5  99474981.72741  24292800.331 1  24292804.264 1
        37.000          18.000
  20545938.460 8 107969660.757 8  84132238.22646  20545938.853 6  20545940.640 6
        52.000          43.000
  24950452.624 5 131115498.205 5 102167930.20941  24950453.077 1  24950457.783 1
        39.000          15.000
  23650904.154 6 124286361.234 6  96846527.54742  23650902.956 2  23650905.064 2
        42.000          22.000
  20734043.246 8 108958165.954 8  84902492.04446  20734042.009 6  20734045.502 6
        52.000          41.000
 12  9 20  0 31  0.0000000  0 10G08G13G02G23G05G26G07G04G16G10
  22060944.303 7 115931071.101 7  90335915.50245  22060943.558 5  22060947.296 5
        49.000          36.000
  21477146.507 8 112863226.627 8  87945408.54445  21477146.398 5  21477148.688 5
        50.000          37.000
  22593051.882 7 118727307.971 7  92514797.60044  22593051.083 4  22593051.623 4
        46.000          31.000
  24290047.328 5 127645125.469 5  99463765.67741  24290047.082 1  24290048.154 1
        39.000          18.000
  21787780.403 8 114495582.133 8  89217355.03045  21787780.447 5  21787782.595 5
        51.000          39.000
  24270323.234 5 127541426.518 5  99382945.11641  24270324.527 1  24270327.881 1
        39.000          18.000
  20543839.677 8 107958628.340 8  84123641.54446  20543839.456 6  20543841.263 6
        50.000          43.000
  24971796.581 5 131227663.774 5 102255331.91841  24971797.363 1  24971801.920 1
        38.000          14.000
  23660550.398 6 124337054.843 6  96886029.03242  23660548.836 2  23660552.192 2
        42.000          22.000
  20743983.297 8 109010401.774 8  84943195.26246  20743982.149 6  20743985.672 6
        51.000          41.000
 12  9 20  0 31 30.0000000  0 10G08G13G02G23G05G26G07G04G16G10
  22044664.149 7 115845517.291 7  90269250.21345  22044663.180 5  22044667.166 5
        49.000          36.000
  21491691.161 8 112939657.034 8  88004964.70045  21491690.867 5  21491692.747 5
        50.000          37.000
  22605980.696 7 118795247.569 7  92567737.52944  22605979.680 4  22605980.546 4
        47.000          31.000
  24309686.455 5 127748334.417 5  99544188.19341  24309686.242 1  24309687.134 1
        38.000          17.000
  21775347.274 8 114430248.085 8  89166445.44046  21775347.833 6  21775349.612 6
        50.000          40.000
  24247866.203 5 127423411.586 5  99290985.48541  24247866.954 1  24247869.723 1
        39.000          19.000
  20541847.065 8 107948158.601 8  84115483.31946  20541847.146 6  20541848.841 6
        51.000          44.000
  24993142.902 5 131339834.428 5 102342737.61841  24993141.671 1  24993146.459 1
        37.000          14.000
  23670304.796 6 124388311.265 6  96925969.18742  23670303.780 2  23670306.433 2
        41.000          22.000
  20754020.040 8 109063147.426 8  84984295.75246  20754019.141 6  20754022.683 6
        51.000          40.000
 12  9 20  0 32  0.0000000  0 10G08G13G02G23G05G26G07G04G16G10
  22028449.486 8 115760312.115 8  90202856.58545  22028449.285 5  22028453.098 5
        50.000          37.000
  21506294.386 8 113016397.187 8  88064762.21745  21506294.249 5  21506295.581 5
        50.000          37.000
  22618994.142 7 118863638.046 7  92621028.77844  22618993.925 4  22618994.836 4
        47.000          31.000
  24329343.362 5 127851642.217 5  99624687.71041  24329344.879 1  24329347.616 1
        38.000          17.000
  21762996.541 8 114365342.684 8  89115869.82346  21762996.583 6  21762998.516 6
        50.000          40.000
  24225428.183 6 127305496.883 6  99199103.97341  24225428.046 1  24225432.393 1
        40.000          19.000
  20539961.966 8 107938251.111 8  84107763.20346  20539961.796 6  20539963.513 6
        52.000          43.000
  25014490.141 5 131452007.169 5 102430144.92141  25014488.428 1  25014494.048 1
        38.000          15.000
  23680165.213 6 124440127.955 6  96966345.82142  23680164.106 2  23680166.613 2
        43.000          22.000
  20764154.107 8 109116401.542 8  85025792.44546  20764153.060 6  20764156.694 6
        51.000          41.000
 12  9 20  0 32 30.0000000  0 10G08G13G02G23G05G26G07G04G16G10
  22012302.918 8 115675457.555 8  90136736.18745  22012301.958 5  22012305.493 5
        50.000          37.000
  21520956.155 8 113093446.002 8  88124800.25245  21520955.939 5  21520957.357 5
        50.000          36.000
  22632093.659 7 118932476.807 7  92674669.33744  22632093.323 4  22632094.234 4
        46.000          31.000
  24349023.393 6 127955047.523 6  99705263.19841  24349023.189 1  24349022.542 1
        40.000          18.000
  21750727.553 8 114300868.242 8  89065629.99046  21750727.583 6  21750729.631 6
        50.000          40.000
  24203009.030 5 127187683.965 5  99107301.74941  24203009.084 1  24203012.324 1
        39.000          19.000
  20538183.597 8 107928905.759 8  84100481.12446  20538183.389 6  20538185.126 6
        52.000          43.000
  25035833.889 5 131564179.473 5 102517551.89141  25035834.432 1  25035836.931 1
        37.000          15.000
  23690131.024 6 124492503.082 6  97007157.57942  23690130.706 2  23690132.556 2
        41.000          21.000
  20774385.258 8 109170163.063 8  85067684.52746  20774383.768 6  20774387.053 6
        51.000          40.000
 12  9 20  0 33  0.0000000  0 10G08G13G02G23G05G26G07G04G16G10
  21996222.340 8 115590955.346 8  90070890.33845  21996221.531 5  21996225.059 5
        50.000          37.000
  21535676.178 7 113170802.175 7  88185077.78745  21535676.346 5  21535677.683 5
        49.000          36.000
  22645278.181 7 119001761.349 7  92728657.24244  22645277.797 4  22645278.940 4
        45.000          31.000
  24368718.542 6 128058549.187 6  99785913.82341  24368717.710 1  24368719.983 1
        40.000          18.000
  21738540.861 8 114236826.843 8  89015727.60146  21738540.760 6  21738542.983 6
        50.000          40.000
  24180609.879 5 127069974.388 5  99015580.04841  24180610.430 1  24180613.096 1
        39.000          18.000
  20536512.183 8 107920122.355 8  84093636.91946  20536511.892 6  20536513.627 6
        52.000          44.000
  25057178.333 5 131676348.359 5 102604956.18441  25057179.580 1  25057183.761 1
        38.000          15.000
  23700204.170 6 124545435.044 6  97048403.26142  23700202.972 2  23700206.283 2
        42.000          21.000
  20784711.508 8 109224430.325 8  85109970.68046  20784710.465 6  20784713.780 6
        51.000          41.000
 12  9 20  0 33 30.0000000  0 10G08G13G02G23G05G26G07G04G16G10
  21980209.428 8 115506807.481 8  90005320.59645  21980208.641 5  21980212.527 5
        50.000          37.000
  21550454.927 7 113248464.193 7  88245593.63645  21550454.816 5  21550456.693 5
        49.000          36.000
  22658545.904 7 119071489.086 7  92782990.49444  22658546.157 4  22658547.418 4
        46.000          30.000
  24388432.250 5 128162146.265 5  99866638.74341  24388431.610 1  24388435.045 1
        38.000          18.000
  21726437.064 8 114173220.606 8  88966164.29545  21726436.883 5  21726438.980 5
        50.000          39.000
  24158230.252 5 126952369.873 5  98923940.23341  24158230.196 1  24158232.306 1
        39.000          18.000
  20534947.435 8 107911900.667 8  84087230.41346  20534947.302 6  20534949.223 6
        51.000          43.000
  25078522.955 5 131788511.343 5 102692355.94141  25078524.960 1  25078526.591 1
        37.000          14.000
  23710382.311 6 124598922.030 6  97090081.36842  23710381.576 2  23710384.904 2
        41.000          21.000
  20795134.741 8 109279202.001 8  85152649.89346  20795133.242 6  20795136.738 6
        51.000          41.000
 12  9 20  0 34  0.0000000  0 10G08G13G02G23G05G26G07G04G16G10
  21964264.238 7 115423015.441 7  89940028.11145  21964263.563 5  21964267.394 5
        49.000          37.000
  21565291.514 7 113326430.254 7  88306346.39845  21565291.233 5  21565292.970 5
        49.000          36.000
  22671899.599 7 119141657.354 7  92837667.02644  22671898.962 4  22671900.088 4
        45.000          30.000
  24408164.141 5 128265837.290 5  99947436.85341  24408164.392 1  24408165.067 1
        39.000          18.000
  21714415.931 8 114110051.368 8  88916941.52846  21714416.163 5  21714418.143 6
        50.000          40.000
  24135871.229 5 126834871.804 5  98832383.32841  24135871.180 1  24135875.732 1
        39.000          18.000
  20533489.700 8 107904241.276 8  84081262.06246  20533489.786 6  20533491.496 6
        52.000          43.000
  25099864.610 5 131900666.084 5 102779749.20741  25099864.552 1  25099871.010 1
        37.000          13.000
  23720665.764 6 124652962.022 6  97132190.40342  23720665.244 2  23720667.985 2
        41.000          21.000
  20805652.657 8 109334477.041 8  85195721.33246  20805651.575 6  20805655.202 6
        52.000          40.000
 12  9 20  0 34 30.0000000  0 10G08G13G02G23G05G26G07G04G16G10
  21948387.651 7 115339581.139 7  89875014.39345  21948386.537 5  21948390.459 5
        49.000          37.000
  21580185.458 8 113404699.131 8  88367335.12545  21580185.322 5  21580187.226 5
        50.000          36.000
  22685335.367 6 119212263.696 6  92892684.92444  22685334.779 4  22685336.083 4
        44.000          30.000
  24427914.154 6 128369621.332 6 100028307.49241  24427914.833 1  24427915.488 1
        40.000          17.000
  21702478.763 8 114047321.287 8  88868060.97046  21702479.058 6  21702481.081 6
        51.000          40.000
  24113533.391 6 126717481.938 6  98740910.79441  24113532.874 1  24113535.833 1
        40.000          19.000
  20532138.571 8 107897143.439 8  84075731.29246  20532139.037 6  20532140.867 6
        52.000          43.000
  25121204.969 5 132012809.655 5 102867133.81641  25121206.155 1  25121209.164 1
        37.000          13.000
  23731054.514 6 124707553.238 6  97174728.98442  23731053.250 2  23731055.945 2
        42.000          20.000
  20816266.666 8 109390254.235 8  85239184.06546  20816265.685 6  20816269.317 6
        52.000          41.000
 12  9 20  0 35  0.0000000  0 10G08G13G02G23G05G26G07G04G16G10
  21932578.555 7 115256506.438 7  89810280.90445  21932577.884 5  21932581.887 5
        49.000          37.000
  21595136.881 8 113483269.303 8  88428558.62645  21595137.027 5  21595138.577 5
        50.000          36.000
  22698854.172 7 119283305.377 7  92948042.03544  22698853.653 4  22698854.626 4
        45.000          30.000
  24447681.169 5 128473496.934 5 100109249.46641  24447679.936 1  24447682.451 1
        39.000          16.000
  21690625.894 8 113985032.423 8  88819524.22646  21690625.993 6  21690628.012 6
        51.000          40.000
  24091216.177 6 126600201.694 6  98649523.66841  24091214.462 1  24091218.494 1
        42.000          19.000
  20530895.354 8 107890606.870 8  84070637.86646  20530895.222 6  20530897.000 6
        52.000          43.000
  25142544.277 5 132124939.478 5 102954507.65941  25142543.804 1  25142545.843 1
        37.000          13.000
  23741546.761 6 124762693.063 6  97217694.97241  23741545.995 1  23741547.123 1
        42.000          19.000
  20826976.248 8 109446532.123 8  85283036.94146  20826974.922 6  20826978.812 6
        51.000          41.000
 12  9 20  0 35 30.0000000  0 10G08G13G02G23G05G26G07G04G16G10
  21916838.627 7 115173792.878 7  89745828.81145  21916838.098 5  21916841.868 5
        49.000          37.000
  21610145.263 8 113562138.886 8  88490015.43445  21610145.309 5  21610147.111 5
        50.000          36.000
  22712455.378 7 119354779.749 7  93003736.29344  22712455.069 4  22712456.373 4
        45.000          30.000
  24467465.256 5 128577463.292 5 100190262.14041  24467465.113 1  24467465.466 1
        39.000          16.000
  21678857.084 8 113923186.633 8  88771332.69846  21678857.178 6  21678859.040 6
        50.000          40.000
  24068918.819 6 126483032.744 6  98558223.22241  24068917.499 1  24068921.872 1
        40.000          19.000
  20529758.017 8 107884631.190 8  84065981.49746  20529758.055 6  20529759.900 6
        51.000          43.000
  25163875.366 5 132237052.918 5 103041868.77341  25163876.742 1  25163881.416 1
        35.000          12.000
  23752142.551 6 124818379.963 6  97261087.34242  23752142.800 2  23752146.165 2
        41.000          20.000
  20837780.810 8 109503309.357 8  85327278.92646  20837779.306 6  20837783.053 6
        51.000          40.000
 12  9 20  0 36  0.0000000  0 10G08G13G02G23G05G26G07G04G16G10
  21901167.997 8 115091442.363 8  89681659.59445  21901167.208 5  21901171.175 5
        50.000          37.000
  21625210.596 8 113641307.330 8  88551705.12345  21625210.453 5  21625212.431 5
        50.000          36.000
  22726138.639 6 119426684.178 6  93059765.65544  22726137.976 4  22726139.170 4
        44.000          30.000
  24487266.991 5 128681519.168 5 100271344.57841  24487265.935 1  24487267.455 1
        38.000          15.000
  21667172.933 8 113861786.369 8  88723488.39446  21667172.923 6  21667174.897 6
        51.000          40.000
  24046644.837 6 126365976.805 6  98467010.86441  24046643.590 1  24046646.684 1
        41.000          19.000
  20528727.897 8 107879216.681 8  84061762.40946  20528727.874 6  20528729.620 6
        52.000          44.000
  25185208.845 5 132349147.681 5 103129215.34641  25185209.640 1  25185213.458 1
        36.000          12.000
  23762844.086 6 124874612.200 6  97304904.63842  23762843.615 2  23762846.095 2
        40.000          20.000
  20848679.559 8 109560584.470 8  85371908.86446  20848678.535 6  20848682.005 6
        51.000          40.000
 12  9 20  0 36 30.0000000  0 10G08G13G02G23G05G26G07G04G16G10
  21885566.688 8 115009456.682 8  89617774.68645  21885566.003 5  21885569.716 5
        50.000          38.000
  21640332.421 8 113720772.916 8  88613626.34945  21640332.267 5  21640334.033 5
        50.000          35.000
  22739903.602 7 119499016.180 7  93116128.18944  22739902.297 4  22739903.873 4
        45.000          30.000
  24507084.122 5 128785663.218 5 100352495.74041  24507082.623 1  24507084.177 1
        39.000          14.000
  21655573.676 8 113800833.265 8  88675992.42346  21655573.877 6  21655576.168 6
        50.000          40.000
  24024390.015 6 126249035.304 6  98375887.67841  24024390.276 1  24024394.826 1
        40.000          19.000
  20527804.668 8 107874362.830 8  84057980.19646  20527804.350 6  20527805.919 6
        52.000          44.000
  25206535.789 5 132461220.660 5 103216544.92941  25206533.812 1  25206538.868 1
        35.000          12.000
  23773647.898 5 124931387.539 5  97349145.18241  23773647.395 1  23773650.271 1
        39.000          18.000
  20859672.918 8 109618355.899 8  85416925.54846  20859671.970 6  20859675.521 6
        51.000          40.000
 12  9 20  0 37  0.0000000  0 10G08G13G02G23G05G26G07G04G16G10
  21870035.113 8 114927837.542 8  89554175.38045  21870034.383 5  21870038.177 5
        50.000          37.000
  21655510.537 8 113800534.064 8  88675777.88045  21655510.292 5  21655512.102 5
        51.000          36.000
  22753748.159 7 119571772.864 7  93172821.64644  22753747.639 4  22753748.834 4
        46.000          30.000
  24526919.133 5 128889894.289 5 100433714.68741  24526919.727 1  24526920.502 1
        39.000          16.000
  21644059.516 8 113740329.359 8  88628846.50546  21644060.290 6  21644062.709 6
        50.000          41.000
  24002160.005 6 126132209.795 6  98284854.86141  24002159.560 1  24002162.027 1
        41.000          19.000
  20526987.192 8 107870069.537 8  84054634.77946  20526987.323 6  20526988.865 6
        52.000          44.000
  25227858.039 5 132573269.585 5 103303855.67441  25227857.538 1  25227861.595 1
        36.000          11.000
  23784554.821 6 124988703.919 6  97393807.35241  23784555.478 1  23784557.413 1
        40.000          19.000
  20870760.874 8 109676622.432 8  85462328.02346  20870759.836 6  20870763.289 6
        52.000          41.000
 12  9 20  0 37 30.0000000  0 10G08G13G02G23G05G26G07G04G16G10
  21854573.010 7 114846586.574 7  89490862.96845  21854572.756 5  21854576.566 5
        49.000          38.000
  21670744.152 7 113880589.018 7  88738158.34845  21670744.300 5  21670745.917 5
        49.000          35.000
  22767674.233 7 119644951.790 7  93229844.13344  22767673.204 4  22767674.762 4
        45.000          30.000
  24546769.440 5 128994211.123 5 100515000.49641  24546769.145 1  24546769.912 1
        39.000          16.000
  21632632.938 8 113680277.051 8  88582052.54046  21632632.989 6  21632634.954 6
        50.000          41.000
  23979950.410 6 126015501.970 6  98193913.74842  23979950.897 1  23979953.292 2
        40.000          20.000
  20526276.688 8 107866336.343 8  84051725.80546  20526276.580 6  20526278.581 6
        51.000          43.000
  25249174.941 5 132685291.844 5 103391145.76441  25249173.564 1  25249177.615 1
        35.000          11.000
  23795564.638 6 125046559.191 6  97438889.35441  23795564.068 1  23795565.232 1
        41.000          18.000
  20881942.782 8 109735382.596 8  85508115.15246  20881941.514 6  20881945.048 6
        51.000          40.000
 12  9 20  0 38  0.0000000  0 10G08G13G02G23G05G26G07G04G16G10
  21839182.180 8 114765705.315 8  89427838.63245  21839181.446 5  21839185.096 5
        51.000          38.000
  21686034.048 7 113960936.991 7  88800767.15045  21686034.043 5  21686035.625 5
        49.000          35.000
  22781678.727 6 119718550.267 6  93287193.55044  22781678.168 4  22781679.916 4
        43.000          30.000
  24566636.727 5 129098612.692 5 100596352.33441  24566637.204 1  24566636.384 1
        39.000          17.000
  21621291.234 8 113620677.816 8  88535611.57846  21621291.466 6  21621293.557 6
        51.000          41.000
  23957763.147 5 125898913.522 5  98103065.67342  23957763.500 2  23957767.993 2
        39.000          20.000
  20525672.290 8 107863163.108 8  84049253.16446  20525672.735 6  20525674.744 6
        52.000          44.000
  25270484.020 4 132797284.664 4 103478412.90741  25270485.198 1  25270488.482 1
        34.000          12.000
  23806676.388 6 125104951.411 6  97484389.77042  23806676.164 2  23806678.669 2
        40.000          20.000
  20893217.792 8 109794635.126 8  85554285.93246  20893216.946 6  20893220.606 6
        51.000          41.000
 12  9 20  0 38 30.0000000  0 10G08G13G02G23G05G26G07G04G16G10
  21823861.740 7 114685195.626 7  89365103.83645  21823860.991 5  21823864.781 5
        49.000          38.000
  21701378.977 7 114041576.247 7  88863602.92545  21701379.083 5  21701380.832 5
        49.000          35.000
  22795764.262 6 119792564.963 6  93344867.29644  22795762.999 4  22795764.654 4
        44.000          30.000
  24586518.735 5 129203097.871 5 100677769.30441  24586519.611 1  24586521.468 1
        38.000          15.000
  21610036.515 8 113561533.836 8  88489525.37246  21610036.860 6  21610038.538 6
        50.000          40.000
  23935600.826 5 125782445.957 5  98012311.77541  23935601.682 1  23935603.991 1
        38.000          19.000
  20525175.515 8 107860549.424 8  84047216.53146  20525175.402 6  20525177.378 6
        51.000          44.000
  25291793.103 5 132909245.525 5 103565655.08741  25291793.338 1  25291796.544 1
        37.000          11.000
  23817889.724 6 125163878.351 6  97530306.92741  23817888.723 1  23817891.941 1
        41.000          19.000
  20904586.882 8 109854378.665 8  85600839.32546  20904585.825 6  20904589.298 6
        52.000          41.000
 12  9 20  0 39  0.0000000  0 10G08G13G02G23G05G26G07G04G16G10
  21808611.650 8 114605059.360 8  89302660.03445  21808611.752 5  21808615.353 5
        50.000          38.000
  21716779.937 7 114122505.099 7  88926664.35345  21716779.513 5  21716781.209 5
        48.000          35.000
  22809927.087 7 119866993.966 7  93402863.85744  22809926.272 4  22809928.276 4
        45.000          30.000
  24606419.070 5 129307665.308 5 100759250.36541  24606418.589 1  24606419.098 1
        39.000          15.000
  21598869.092 8 113502847.089 8  88443795.43946  21598869.118 6  21598870.951 6
        52.000          40.000
  23913460.198 5 125666100.908 5  97921653.37542  23913460.657 2  23913464.162 2
        38.000          20.000
  20524784.348 8 107858494.525 8  84045615.31646  20524784.369 6  20524786.382 6
        52.000          44.000
  25313091.434 5 133021171.945 5 103652870.48241  25313091.595 1  25313096.745 1
        36.000          11.000
  23829204.676 6 125223338.226 6  97576639.27841  23829203.053 2  23829207.258 1
        40.000          19.000
  20916049.116 8 109914611.381 8  85647773.89446  20916047.693 6  20916051.301 6
        52.000          40.000
 12  9 20  0 39 30.0000000  0 10G08G13G02G23G05G26G07G04G16G10
  21793433.908 8 114525298.014 8  89240508.38945  21793433.438 5  21793437.042 5
        50.000          37.000
  21732234.301 7 114203722.432 7  88989950.57545  21732234.452 5  21732236.308 5
        49.000          35.000
  22824167.888 7 119941834.161 7  93461180.83344  22824167.846 4  22824169.462 4
        45.000          30.000
  24626332.364 6 129412313.838 6 100840794.57841  24626333.765 1  24626331.647 1
        40.000          16.000
  21587788.817 8 113444619.784 8  88398423.52446  21587788.869 6  21587790.641 6
        51.000          40.000
  23891343.969 5 125549879.992 5  97831091.64941  23891344.522 1  23891347.269 1
        39.000          18.000
  20524499.428 8 107856998.563 8  84044449.61846  20524499.745 6  20524501.550 6
        50.000          43.000
  25334382.653 5 133133061.543 5 103740057.18141  25334383.244 1  25334388.983 1
        36.000          11.000
  23840621.075 5 125283328.392 5  97623384.83141  23840620.601 1  23840622.802 1
        39.000          18.000
  20927603.492 8 109975332.104 8  85695088.72246  20927602.251 6  20927606.185 6
        50.000          40.000
 12  9 20  0 40  0.0000000  0  9G08G13G02G23G05G26G07G16G10
  21778327.959 8 114445913.362 8  89178650.26245  21778327.053 5  21778330.553 5
        50.000          38.000
  21747744.169 7 114285226.905 7  89053460.54345  21747743.958 5  21747746.445 5
        49.000          35.000
  22838487.622 6 120017082.838 6  93519816.11444  22838487.526 4  22838488.556 4
        44.000          30.000
  24646261.133 5 129517042.531 5 100922401.31541  24646259.576 1  24646263.168 1
        38.000          14.000
  21576795.937 8 113386853.713 8  88353411.01146  21576796.324 6  21576798.235 6
        51.000          41.000
  23869252.106 5 125433784.871 5  97740627.98641  23869252.360 1  23869255.632 1
        39.000          19.000
  20524321.402 8 107856061.061 8  84043719.10046  20524321.474 6  20524323.059 6
        51.000          43.000
  23852136.078 5 125343847.026 5  97670542.18041  23852134.415 1  23852138.979 1
        38.000          17.000
  20939250.962 8 110036539.091 8  85742782.46046  20939249.763 6  20939253.388 6
        51.000          41.000
 12  9 20  0 40 30.0000000  0  9G08G13G02G23G05G26G07G16G10
  21763293.393 8 114366907.128 8  89117087.00945  21763292.609 5  21763296.291 5
        50.000          38.000
  21763308.324 7 114367017.092 7  89117193.14545  21763308.302 5  21763310.782 5
        48.000          35.000
  22852884.228 6 120092737.477 6  93578767.73043  22852884.206 3  22852885.139 3
        43.000          29.000
  24666206.631 5 129621850.186 5 101004069.56941  24666205.137 1  24666204.872 1
        38.000          14.000
  21565891.899 8 113329550.876 8  88308759.46146  21565891.832 6  21565894.028 6
        50.000          40.000
  23847185.033 5 125317817.210 5  97650263.64541  23847183.361 1  23847188.496 1
        39.000          19.000
  20524249.339 8 107855681.737 8  84043423.53446  20524249.348 6  20524250.936 6
        52.000          44.000
  23863752.935 5 125404892.014 5  97718109.73341  23863753.064 1  23863754.017 1
        38.000          17.000
  20950990.458 8 110098231.234 8  85790854.24646  20950989.316 6  20950992.944 6
        51.000          41.000
 12  9 20  0 41  0.0000000  0  9G08G13G02G23G05G26G07G16G10
  21748331.237 8 114288280.959 8  89055819.89945  21748330.383 5  21748334.126 5
        50.000          38.000
  21778926.990 8 114449091.081 8  89181146.89345  21778926.966 5  21778928.735 5
        50.000          35.000
  22867357.587 7 120168795.323 7  93638033.52043  22867357.301 3  22867358.116 3
        45.000          29.000
  24686164.001 5 129726735.560 5 101085798.39441  24686163.070 1  24686165.447 1
        37.000          14.000
  21555075.830 8 113272713.134 8  88264470.30446  21555076.065 6  21555078.181 6
        51.000          41.000
  23825141.393 6 125201978.544 6  97559999.81442  23825141.023 2  23825145.135 2
        41.000          20.000
  20524283.562 8 107855859.982 8  84043562.42746  20524283.220 6  20524284.800 6
        52.000          44.000
  23875469.557 5 125466460.971 5  97766085.53041  23875468.668 1  23875471.556 1
        39.000          16.000
  20962822.237 8 110160406.751 8  85839302.68146  20962821.000 6  20962824.705 6
        51.000          40.000
 12  9 20  0 41 30.0000000  0  9G08G13G02G23G05G26G07G16G10
  21733442.098 8 114210036.518 8  88994850.23845  21733441.101 5  21733444.656 5
        50.000          38.000
  21794598.891 8 114531447.265 8  89245320.53945  21794598.546 5  21794600.602 5
        50.000          35.000
  22881907.116 7 120245253.301 7  93697611.12643  22881907.377 3  22881908.258 3
        45.000          29.000
  24706138.628 5 129831697.412 5 101167586.78841  24706139.954 1  24706138.344 1
        37.000          14.000
  21544348.880 8 113216342.553 8  88220545.16746  21544349.002 6  21544351.116 6
        51.000          41.000
  23803122.979 5 125086270.578 5  97469837.79542  23803122.480 2  23803126.172 2
        39.000          21.000
  20524423.404 8 107856595.550 8  84044135.60346  20524423.250 6  20524424.824 6
        51.000          43.000
  23887283.394 5 125528552.061 5  97814468.27241  23887282.749 1  23887285.332 1
        38.000          18.000
  20974745.788 8 110223064.071 8  85888126.54946  20974744.319 6  20974747.960 6
        52.000          40.000
 12  9 20  0 42  0.0000000  0  9G08G13G02G23G05G26G07G16G10
  21718625.559 8 114132175.529 8  88934179.37445  21718624.567 5  21718628.279 5
        51.000          38.000
  21810324.173 7 114614085.031 7  89309713.59345  21810323.923 5  21810326.234 5
        49.000          35.000
  22896533.309 7 120322108.585 7  93757498.30843  22896532.247 3  22896533.584 3
        45.000          29.000
  24726126.268 5 129936734.669 5 101249433.97541  24726124.692 1  24726127.669 1
        38.000          14.000
  21533711.398 8 113160440.938 8  88176985.47246  21533711.433 6  21533713.149 6
        51.000          41.000
  23781129.227 6 124970694.915 6  97379778.89342  23781129.152 2  23781132.797 2
        41.000          21.000
  20524669.046 8 107857887.988 8  84045142.70146  20524669.052 6  20524670.730 6
        52.000          44.000
  23899199.679 6 125591162.947 6  97863256.00541  23899198.892 1  23899201.991 1
        40.000          17.000
  20986760.261 8 110286201.738 8  85937324.70546  20986758.974 6  20986762.509 6
        51.000          40.000
 12  9 20  0 42 30.0000000  0  9G08G13G02G23G05G26G07G16G10
  21703882.170 8 114054699.567 8  88873808.51645  21703881.228 5  21703885.012 5
        51.000          38.000
  21826103.040 8 114697002.872 8  89374324.88244  21826102.854 4  21826104.826 4
        50.000          34.000
  22911233.501 6 120399358.629 6  93817693.08343  22911232.499 3  22911233.819 3
        44.000          29.000
  24746129.195 5 130041846.332 5 101331339.08341  24746127.856 1  24746130.076 1
        37.000          14.000
  21523163.136 8 113105010.212 8  88133792.72146  21523163.130 6  21523165.033 6
        50.000          41.000
  23759161.825 6 124855253.094 6  97289824.27242  23759161.627 2  23759165.635 2
        40.000          22.000
  20525021.220 8 107859736.529 8  84046583.13746  20525020.916 6  20525022.453 6
        50.000          44.000
  23911210.567 5 125654291.273 5  97912446.87241  23911210.347 1  23911213.564 1
        38.000          17.000
  20998866.035 8 110349817.989 8  85986895.79546  20998864.815 6  20998868.263 6
        51.000          40.000
 12  9 20  0 43  0.0000000  0  9G08G13G02G23G05G26G07G16G10
  21689212.164 8 113977610.069 8  88813738.79445  21689211.711 5  21689215.373 5
        51.000          38.000
  21841934.361 7 114780198.809 7  89439152.87045  21841934.366 4  21841936.356 5
        49.000          35.000
  22926007.444 7 120477000.723 7  93878193.38043  22926007.180 3  22926008.679 3
        45.000          29.000
  24766145.435 5 130147031.098 5 101413301.20641  24766144.730 1  24766146.376 1
        38.000          15.000
  21512704.930 8 113050052.404 8  88090968.48746  21512704.918 6  21512706.943 6
        52.000          41.000
  23737219.471 6 124739946.861 6  97199975.29142  23737218.564 2  23737222.167 2
        41.000          22.000
  20525478.406 8 107862140.955 8  84048456.71746  20525478.388 6  20525479.978 6
        52.000          43.000
  23923323.356 6 125717934.483 6  97962038.95841  23923322.826 1  23923325.197 1
        40.000          18.000
  21011062.351 8 110413911.673 8  86036838.90446  21011061.534 5  21011064.829 6
        51.000          40.000
 12  9 20  0 43 30.0000000  0  9G08G13G02G23G05G26G07G16G10
  21674616.769 8 113900909.078 8  88753971.82045  21674615.998 5  21674619.784 5
        50.000          39.000
  21857818.744 7 114863671.707 7  89504196.67944  21857818.878 4  21857820.576 4
        49.000          34.000
  22940856.553 6 120555031.968 6  93938996.89943  22940856.485 3  22940857.158 3
        44.000          29.000
  24786172.447 5 130252287.877 5 101495319.40341  24786172.934 1  24786175.220 1
        36.000          15.000
  21502337.502 8 112995569.382 8  88048514.16846  21502337.292 6  21502339.329 6
        50.000          41.000
  23715304.271 6 124624777.998 6  97110233.35942  23715303.626 2  23715307.077 2
        41.000          23.000
  20526041.584 8 107865100.727 8  84050763.04146  20526041.564 6  20526043.214 6
        51.000          43.000
  23935530.205 5 125782090.994 5  98012030.96241  23935530.871 1  23935533.808 1
        38.000          19.000
  21023349.961 8 110478481.066 8  86087152.70346  21023348.719 6  21023352.121 6
        51.000          40.000
 12  9 20  0 44  0.0000000  0  9G08G13G02G23G05G26G07G16G10
  21660095.336 8 113824598.078 8  88694508.74545  21660094.604 5  21660098.150 5
        51.000          39.000
  21873755.499 7 114947419.945 7  89569455.03744  21873755.189 4  21873757.431 4
        49.000          34.000
  22955779.520 6 120633449.240 6  94000101.21343  22955778.819 3  22955780.179 3
        44.000          29.000
  24806218.067 5 130357615.587 5 101577392.88041  24806218.115 1  24806219.589 1
        37.000          15.000
  21492059.972 8 112941562.934 8  88006431.22746  21492060.232 6  21492062.222 6
        51.000          41.000
  23693415.260 6 124509747.980 6  97020599.59042  23693414.177 2  23693417.575 2
        41.000          23.000
  20526710.171 8 107868615.253 8  84053501.65546  20526710.395 6  20526712.044 6
        52.000          44.000
  23947837.230 5 125846758.426 5  98062421.19941  23947836.421 1  23947839.562 1
        38.000          18.000
  21035727.367 8 110543524.500 8  86137835.88146  21035726.100 6  21035729.403 6
        51.000          40.000
 12  9 20  0 44 30.0000000  0  9G08G13G02G23G05G26G07G16G10
  21645648.281 8 113748678.603 8  88635350.75545  21645647.594 5  21645651.022 5
        51.000          39.000
  21889744.106 7 115031442.323 7  89634927.01644  21889744.245 4  21889746.129 4
        48.000          34.000
  22970773.901 7 120712250.102 7  94061504.45543  22970774.201 3  22970775.614 3
        45.000          29.000
  24826274.742 5 130463013.072 5 101659520.73541  24826274.563 1  24826273.738 1
        38.000          15.000
  21481873.908 8 112888035.038 8  87964721.21246  21481874.177 6  21481876.258 6
        51.000          41.000
  23671551.924 6 124394858.573 6  96931075.38342  23671550.615 2  23671553.732 2
        41.000          22.000
  20527484.590 8 107872684.101 8  84056672.19546  20527484.606 6  20527486.316 6
        51.000          44.000
  23960239.267 5 125911934.434 5  98113207.72541  23960239.688 1  23960242.285 1
        38.000          18.000
  21048193.952 8 110609040.409 8  86188887.22346  21048193.021 5  21048196.889 6
        51.000          40.000
 12  9 20  0 45  0.0000000  0  9G08G13G02G23G05G26G07G16G10
  21631275.885 8 113673152.425 8  88576499.22745  21631275.324 5  21631278.553 5
        52.000          39.000
  21905785.395 7 115115737.611 7  89700611.63844  21905785.279 4  21905786.818 4
        48.000          34.000
  22985841.317 6 120791431.729 6  94123204.37443  22985841.355 3  22985842.964 3
        43.000          28.000
  24846343.850 5 130568478.950 5 101741701.90241  24846342.113 1  24846345.931 1
        38.000          14.000
  21471779.249 8 112834987.399 8  87923385.41846  21471779.370 6  21471781.562 6
        51.000          41.000
  23649716.262 6 124280111.252 6  96841661.86242  23649715.740 2  23649718.495 2
        42.000          22.000
  20528364.626 8 107877306.678 8  84060274.21046  20528364.381 6  20528366.030 6
        52.000          44.000
  23972738.561 5 125977616.495 5  98164388.60041  23972738.211 1  23972739.635 1
        39.000          18.000
  21060751.035 8 110675027.222 8  86240305.50446  21060749.889 5  21060753.756 6
        51.000          40.000
 12  9 20  0 45 30.0000000  0  9G08G13G02G23G05G26G07G16G10
  21616979.004 8 113598020.846 8  88517955.15845  21616978.357 5  21616981.764 5
        51.000          39.000
  21921878.197 7 115200304.034 7  89766507.54344  21921878.218 4  21921879.439 4
        49.000          34.000
  23000981.903 6 120870991.254 6  94185198.79043  23000981.166 3  23000981.864 3
        44.000          28.000
  24866426.539 5 130674012.416 5 101823935.69841  24866427.024 1  24866425.371 1
        38.000          13.000
  21461776.506 8 112782422.171 8  87882425.50546  21461776.539 6  21461778.755 6
        51.000          41.000
  23627908.013 6 124165507.893 6  96752360.54142  23627907.380 2  23627911.124 2
        42.000          22.000
  20529349.086 8 107882482.498 8  84064307.31646  20529349.129 6  20529350.886 6
        51.000          43.000
  23985333.397 5 126043802.494 5  98215961.97041  23985334.167 1  23985335.214 1
        39.000          17.000
  21073397.284 8 110741483.522 8  86292089.61245  21073396.134 6  21073400.050 5
        51.000          39.000
 12  9 20  0 46  0.0000000  0  9G08G13G02G23G05G26G07G16G10
  21602757.130 8 113523285.384 8  88459719.74245  21602756.636 5  21602760.053 5
        51.000          39.000
  21938021.989 7 115285140.244 7  89832613.67344  21938021.961 4  21938023.553 4
        49.000          34.000
  23016192.618 7 120950925.524 7  94247485.19343  23016192.134 3  23016193.459 3
        45.000          28.000
  24886522.300 5 130779612.197 5 101906221.20441  24886520.894 1  24886521.552 1
        38.000          13.000
  21451865.519 8 112730341.018 8  87841842.77246  21451865.904 6  21451867.981 6
        50.000          41.000
  23606126.994 6 124051050.175 6  96663172.71942  23606127.202 2  23606130.069 2
        42.000          22.000
  20530439.340 8 107888210.885 8  84068770.99846  20530439.242 6  20530441.109 6
        52.000          44.000
  23998023.901 6 126110489.947 6  98267926.19341  23998023.255 1  23998026.038 1
        40.000          19.000
  21086132.810 8 110808407.226 8  86344237.93246  21086131.497 6  21086135.055 6
        51.000          40.000
 12  9 20  0 46 30.0000000  0  9G08G13G02G23G05G26G07G16G10
  21588611.283 8 113448947.837 8  88401794.39345  21588610.359 5  21588613.892 5
        50.000          39.000
  21954216.797 7 115370244.655 7  89898928.79344  21954216.582 4  21954218.195 4
        48.000          34.000
  23031473.969 7 121031232.023 7  94310061.65043  23031473.934 3  23031475.407 3
        45.000          29.000
  24906627.622 5 130885277.306 5 101988557.60541  24906628.863 1  24906629.138 1
        37.000          14.000
  21442047.503 8 112678746.058 8  87801638.92646  21442047.755 6  21442049.570 6
        50.000          41.000
  23584374.817 6 123936739.735 6  96574099.65042  23584374.314 2  23584377.669 2
        41.000          22.000
  20531634.098 8 107894491.154 8  84073664.72346  20531634.309 6  20531636.198 6
        51.000          43.000
  24010808.976 5 126177676.730 5  98320279.48941  24010809.707 1  24010811.165 1
        38.000          18.000
  21098956.344 8 110875797.048 8  86396749.46245  21098955.400 5  21098959.153 5
        51.000          39.000
 12  9 20  0 47  0.0000000  0  9G08G13G02G23G05G26G07G16G10
  21574541.140 8 113375009.575 8  88344180.17245  21574540.503 5  21574543.891 5
        51.000          39.000
  21970462.163 7 115455615.900 7  89965451.82244  21970461.926 4  21970463.969 4
        48.000          33.000
  23046826.710 6 121111907.725 6  94372925.80043  23046826.573 3  23046827.609 3
        44.000          28.000
  24926747.565 5 130991006.485 5 102070943.91541  24926747.532 1  24926748.227 1
        38.000          15.000
  21432322.151 8 112627638.599 8  87761814.93646  21432322.177 6  21432324.070 6
        51.000          41.000
  23562650.261 6 123822578.268 6  96485142.71142  23562650.556 2  23562652.547 2
        41.000          22.000
  20532934.326 8 107901322.781 8  84078988.06946  20532934.300 6  20532936.235 6
        52.000          44.000
  24023689.648 6 126245360.295 6  98373019.85842  24023689.543 2  24023692.112 2
        40.000          20.000
  21111868.562 8 110943650.991 8  86449622.64546  21111867.709 5  21111871.256 6
        51.000          40.000
 12  9 20  0 47 30.0000000  0  9G08G13G02G23G05G26G07G16G10
  21560547.542 8 113301472.465 8  88286878.54545  21560546.883 5  21560550.488 5
        52.000          39.000
  21986758.024 7 115541252.551 7  90032181.67044  21986758.471 4  21986759.922 4
        48.000          33.000
  23062248.289 6 121192949.562 6  94436075.23443  23062248.042 3  23062249.277 3
        43.000          28.000
  24946880.427 5 131096798.562 5 102153379.21241  24946880.089 1  24946880.478 1
        38.000          14.000
  21422689.604 8 112577021.063 8  87722372.69446  21422690.103 6  21422692.159 6
        51.000          41.000
  23540955.378 6 123708567.477 6  96396303.20542  23540954.087 2  23540957.435 2
        41.000          22.000
  20534339.392 8 107908705.206 8  84084740.60746  20534339.234 6  20534340.960 6
        52.000          43.000
  24036663.605 6 126313538.654 6  98426145.80341  24036664.369 1  24036664.932 1
        40.000          18.000
  21124869.441 8 111011967.783 8  86502856.48945  21124868.059 5  21124871.447 5
        51.000          39.000
 12  9 20  0 48  0.0000000  0  9G08G13G02G23G05G26G07G16G10
  21546630.519 8 113228337.925 8  88229890.61645  21546629.597 5  21546633.453 5
        51.000          39.000
  22003104.673 7 115627153.263 7  90099117.27244  22003104.557 4  22003106.132 4
        48.000          33.000
  23077739.742 6 121274354.970 6  94499507.98243  23077739.234 3  23077740.447 3
        43.000          28.000
  24967023.227 5 131202652.419 5 102235862.69641  24967021.269 1  24967024.380 1
        37.000          14.000
  21413151.335 8 112526894.969 8  87683313.40646  21413151.478 6  21413153.451 6
        51.000          41.000
  23519287.945 6 123594708.913 6  96307582.28742  23519287.847 2  23519291.511 2
        41.000          22.000
  20535848.519 8 107916637.787 8  84090921.84746  20535848.764 6  20535850.441 6
        52.000          44.000
  24049731.247 6 126382209.157 6  98479655.28941  24049730.653 1  24049732.934 1
        40.000          17.000
  21137957.059 8 111080745.645 8  86556449.60746  21137955.939 5  21137959.544 6
        51.000          40.000
 12  9 20  0 48 30.0000000  0  9G08G13G02G23G05G26G07G16G10
  21532790.132 8 113155607.586 8  88173217.64045  21532789.458 5  21532793.296 5
        52.000          39.000
  22019501.204 7 115713316.559 7  90166257.49944  22019500.823 4  22019502.548 4
        48.000          33.000
  23093299.251 6 121356121.105 6  94563221.81343  23093298.705 3  23093300.348 3
        44.000          28.000
  24987179.939 5 131308567.151 5 102318393.57341  24987178.858 1  24987178.760 1
        38.000          13.000
  21403706.402 8 112477262.410 8  87644638.70546  21403706.529 6  21403708.416 6
        52.000          41.000
  23497650.476 6 123481004.337 6  96218981.39142  23497650.044 2  23497653.566 2
        41.000          23.000
  20537463.031 8 107925119.855 8  84097531.23546  20537462.875 6  20537464.485 6
        52.000          43.000
  24062890.548 6 126451369.181 6  98533546.04841  24062890.276 1  24062892.864 1
        40.000          17.000
  21151132.328 8 111149982.816 8  86610400.63646  21151131.285 5  21151134.843 6
        51.000          40.000
 12  9 20  0 49  0.0000000  0  8G08G13G02G05G26G07G16G10
  21519027.050 8 113083282.777 8  88116860.65846  21519026.566 6  21519030.332 6
        50.000          40.000
  22035947.112 7 115799741.149 7  90233601.32444  22035946.971 4  22035948.883 4
        48.000          33.000
  23108927.033 6 121438244.670 6  94627214.16243  23108925.803 3  23108927.948 3
        44.000          27.000
  21394355.991 8 112428124.666 8  87606349.56046  21394355.921 6  21394358.038 6
        51.000          41.000
  23476042.102 6 123367455.414 6  96130501.76342  23476042.253 2  23476046.070 2
        42.000          22.000
  20539181.376 8 107934150.673 8  84104568.24146  20539181.359 6  20539183.047 6
        52.000          43.000
  24076145.869 6 126521017.170 6  98587817.10341  24076144.522 1  24076147.472 1
        40.000          18.000
  21164394.900 8 111219677.454 8  86664708.12445  21164393.831 5  21164397.591 5
        51.000          39.000
 12  9 20  0 49 30.0000000  0  9G08G13G02G05G26G06G07G16G10
  21505342.082 8 113011364.858 8  88060820.73646  21505341.217 5  21505344.790 6
        51.000          40.000
  22052442.468 7 115886425.820 7  90301147.80544  22052442.642 4  22052444.297 4
        49.000          33.000
  23124621.775 6 121520723.442 6  94691483.30243  23124621.553 3  23124623.251 3
        44.000          27.000
  21385099.664 8 112379483.853 8  87568447.62846  21385099.966 6  21385101.945 6
        52.000          41.000
  23454464.751 6 123254063.899 6  96042144.79842  23454464.164 2  23454467.766 2
        41.000          22.000
  25179558.769 5 132319473.501 5 103106092.99341  25179557.508 1  25179560.789 1
        36.000          12.000
  20541004.019 8 107943729.546 8  84112032.30346  20541004.187 6  20541005.889 6
        52.000          43.000
  24089491.587 6 126591149.735 6  98642465.68441  24089488.897 1  24089491.992 1
        41.000          18.000
  21177744.022 8 111289828.247 8  86719371.05745  21177742.911 5  21177746.794 5
        51.000          39.000
 12  9 20  0 50  0.0000000  0  9G08G13G02G05G26G06G07G16G10
  21491734.403 8 112939855.531 8  88005099.19446  21491733.528 5  21491736.834 6
        51.000          40.000
  22068986.949 7 115973368.560 7  90368895.37744  22068986.896 4  22068988.893 4
        48.000          32.000
  23140383.971 6 121603553.779 6  94756026.39943  23140383.349 3  23140384.900 3
        43.000          27.000
  21375938.902 8 112331341.617 8  87530934.19746  21375938.861 6  21375940.817 6
        52.000          41.000
  23432917.958 6 123140831.480 6  95953911.79042  23432918.014 2  23432921.186 2
        41.000          22.000
  25170182.661 4 132270214.919 4 103067709.61841  25170183.010 1  25170186.590 1
        34.000          14.000
  20542931.250 8 107953855.604 8  84119922.74546  20542931.040 6  20542932.826 6
        51.000          43.000
  24102928.418 6 126661764.882 6  98697490.43541  24102927.484 1  24102929.839 1
        41.000          19.000
  21191179.809 8 111360433.094 8  86774387.80145  21191178.785 5  21191182.453 5
        51.000          39.000
 12  9 20  0 50 30.0000000  0  9G08G13G02G05G26G06G07G16G10
  21478204.182 8 112868756.321 8  87949697.22746  21478203.697 6  21478207.246 6
        52.000          40.000
  22085580.246 7 116060568.251 7  90436843.17044  22085580.434 4  22085582.581 4
        48.000          32.000
  23156212.674 6 121686733.082 6  94820841.38443  23156211.649 3  23156214.370 3
        44.000          27.000
  21366872.618 8 112283699.883 8  87493810.75646  21366872.786 6  21366874.805 6
        50.000          41.000
  23411400.978 6 123027759.848 6  95865804.06442  23411400.847 2  23411402.448 2
        41.000          22.000
  25160893.607 5 132221399.816 5 103029671.71441  25160892.895 1  25160897.153 1
        38.000          16.000
  20544961.957 8 107964528.441 8  84128239.24846  20544961.940 6  20544963.673 6
        52.000          43.000
  24116456.696 5 126732860.087 5  98752889.25741  24116457.260 1  24116461.303 1
        38.000          18.000
  21204701.816 8 111431490.426 8  86829757.13245  21204700.418 5  21204704.196 5
        50.000          39.000
 12  9 20  0 51  0.0000000  0  9G08G13G02G05G26G06G07G16G10
  21464752.686 8 112798068.644 8  87894615.94846  21464752.131 6  21464755.780 6
        51.000          40.000
  22102222.857 7 116148023.360 7  90504990.00044  22102222.678 4  22102224.666 4
        47.000          32.000
  23172106.817 6 121770258.348 6  94885925.97743  23172106.883 3  23172108.038 3
        44.000          26.000
  21357902.454 8 112236560.188 8  87457078.53346  21357902.508 6  21357904.524 6
        52.000          42.000
  23389914.584 6 122914850.769 6  95777823.01542  23389914.689 2  23389917.534 2
        41.000          22.000
  25151689.600 5 132173029.906 5 102991980.78941  25151689.941 1  25151692.067 1
        39.000          18.000
  20547097.136 8 107975747.048 8  84136981.02646  20547096.784 6  20547098.530 6
        52.000          43.000
  24130076.535 5 126804433.416 5  98808660.74541  24130076.539 1  24130080.356 1
        38.000          17.000
  21218309.302 8 111502998.515 8  86885477.70545  21218307.938 5  21218311.610 5
        51.000          39.000
 12  9 20  0 51 30.0000000  0  9G08G13G02G05G26G06G07G16G10
  21451379.906 8 112727793.892 8  87839856.43146  21451379.200 6  21451382.906 6
        51.000          40.000
  22118913.327 7 116235732.662 7  90573334.89544  22118913.423 4  22118915.132 4
        47.000          32.000
  23188065.571 6 121854126.887 6  94951278.05743  23188065.887 3  23188067.393 3
        43.000          26.000
  21349028.087 8 112189924.401 8  87420738.98246  21349028.063 6  21349030.022 6
        52.000          42.000
  23368460.343 6 122802105.847 6  95689969.89542  23368460.634 2  23368463.045 2
        40.000          22.000
  25142571.560 5 132125107.909 5 102954638.89541  25142570.444 1  25142574.485 1
        38.000          17.000
  20549335.234 8 107987510.745 8  84146147.55046  20549335.401 6  20549337.095 6
        51.000          44.000
  24143787.843 5 126876481.352 5  98864801.67941  24143787.168 1  24143790.331 1
        39.000          18.000
  21232001.935 8 111574955.466 8  86941548.04245  21232000.932 5  21232004.536 5
        50.000          39.000
 12  9 20  0 52  0.0000000  0  9G08G13G02G05G26G06G07G16G10
  21438086.270 8 112657933.890 8  87785420.09946  21438085.394 6  21438088.999 6
        51.000          40.000
  22135652.195 7 116323694.478 7  90641876.55244  22135651.975 4  22135654.037 4
        48.000          32.000
  23204090.194 6 121938335.375 6  95016895.00243  23204090.135 3  23204092.183 3
        43.000          26.000
  21340249.733 8 112143794.445 8  87384793.57346  21340249.741 6  21340251.793 6
        51.000          42.000
  23347036.700 6 122689526.824 6  95602246.05142  23347036.682 2  23347040.566 2
        42.000          24.000
  25133536.746 5 132077635.494 5 102917647.43841  25133535.601 1  25133540.909 1
        37.000          16.000
  20551677.586 8 107999818.992 8  84155738.39646  20551677.515 6  20551679.248 6
        51.000          43.000
  24157587.744 5 126949002.399 5  98921311.45141  24157586.569 1  24157590.282 1
        39.000          17.000
  21245779.981 8 111647359.574 8  86997966.80745  21245779.116 5  21245782.759 5
        51.000          39.000
 12  9 20  0 52 30.0000000  0  9G08G13G02G05G26G06G07G16G10
  21424871.476 8 112588490.137 8  87731308.12146  21424870.717 6  21424874.301 6
        52.000          40.000
  22152438.118 7 116411907.565 7  90710614.00044  22152438.100 4  22152440.644 4
        47.000          32.000
  23220179.588 6 122022881.088 6  95082774.74143  23220178.680 3  23220180.467 3
        44.000          26.000
  21331567.611 8 112098171.767 8  87349243.42546  21331567.971 6  21331570.031 6
        51.000          42.000
  23325645.022 6 122577115.481 6  95514652.84442  23325645.652 2  23325647.972 2
        42.000          24.000
  25124588.330 5 132030614.860 5 102881008.08641  25124587.742 1  25124591.746 1
        36.000          15.000
  20554123.219 8 108012670.598 8  84165752.63846  20554123.046 6  20554124.876 6
        52.000          43.000
  24171478.477 5 127021994.015 5  98978188.07741  24171477.868 1  24171481.161 1
        39.000          19.000
  21259642.896 8 111720209.028 8  87054732.60045  21259641.841 5  21259645.611 5
        50.000          38.000
 12  9 20  0 53  0.0000000  0  9G08G13G02G05G26G06G07G16G10
  21411736.220 8 112519463.727 8  87677521.32946  21411735.292 6  21411738.961 6
        50.000          40.000
  22169272.134 7 116500370.636 7  90779546.24644  22169271.968 4  22169274.148 4
        47.000          32.000
  23236331.756 6 122107760.958 6  95148914.86643  23236331.043 3  23236332.211 3
        43.000          26.000
  21322982.958 8 112053058.015 8  87314089.86146  21322983.141 6  21322985.212 6
        51.000          41.000
  23304286.199 6 122464873.504 6  95427191.62542  23304286.900 2  23304290.091 2
        43.000          24.000
  25115726.182 5 131984047.392 5 102844721.70441  25115726.741 1  25115731.353 1
        36.000          11.000
  20556671.830 8 108026064.943 8  84176189.79646  20556671.831 6  20556673.668 6
        51.000          44.000
  24185456.904 5 127095453.458 5  99035429.22841  24185456.035 1  24185459.111 1
        38.000          19.000
  21273590.233 8 111793502.176 8  87111844.12145  21273588.972 5  21273592.630 5
        50.000          39.000
 12  9 20  0 53 30.0000000  0 10G08G13G02G03G05G26G06G07G16G10
  21398680.101 8 112450856.215 8  87624060.97246  21398679.768 6  21398683.364 6
        52.000          40.000
  22186153.933 7 116589082.343 7  90848672.23744  22186153.494 4  22186155.912 4
        46.000          32.000
  23252547.048 6 122192972.065 6  95215313.11043  23252546.083 3  23252547.861 3
        44.000          26.000
  24826065.822 5 130461861.177 5
        36.000
  21314495.404 8 112008454.980 8  87279334.26446  21314495.591 6  21314497.329 6
        52.000          42.000
  23282960.281 6 122352802.592 6  95339863.68443  23282960.373 3  23282963.445 3
        43.000          25.000
  25106952.456 5 131937935.625 5 102808790.37841  25106950.872 1  25106954.235 1
        37.000          12.000
  20559323.523 8 108040001.022 8  84187049.08146  20559323.823 6  20559325.616 6
        52.000          43.000
  24199525.690 5 127169378.217 5  99093032.93041  24199524.242 1  24199526.276 1
        39.000          18.000
  21287620.853 8 111867237.317 8  87169300.05445  21287620.297 5  21287624.159 5
        50.000          39.000
 12  9 20  0 54  0.0000000  0 10G08G13G02G03G05G26G06G07G16G10
  21385705.288 8 112382669.012 8  87570928.11846  21385704.250 6  21385707.629 6
        52.000          41.000
  22203081.547 7 116678040.353 7  90917990.13744  22203081.704 4  22203084.125 4
        47.000          32.000
  23268824.594 6 122278511.477 6  95281967.15143  23268823.831 3  23268825.245 3
        43.000          26.000
  24812925.578 5 130392806.426 5
        35.000
  21306105.106 8 111964364.426 8  87244977.99746  21306105.433 6  21306107.083 6
        52.000          42.000
  23261667.258 6 122240904.445 6  95252670.36142  23261667.164 2  23261670.010 2
        42.000          24.000
  25098264.820 5 131892281.070 5 102773215.18641  25098264.775 1  25098266.029 1
        35.000          10.000
  20562079.023 8 108054478.032 8  84198329.87446  20562078.731 6  20562080.398 6
        52.000          44.000
  24213680.559 6 127243766.009 6  99150997.51941  24213680.079 1  24213681.855 1
        41.000          19.000
  21301736.132 8 111941412.222 8  87227098.66045  21301735.217 5  21301739.124 5
        51.000          38.000
 12  9 20  0 54 30.0000000  0 10G08G13G02G03G05G26G06G07G16G10
  21372809.262 8 112314903.472 8  87518123.83746  21372808.781 6  21372812.314 6
        52.000          40.000
  22220057.084 7 116767244.419 7  90987499.76944  22220056.647 4  22220058.732 4
        47.000          32.000
  23285163.563 6 122364376.251 6  95348874.72643  23285163.501 3  23285164.914 3
        43.000          26.000
  24799866.607 5 130324174.830 5 101551320.06741  24799864.664 1  24799867.337 1
        38.000          11.000
  21297812.730 8 111920787.861 8  87211022.22746  21297813.008 6  21297814.756 6
        51.000          41.000
  23240407.249 6 122129180.910 6  95165613.09943  23240407.292 3  23240409.862 3
        44.000          25.000
  25089665.498 4 131847086.306 4 102737998.37441  25089662.798 1  25089667.855 1
        32.000           8.000
  20564936.377 8 108069495.333 8  84210031.67146  20564936.410 6  20564938.140 6
        51.000          43.000
  24227923.076 5 127318613.582 5  99209320.16241  24227923.660 1  24227923.949 1
        39.000          19.000
  21315934.967 8 112016025.161 8  87285238.59245  21315933.666 5  21315937.410 5
        50.000          39.000
 12  9 20  0 55  0.0000000  0 10G08G13G02G03G05G26G06G07G16G10
  21359994.490 8 112247561.247 8  87465649.40546  21359993.978 6  21359997.473 6
        52.000          40.000
  22237079.002 7 116856692.570 7  91057199.58744  22237078.329 4  22237080.156 4
        47.000          32.000
  23301565.340 6 122450563.360 6  95416033.46443  23301564.289 3  23301565.344 3
        43.000          26.000
  24786887.167 5 130255969.745 5 101498173.36341  24786885.221 1  24786891.357 1
        38.000           8.000
  21289619.026 8 111877727.041 8  87177468.35646  21289618.896 6  21289620.700 6
        52.000          42.000
  23219181.001 6 122017633.667 6  95078693.23443  23219180.019 2  23219183.056 3
        42.000          25.000
  25081153.452 4 131802352.767 4 102703140.99941  25081148.212 1  25081155.045 1
        34.000          10.000
  20567896.670 8 108085052.047 8  84222153.79246  20567896.750 6  20567898.513 6
        52.000          44.000
  24242253.582 5 127393918.867 5  99267999.50841  24242252.939 1  24242255.882 1
        38.000          19.000
  21330216.450 8 112091074.607 8  87343718.65745  21330215.205 5  21330218.980 5
        50.000          39.000
 12  9 20  0 55 30.0000000  0 10G08G13G02G03G05G26G06G07G16G10
  21347260.485 8 112180643.618 8  87413505.82446  21347259.925 6  21347263.405 6
        52.000          40.000
  22254146.368 7 116946383.481 7  91127088.57544  22254146.059 4  22254147.761 4
        48.000          31.000
  23318025.825 6 122537069.867 6  95483441.08743  23318025.838 3  23318027.729 3
        43.000          26.000
  24773988.946 5 130188193.796 5 101445360.91941  24773985.910 1  24773993.303 1
        37.000          10.000
  21281523.009 8 111835183.595 8  87144317.62946  21281523.070 6  21281524.974 6
        51.000          42.000
  23197987.884 6 121906264.569 6  94991912.17643  23197987.058 3  23197990.273 3
        44.000          25.000
  25072726.757 4 131758082.869 4 102668645.02441  25072728.080 1  25072732.659 1
        32.000           8.000
  20570959.638 8 108101147.185 8  84234695.48646  20570959.636 6  20570961.311 6
        52.000          43.000
  24256670.317 5 127469679.350 5  99327033.61742  24256669.174 2  24256672.828 2
        38.000          20.000
  21344580.833 8 112166558.486 8  87402537.24345  21344579.471 5  21344583.248 5
        50.000          38.000
 12  9 20  0 56  0.0000000  0 10G08G13G02G03G05G26G06G07G16G10
  21334607.505 8 112114151.964 8  87361694.17146  21334606.985 6  21334610.392 6
        51.000          40.000
  22271260.031 7 117036315.583 7  91197165.50444  22271259.659 4  22271261.218 4
        47.000          31.000
  23334547.892 6 122623892.723 6  95551095.24643  23334548.268 3  23334549.575 3
        43.000          27.000
  24761174.038 5 130120849.917 5 101392885.19841  24761174.005 1  24761175.993 1
        38.000           9.000
  21273525.907 8 111793159.273 8  87111571.41746  21273526.032 6  21273528.004 6
        51.000          42.000
  23176828.015 6 121795075.142 6  94905271.12543  23176827.901 3  23176831.515 3
        43.000          25.000
  25064391.565 4 131714278.103 4 102634511.36041  25064391.439 1  25064397.700 1
        34.000           5.000
  20574124.829 8 108117779.772 8  84247655.94546  20574124.776 6  20574126.494 6
        51.000          44.000
  24271171.933 5 127545892.382 5  99386420.30441  24271171.861 2  24271175.487 1
        38.000          19.000
  21359026.952 8 112242475.162 8  87461693.07545  21359025.825 5  21359029.597 5
        50.000          39.000
 12  9 20  0 56 30.0000000  0 10G08G13G02G03G05G26G06G07G16G10
  21322036.298 8 112048087.828 8  87310215.65946  21322035.277 6  21322038.795 6
        52.000          41.000
  22288418.433 7 117126487.648 7  91267429.44244  22288418.709 4  22288420.119 4
        47.000          31.000
  23351129.867 6 122711028.883 6  95618993.48343  23351129.389 3  23351131.294 3
        44.000          27.000
  24748443.042 5 130053940.908 5 101340748.28741  24748440.710 1  24748446.797 1
        38.000           9.000
  21265627.606 8 111751655.498 8  87079230.80146  21265628.014 6  21265630.039 6
        52.000          41.000
  23155703.960 6 121684067.269 6  94818771.54743  23155704.141 3  23155707.735 3
        43.000          25.000
  25056144.696 5 131670940.490 5 102600741.82941  25056148.080 1  25056156.548 1
        36.000           7.000
  20577391.738 8 108134949.131 8  84261034.67446  20577391.906 6  20577393.649 6
        52.000          43.000
  24285761.250 5 127622555.397 5  99446157.62441  24285760.837 1  24285765.258 1
        38.000          19.000
  21373555.395 8 112318822.547 8  87521184.52345  21373554.471 5  21373558.094 5
        51.000          38.000
 12  9 20  0 57  0.0000000  0 10G08G13G02G03G05G26G06G07G16G10
  21309546.121 8 111982452.151 8  87259071.00146  21309545.229 6  21309548.774 6
        51.000          41.000
  22305623.647 7 117216898.262 7  91337879.22844  22305623.446 4  22305625.193 4
        47.000          31.000
  23367770.301 6 122798475.368 6  95687133.57243  23367770.083 3  23367771.674 3
        44.000          26.000
  24735791.186 5 129987469.295 5 101288952.31341  24735790.879 1  24735793.909 1
        36.000          10.000
  21257829.666 8 111710674.097 8  87047297.23846  21257829.635 6  21257831.610 6
        52.000          42.000
  23134615.071 6 121573242.670 6  94732414.78043  23134614.644 3  23134617.482 3
        43.000          25.000
  25047987.118 4 131628071.792 4 102567337.76941  25047986.354 1  25047993.204 1
        31.000           1.000
  20580760.750 8 108152653.998 8  84274830.67746  20580761.008 6  20580762.710 6
        51.000          43.000
  24300435.515 6 127699666.021 6  99506243.73442  24300435.615 1  24300437.027 2
        40.000          20.000
  21388165.280 8 112395598.615 8  87581010.00945  21388164.312 5  21388168.059 5
        50.000          38.000
 12  9 20  0 57 30.0000000  0  9G08G13G02G03G05G26G07G16G10
  21297137.733 8 111917246.515 8  87208261.44546  21297137.123 6  21297140.440 6
        53.000          41.000
  22322872.982 7 117307546.064 7  91408513.84044  22322872.520 4  22322874.483 4
        47.000          31.000
  23384469.137 6 122886229.293 6  95755513.20043  23384468.970 3  23384470.633 3
        44.000          26.000
  24723225.727 5 129921438.368 5 101237499.57941  24723227.502 1  24723224.252 1
        35.000           7.000
  21250130.730 8 111670216.312 8  87015771.69146  21250130.879 6  21250132.758 6
        51.000          42.000
  23113560.839 6 121462603.247 6  94646202.29243  23113561.004 3  23113563.979 3
        42.000          25.000
  20584231.971 8 108170893.536 8  84289043.31446  20584231.832 6  20584233.501 6
        52.000          43.000
  24315193.081 6 127777221.649 6  99566676.67242  24315193.220 2  24315196.062 2
        41.000          20.000
  21402857.087 8 112472801.762 8  87641168.28545  21402855.654 5  21402859.521 5
        50.000          38.000
 12  9 20  0 58  0.0000000  0  9G08G13G02G03G05G26G07G16G10
  21284811.841 8 111852472.436 8  87157788.15746  21284810.803 6  21284814.409 6
        52.000          41.000
  22340167.054 7 117398429.698 7  91479332.22244  22340167.330 4  22340169.481 4
        47.000          31.000
  23401225.231 6 122974287.536 6  95824129.95243  23401225.659 3  23401227.959 3
        42.000          25.000
  24710746.758 5 129855850.651 5 101186392.20641  24710744.327 1  24710749.565 1
        38.000          10.000
  21242531.652 8 111630284.055 8  86984655.66146  21242532.000 6  21242533.768 6
        51.000          42.000
  23092542.363 6 121352150.506 6  94560135.29343  23092541.868 3  23092544.436 3
        43.000          25.000
  20587804.394 8 108189667.035 8  84303672.02046  20587804.361 6  20587806.090 6
        52.000          43.000
  24330035.955 6 127855219.808 6  99627454.57342  24330035.400 2  24330039.016 2
        41.000          20.000
  21417629.144 8 112550430.187 8  87701657.94445  21417627.895 5  21417631.707 5
        50.000          38.000
 12  9 20  0 58 30.0000000  0  9G08G13G02G03G05G26G07G16G10
  21272567.868 8 111788131.030 8  87107652.02446  21272567.086 6  21272570.653 6
        52.000          41.000
  22357506.600 7 117489547.355 7  91550332.94744  22357506.657 4  22357508.494 4
        47.000          31.000
  23418039.578 6 123062646.967 6  95892981.40943  23418039.829 3  23418041.342 3
        43.000          25.000
  24698351.690 5 129790709.297 5 101135632.62741  24698348.974 1  24698354.035 1
        37.000          13.000
  21235033.040 8 111590878.786 8  86953950.27346  21235033.410 6  21235035.129 6
        52.000          42.000
  23071560.359 6 121241886.406 6  94474215.28843  23071559.789 3  23071562.886 3
        44.000          25.000
  20591478.081 8 108208973.481 8  84318716.01346  20591478.115 6  20591479.993 6
        51.000          43.000
  24344962.642 6 127933657.755 6  99688575.23242  24344961.913 2  24344964.142 2
        40.000          20.000
  21432481.645 8 112628482.090 8  87762477.59145  21432480.561 5  21432484.351 5
        50.000          38.000
 12  9 20  0 59  0.0000000  0  9G08G13G02G03G05G26G07G16G10
  21260406.610 8 111724223.496 8  87057853.97246  21260406.007 6  21260409.259 6
        53.000          41.000
  22374890.350 7 117580898.054 7  91621515.27244  22374890.250 4  22374892.574 4
        46.000          31.000
  23434911.602 6 123151304.594 6  95962065.24743  23434911.225 3  23434912.407 3
        42.000          25.000
  24686039.130 5 129726016.926 5 101085223.11341  24686040.665 1  24686042.071 1
        38.000          13.000
  21227635.538 8 111552002.144 8  86923656.78146  21227635.472 6  21227637.318 6
        53.000          42.000
  23050613.154 6 121131812.613 6  94388443.55943  23050613.254 3  23050616.566 3
        42.000          25.000
  20595252.965 8 108228811.501 8  84334174.21346  20595253.183 6  20595255.000 6
        51.000          43.000
  24359969.798 6 128012532.546 6  99750036.15141  24359970.104 1  24359973.546 1
        40.000          19.000
  21447414.190 8 112706955.136 8  87823625.40445  21447413.543 5  21447417.262 5
        51.000          38.000
 12  9 20  0 59 30.0000000  0  9G08G13G02G03G05G26G07G16G10
  21248328.298 8 111660751.491 8  87008395.29746  21248327.651 6  21248330.693 6
        52.000          41.000
  22392318.123 7 117672480.152 7  91692877.90544  22392318.045 4  22392319.610 4
        47.000          30.000
  23451838.531 6 123240257.807 6  96031379.37843  23451838.169 3  23451840.115 3
        43.000          25.000
  24673814.461 5 129661775.927 5 101035165.12441  24673815.119 1  24673818.792 1
        37.000          10.000
  21220338.210 8 111513655.300 8  86893776.12946  21220338.208 6  21220340.224 6
        51.000          42.000
  23029703.712 6 121021930.938 6  94302821.52443  23029703.238 3  23029706.412 3
        44.000          25.000
  20599129.120 8 108249180.240 8  84350045.96346  20599129.210 6  20599130.881 6
        50.000          43.000
  24375062.475 6 128091841.847 6  99811835.54441  24375061.640 1  24375064.749 1
        40.000          18.000
  21462427.442 7 112785847.892 7  87885100.25445  21462426.558 5  21462430.378 5
        49.000          38.000
