     2.11           Observation         G (GPS)             RINEX VERSION / TYPE
gl_Rinex            RinexArchive        09/08/2011 00:19:00 PGM / RUN BY / DATE
NYA1                                                        MARKER NAME
10317M003                                                   MARKER NUMBER
                    Norwegian Mapping Authority             OBSERVER / AGENCY
4843K33429          TRIMBLE NETR8       4.03                REC # / TYPE / VERS
CRG0117             ASH701073.1     SNOW                    ANT # / TYPE
  1202434.1303   252632.2212  6237772.4351                  APPROX POSITION XYZ
         0.000         0.000         0.000                  ANTENNA: DELTA H/E/N
    30.000                                                  INTERVAL
     1     1                                                WAVELENGTH FACT L1/2
     0                                                      RCV CLOCK OFFS APPL
    15                                                      # OF SATELLITES
     7    C1    P2    L1    L2    D1    S1    S2            # / TYPES OF OBSERV
  2011     8     8     0     0    0.0000000     GPS         TIME OF FIRST OBS
  2011     8     8    23    59   30.0000000     GPS         TIME OF LAST OBS
                                                            END OF HEADER
 11  8  8  0  0  0.0000000  0 10G23G20G31G04G14G25G17G32G24G12        .000276265
  24645707.36605  24645713.52441 129514042.08905 100920091.80741      5502.53905
        37.000          21.000
  21039937.18409  21039942.48846 110565648.73809  86155081.23846      2459.51709
        49.000          41.000
  23044406.89207  23044413.07644 121099169.99807  94363046.64344      4177.20207
        44.000          32.000
  23015394.08407  23015400.71842 120946689.06207  94244251.38542      4796.48907
        44.000          27.000
  23316295.46007  23316301.83642 122527868.83907  95476368.15042     -1316.14307
        43.000          26.000
  23682033.05307  23682042.18943 124449909.84007  96974020.93943      4253.27607
        44.000          29.000
  22234967.55308  22234973.64745 116845522.27608  91048552.75445        64.89708
        48.000          36.000
  21509207.78708  21509213.69346 113031585.51208  88076667.16046       594.45808
        48.000          39.000
  23032229.42807  23032236.65843 121035221.69507  94313199.79643     -1576.10307
        43.000          29.000
  22651973.18608  22651979.43244 119036902.89508  92756101.09544      2157.91008
        45.000          34.000
 11  8  8  0  0 30.0000000  0 10G23G20G31G04G14G25G17G32G24G12        .000244601
  24614308.86705  24614315.40041 129349043.07705 100791521.38741      5497.84205
        38.000          20.000
  21025956.24909  21025961.44746 110492179.05109  86097832.18046      2438.83309
        49.000          41.000
  23020606.22807  23020611.86444 120974093.74107  94265584.59244      4161.49907
        44.000          32.000
  22988049.53307  22988055.99043 120802991.57907  94132279.41543      4783.56407
        43.000          28.000
  23323845.28007  23323852.38142 122567546.68207  95507285.89642     -1328.60807
        42.000          26.000
  23657796.81607  23657805.96043 124322548.94307  96874778.68843      4237.67107
        43.000          28.000
  22234652.24208  22234658.49245 116843866.74008  91047262.73745        45.77608
        48.000          37.000
  21505866.59309  21505872.74545 113014028.98609  88062986.64145       576.30409
        49.000          38.000
  23041258.17508  23041265.16343 121082665.54108  94350168.90443     -1586.50408
        45.000          29.000
  22639717.87408  22639724.21044 118972501.65908  92705918.32744      2135.75208
        45.000          34.000
 11  8  8  0  1  0.0000000  0 10G23G20G31G04G14G25G17G32G24G12        .000212933
  24582934.71306  24582937.56441 129184161.96006 100663042.54141      5493.64206
        40.000          19.000
  21012089.21609  21012094.77746 110419308.75809  86041050.14746      2418.55009
        49.000          40.000
  22996891.34607  22996896.69744 120849470.10907  94168475.26744      4146.05007
        44.000          32.000
  22960774.96707  22960781.62442 120659665.12207  94020596.47842      4770.85407
        42.000          26.000
  23331463.01807  23331469.69742 122607576.50607  95538477.91642     -1340.59107
        42.000          26.000
  23633646.45307  23633655.63043 124195637.82507  96775886.93743      4222.36807
        44.000          28.000
  22234442.73008  22234448.92645 116842766.09308  91046405.09245        27.02608
        47.000          36.000
  21502625.63709  21502631.98845 112996996.23109  88049714.07145       558.59909
        49.000          38.000
  23050341.63607  23050349.06243 121130401.29607  94387365.55743     -1596.39607
        44.000          29.000
  22627584.96508  22627591.21644 118908741.64908  92656235.23144      2114.19408
        45.000          34.000
 11  8  8  0  1 30.0000000  0 10G23G20G31G04G14G25G17G32G24G12        .000181271
  24551583.55805  24551589.36941 129019417.66105 100534670.18941      5489.90705
        36.000          19.000
  20998339.68809  20998345.23646 110347055.31309  85984748.79846      2398.52509
        49.000          40.000
  22973265.69308  22973271.49344 120725318.24908  94071733.52344      4130.95708
        45.000          32.000
  22933575.04507  22933582.28042 120516729.55207  93909218.17642      4758.47207
        43.000          26.000
  23339149.80607  23339156.72142 122647972.88007  95569955.59742     -1352.24107
        42.000          26.000
  23609585.53808  23609594.49343 124069195.92808  96677360.80443      4207.27508
        45.000          29.000
  22234341.82108  22234347.82145 116842234.97008  91045991.21145         8.63808
        46.000          36.000
  21499487.18509  21499493.46645 112980503.66609  88036862.72245       541.19609
        49.000          38.000
  23059483.31807  23059491.20243 121178443.78807  94424801.36943     -1606.06407
        43.000          28.000
  22615576.96808  22615583.15444 118845639.78708  92607064.97944      2092.89108
        46.000          34.000
 11  8  8  0  2  0.0000000  0 10G23G20G31G04G14G25G17G32G24G12        .000149605
  24520258.67505  24520263.99541 128854800.15905 100406396.96941      5485.35105
        38.000          22.000
  20984705.62309  20984710.64946 110275406.12709  85928918.27246      2378.34509
        49.000          40.000
  22949728.17607  22949734.17343 120601627.07107  93975350.79243      4115.44907
        43.000          31.000
  22906447.40807  22906454.42542 120374174.17207  93798136.19242      4745.60607
        44.000          27.000
  23346904.29607  23346910.55642 122688719.84607  95601706.44342     -1363.86207
        42.000          25.000
  23585611.35807  23585620.11743 123943212.52507  96579191.95043      4191.90407
        43.000          29.000
  22234346.55308  22234352.85545 116842258.89108  91046009.83745        -9.96608
        46.000          36.000
  21496449.06409  21496454.99846 112964536.64209  88024420.92146       523.55009
        49.000          39.000
  23068681.18907  23068688.36042 121226776.28307  94462462.97642     -1615.78607
        43.000          27.000
  22603692.14508  22603698.08644 118783183.28708  92558397.60744      2071.19608
        46.000          34.000
 11  8  8  0  2 30.0000000  0 10G23G20G31G04G14G25G17G32G24G12        .000117939
  24488958.19806  24488963.26741 128690315.59706 100278227.30541      5480.89406
        39.000          21.000
  20971186.87909  20971191.88146 110204365.94509  85873562.27046      2358.20309
        49.000          41.000
  22926279.06607  22926285.14744 120478403.06607  93879332.09844      4099.96107
        44.000          33.000
  22879393.32407  22879400.91743 120232005.37407  93687355.39643      4732.94407
        43.000          28.000
  23354725.02506  23354731.48242 122729819.01906  95633731.74542     -1375.47406
        41.000          26.000
  23561726.19808  23561735.19043 123817694.12908  96481385.40743      4176.51408
        45.000          29.000
  22234457.05608  22234463.60045 116842840.18808  91046462.76045       -28.32008
        47.000          36.000
  21493510.66109  21493516.89145 112949098.15709  88012391.13445       506.22609
        49.000          38.000
  23077934.09707  23077941.54143 121275401.32907  94500352.61143     -1625.35207
        43.000          28.000
  22591930.67508  22591936.74044 118721376.71808  92510236.68244      2049.75108
        46.000          34.000
 11  8  8  0  3  0.0000000  0 10G23G20G31G04G14G25G17G32G24G12        .000086266
  24457681.05706  24457686.25441 128525954.58206 100150153.89641      5476.02006
        41.000          22.000
  20957782.50409  20957787.84746 110133923.84509  85818672.33746      2337.70509
        49.000          40.000
  22902917.79008  22902923.22444 120355636.72808  93783669.98844      4084.08708
        45.000          33.000
  22852411.74407  22852418.58043 120090214.00107  93576868.65843      4719.66307
        43.000          29.000
  23362610.38806  23362617.08242 122771256.25706  95666020.50542     -1387.17806
        41.000          25.000
  23537927.22908  23537936.68043 123692631.62408  96383934.12543      4160.78608
        45.000          30.000
  22234671.22008  22234677.65645 116843965.28408  91047339.43245       -46.94808
        47.000          36.000
  21490670.80809  21490677.35945 112934174.35509  88000762.02145       488.53009
        49.000          38.000
  23087240.40507  23087247.57743 121324304.68607  94538459.19643     -1635.13707
        43.000          29.000
  22580290.70508  22580296.98044 118660209.09108  92462573.62244      2027.94908
        46.000          34.000
 11  8  8  0  3 30.0000000  0 10G23G20G31G04G14G25G17G32G24G12        .000054597
  24426431.74106  24426436.17241 128361737.06206 100022192.24841      5471.53806
        41.000          21.000
  20944495.06609  20944500.28946 110064098.29509  85764262.82646      2317.29509
        49.000          40.000
  22879647.37207  22879652.47344 120233348.15507  93688380.12144      4068.45207
        44.000          33.000
  22825505.06307  22825512.74843 119948820.67907  93466692.14543      4706.60107
        44.000          29.000
  23370563.29807  23370569.57442 122813047.07307  95698584.75942     -1398.83807
        42.000          25.000
  23514219.48707  23514228.14143 123568045.49907  96286854.05743      4145.04407
        44.000          29.000
  22234991.59008  22234998.03145 116845650.53208  91048652.61845       -65.37608
        47.000          36.000
  21487932.16409  21487938.87845 112919782.93109  87989547.84845       470.92809
        49.000          38.000
  23096602.68107  23096609.27342 121373501.81807  94576794.61942     -1644.68807
        43.000          27.000
  22568775.83808  22568782.01444 118599698.62608  92415422.63644      2006.23008
        45.000          35.000
 11  8  8  0  4  0.0000000  0 10G23G20G31G04G14G25G17G32G24G12        .000022924
  24395207.03505  24395212.29141 128197654.58905  99894335.75841      5467.20705
        38.000          20.000
  20931322.85309  20931328.15346 109994879.20109  85710325.86346      2297.17309
        49.000          41.000
  22856465.84207  22856471.13444 120111529.41507  93593456.43244      4052.79807
        44.000          33.000
  22798673.48908  22798680.39243 119807816.96208  93356819.13643      4693.61308
        45.000          28.000
  23378579.85206  23378586.42342 122855178.19506  95731414.20242     -1410.08806
        41.000          24.000
  23490600.69507  23490609.65243 123443927.55907  96190138.84543      4129.32107
        43.000          29.000
  22235416.78308  22235422.77045 116847883.38908  91050392.49945       -83.53008
        47.000          36.000
  21485292.81909  21485299.31745 112905911.89709  87978739.21745       453.60409
        49.000          38.000
  23106016.54707  23106025.25343 121422979.78107  94615348.88543     -1654.01407
        42.000          28.000
  22557384.30607  22557390.14844 118539835.20407  92368775.81944      1984.64807
        44.000          34.000
 11  8  8  0  4 30.0000000  0 10G23G20G31G04G14G25G17G32G24G12       -.000008754
  24364009.47506  24364014.34041 128033707.48606  99766584.82841      5462.38706
        40.000          22.000
  20918266.11509  20918271.44446 109926264.90909  85656860.18646      2276.82109
        49.000          40.000
  22833373.87308  22833379.30044 119990180.23408  93498898.58444      4036.94308
        46.000          33.000
  22771914.74208  22771922.47343 119667203.55908  93247250.28843      4680.29808
        45.000          28.000
  23386661.41007  23386667.79042 122897644.64007  95764504.89842     -1421.37207
        42.000          25.000
  23467070.33908  23467079.54943 123320277.96708  96093788.54943      4113.54008
        45.000          30.000
  22235945.31508  22235951.01645 116850659.94708  91052556.04745      -101.82608
        47.000          36.000
  21482751.49909  21482758.07845 112892558.18309  87968333.91645       436.31809
        49.000          38.000
  23115485.27807  23115492.59243 121472733.91707  94654118.44543     -1663.33507
        43.000          28.000
  22546115.41108  22546121.21944 118480616.18608  92322631.13844      1962.98308
        46.000          34.000
 11  8  8  0  5  0.0000000  0 10G23G20G31G04G14G25G17G32G24G12       -.000040433
  24332839.33306  24332843.09141 127869903.03306  99638944.91641      5457.62206
        40.000          22.000
  20905325.30309  20905330.87346 109858260.85109  85603870.02746      2256.47909
        49.000          40.000
  22810372.58807  22810377.90744 119869307.69607  93404712.11244      4021.01607
        43.000          33.000
  22745233.19707  22745239.69143 119526987.50107  93137991.04343      4667.10007
        44.000          28.000
  23394806.91907  23394814.03142 122940449.33407  95797859.20942     -1432.56307
        43.000          27.000
  23443631.75707  23443640.45643 123197104.15207  95997808.97243      4097.67607
        43.000          29.000
  22236577.45908  22236583.20744 116853983.52508  91055145.84044      -119.98508
        47.000          35.000
  21480309.53009  21480315.95545 112879724.59909  87958333.74845       418.98009
        49.000          38.000
  23125006.01007  23125013.45742 121522766.83307  94693105.26142     -1672.41707
        43.000          26.000
  22534969.57008  22534976.12644 118422046.93808  92276992.77844      1941.35208
        45.000          34.000
 11  8  8  0  5 30.0000000  0 10G23G20G31G04G14G25G17G32G24G12       -.000072107
  24301697.01806  24301701.69741 127706252.47206  99511425.02241      5452.71006
        39.000          22.000
  20892502.58909  20892507.98246 109790876.25609  85551362.54146      2236.13309
        49.000          40.000
  22787463.60107  22787469.63244 119748922.83107  93310905.58844      4005.02407
        43.000          33.000
  22718628.39607  22718635.75342 119387180.48907  93029050.56242      4653.64207
        44.000          27.000
  23403017.69407  23403024.54942 122983598.24807  95831481.72842     -1443.71107
        42.000          27.000
  23420284.98007  23420293.96243 123074417.40207  95902208.92943      4081.74307
        42.000          29.000
  22237315.45808  22237321.30244 116857860.87008  91058167.15044      -138.13008
        47.000          35.000
  21477967.83009  21477974.30745 112867419.30809  87948745.27745       401.62609
        49.000          38.000
  23134581.67907  23134588.42042 121573084.79807  94732314.04342     -1681.69407
        42.000          27.000
  22523949.91108  22523955.94044 118364137.22508  92231868.34344      1919.60008
        45.000          34.000
 11  8  8  0  6  0.0000000  0 10G23G20G31G04G14G25G17G32G24G12       -.000103779
  24270585.30406  24270589.51441 127542756.33506  99384025.47741      5447.03106
        39.000          22.000
  20879797.29709  20879802.55646 109724110.17309  85499337.00446      2215.10709
        49.000          41.000
  22764648.54408  22764654.76644 119629026.47808  93217479.75944      3988.17908
        45.000          33.000
  22692101.66507  22692109.36542 119247783.19807  92920429.37842      4639.60507
        43.000          27.000
  23411293.78907  23411300.51342 123027087.23607  95865369.18642     -1455.46407
        42.000          26.000
  23397030.41808  23397040.20143 122952218.51008  95806989.02243      4065.05408
        45.000          29.000
  22238157.86708  22238164.09745 116862288.66508  91061617.39345      -156.88008
        47.000          36.000
  21475726.47009  21475732.75145 112855639.13209  87939565.90245       383.69109
        49.000          38.000
  23144210.40307  23144217.32042 121623683.99107  94771741.96542     -1691.26507
        42.000          27.000
  22513055.02108  22513061.20844 118306885.04408  92187256.26844      1897.31408
        46.000          34.000
 11  8  8  0  6 30.0000000  0 10G23G20G31G04G14G25G17G32G24G12       -.000135449
  24239501.82706  24239506.16041 127379416.23806  99256747.55841      5441.85006
        39.000          20.000
  20867209.97109  20867215.18346 109657962.23409  85447793.14646      2194.48209
        49.000          40.000
  22741926.52508  22741932.28644 119509619.91608  93124435.59944      3971.86508
        45.000          33.000
  22665654.03507  22665661.17743 119108797.11607  92812128.60143      4625.95707
        44.000          28.000
  23419633.81907  23419640.07042 123070912.78507  95899518.88142     -1466.52807
        42.000          26.000
  23373870.83807  23373880.04543 122830508.77607  95712150.27143      4048.72107
        44.000          29.000
  22239104.79108  22239110.98044 116867263.94708  91065494.20644      -175.08808
        47.000          35.000
  21473583.91609  21473590.37045 112844381.79309  87930793.94845       366.35309
        49.000          38.000
  23153891.34407  23153898.94943 121674560.98807  94811386.38943     -1700.63007
        42.000          28.000
  22502285.56308  22502291.73344 118250289.86108  92143156.13744      1875.46408
        46.000          35.000
 11  8  8  0  7  0.0000000  0 10G23G20G31G04G14G25G17G32G24G12       -.000167118
  24208448.38106  24208452.95441 127216230.35306  99129589.72941      5436.79706
        39.000          22.000
  20854739.66209  20854744.66846 109592429.00809  85396728.28946      2174.06709
        49.000          40.000
  22719296.93808  22719302.76444 119390701.86308  93031772.25444      3955.61508
        46.000          34.000
  22639283.87007  22639291.30743 118970221.36407  92704147.56243      4612.12407
        44.000          29.000
  23428036.15607  23428042.86242 123115068.96907  95933926.28842     -1477.45107
        42.000          24.000
  23350802.74307  23350811.75243 122709287.20807  95617691.91343      4032.44107
        44.000          28.000
  22240154.69808  22240161.11745 116872781.78908  91069793.79645      -193.15908
        47.000          36.000
  21471540.34809  21471546.99145 112833642.62909  87922425.75745       349.23809
        49.000          38.000
  23163624.38807  23163632.31942 121725709.80907  94851242.63542     -1709.62407
        42.000          27.000
  22491640.09308  22491646.56344 118194348.21008  92099565.23744      1853.61308
        45.000          34.000
 11  8  8  0  7 30.0000000  0 10G23G20G31G04G14G25G17G32G24G12       -.000198786
  24177425.64506  24177430.34341 127053204.25406  99002556.27441      5431.41106
        40.000          22.000
  20842386.62909  20842391.54646 109527514.27609  85346145.35646      2153.42309
        49.000          40.000
  22696761.19808  22696767.67344 119272277.12908  92939493.23644      3939.07708
        45.000          34.000
  22612992.36308  22613000.48843 118832061.13208  92596490.31843      4598.22308
        45.000          31.000
  23436502.13207  23436508.24041 123159556.11807  95968591.61541     -1488.56407
        42.000          22.000
  23327828.94307  23327838.34243 122588559.27307  95523618.20443      4015.89407
        44.000          30.000
  22241308.05408  22241314.89745 116878842.77908  91074516.62345      -211.23008
        47.000          36.000
  21469595.73109  21469601.76945 112823423.54309  87914462.91145       331.82609
        49.000          38.000
  23173410.25306  23173417.15942 121777130.85006  94891310.88142     -1718.67206
        41.000          27.000
  22481119.41108  22481125.78644 118139063.38308  92056486.17644      1831.68508
        47.000          34.000
 11  8  8  0  8  0.0000000  0 10G23G20G31G04G14G25G17G32G24G12       -.000230449
  24146434.91906  24146439.57941 126890344.12406  98875652.18841      5426.07406
        40.000          22.000
  20830151.91409  20830157.08346 109463221.68609  85296047.21346      2132.97409
        49.000          40.000
  22674321.17807  22674326.58144 119154351.80207  92847603.41544      3922.69107
        44.000          33.000
  22586781.99307  22586789.17043 118694322.79407  92489161.79243      4584.39007
        44.000          30.000
  23445030.55406  23445037.13141 123204375.51406  96003515.81941     -1499.33106
        41.000          22.000
  23304950.59807  23304959.60643 122468330.90007  95429933.77743      3999.54607
        43.000          30.000
  22242565.46408  22242571.47145 116885448.83908  91079664.20145      -229.03308
        47.000          36.000
  21467750.64609  21467756.74645 112813726.41109  87906906.72945       314.76109
        49.000          38.000
  23183247.21007  23183254.17742 121828825.71607  94931592.57642     -1727.49507
        42.000          27.000
  22470725.25808  22470731.26744 118084439.30308  92013921.95644      1810.07308
        46.000          34.000
 11  8  8  0  8 30.0000000  0 10G23G20G31G04G14G25G17G32G24G12       -.000262111
  24115473.62706  24115479.26941 126727647.35306  98748875.68341      5420.52206
        39.000          22.000
  20818035.50909  20818040.64946 109399547.01609  85246430.56246      2112.25609
        49.000          41.000
  22651975.09908  22651980.81644 119036922.76908  92756100.35044      3906.15208
        45.000          34.000
  22560651.26807  22560657.95643 118557003.36707  92382159.69243      4570.42007
        44.000          30.000
  23453621.29606  23453627.48641 123249518.93606  96038692.48341     -1510.07306
        41.000          23.000
  23282165.94507  23282175.49343 122348599.31907  95336636.48843      3982.83707
        44.000          30.000
  22243924.88308  22243931.14245 116892592.87308  91085230.97845      -247.00708
        47.000          36.000
  21466003.26309  21466009.74445 112804544.83509  87899752.20845       297.65109
        49.000          38.000
  23193135.35507  23193141.98842 121880786.54707  94972081.50642     -1736.28407
        43.000          26.000
  22460455.14408  22460461.41744 118030470.73908  91971868.53244      1788.09108
        47.000          34.000
 11  8  8  0  9  0.0000000  0 10G23G20G31G04G14G25G17G32G24G12       -.000293775
  24084544.98606  24084549.64141 126565110.80506  98622223.85441      5415.13206
        40.000          22.000
  20806035.22409  20806040.60746 109336485.42609  85197291.63046      2091.87509
        49.000          41.000
  22629722.83508  22629728.50144 118919987.39308  92664982.02144      3889.55608
        45.000          34.000
  22534599.07807  22534606.20143 118420100.46607  92275482.13543      4556.47007
        44.000          28.000
  23462272.39706  23462278.66641 123294979.40006  96074116.21241     -1520.57106
        41.000          22.000
  23259476.18507  23259484.98743 122229361.79107  95243724.11443      3966.30407
        42.000          29.000
  22245385.55008  22245391.23144 116900268.02808  91091211.61044      -264.68308
        47.000          35.000
  21464353.04209  21464359.39045 112795872.58309  87892994.66145       280.58609
        49.000          38.000
  23203071.79707  23203079.62442 121933006.40007  95012772.39642     -1744.95607
        42.000          27.000
  22450309.48808  22450315.22644 117977152.27308  91930321.67944      1766.42608
        47.000          34.000
 11  8  8  0  9 30.0000000  0 10G23G20G31G04G14G25G17G32G24G12       -.000325444
  24053645.42706  24053649.70541 126402734.05006  98495696.70541      5409.53606
        41.000          21.000
  20794150.92809  20794156.07846 109274034.13609  85148628.26246      2071.16209
        49.000          40.000
  22607564.71108  22607570.25544 118803544.29208  92574247.10744      3872.83708
        45.000          34.000
  22508626.44807  22508633.51043 118283613.89207  92169129.08243      4542.30907
        43.000          28.000
  23470982.42006  23470988.38042 123340751.52206  96109782.83742     -1531.30406
        41.000          24.000
  23236880.22207  23236888.46543 122110617.93207  95151196.48243      3949.56007
        43.000          29.000
  22246945.82108  22246952.10044 116908469.44308  91097602.32444      -282.54408
        47.000          35.000
  21462798.79309  21462805.27145 112787705.30709  87886630.52745       263.56409
        49.000          38.000
  23213057.18307  23213065.34742 121985479.43707  95053660.48542     -1753.74507
        43.000          27.000
  22440286.46508  22440292.51844 117924481.67208  91889279.64644      1744.54108
        47.000          35.000
 11  8  8  0 10  0.0000000  0 10G23G20G31G04G14G25G17G32G24G12       -.000357110
  24022779.20006  24022783.76941 126240532.14906  98369305.73741      5403.56506
        40.000          22.000
  20782385.45509  20782390.68346 109212205.96809  85100450.43346      2050.35609
        49.000          41.000
  22585502.28008  22585508.11844 118687608.59008  92483907.60044      3855.89808
        46.000          33.000
  22482735.98407  22482743.26143 118147558.46007  92063111.96143      4527.88107
        43.000          28.000
  23479753.10206  23479759.59742 123386845.31206  96145700.14642     -1541.85106
        41.000          24.000
  23214380.20308  23214389.57243 121992382.50308  95059064.99343      3932.48508
        45.000          30.000
  22248608.91108  22248615.13944 116917207.81408  91104411.44244      -300.29808
        47.000          35.000
  21461342.77809  21461349.18645 112780054.18609  87880668.53845       246.28409
        49.000          38.000
  23223092.69207  23223099.98642 122038216.08907  95094754.05142     -1762.43207
        42.000          27.000
  22430389.00408  22430395.09944 117872471.45508  91848752.18944      1722.52008
        47.000          35.000
 11  8  8  0 10 30.0000000  0 10G23G20G31G04G14G25G17G32G24G12       -.000388774
  23991946.06206  23991950.44641 126078501.92606  98243048.52941      5398.58906
        41.000          22.000
  20770737.55509  20770743.28646 109150996.63209  85052754.82846      2030.49809
        49.000          40.000
  22563536.47508  22563542.15544 118572177.18408  92393961.04144      3839.63408
        45.000          33.000
  22456926.74808  22456934.32543 118011931.32008  91957428.50143      4514.17008
        45.000          29.000
  23488584.16006  23488590.56641 123433252.31306  96181861.45941     -1551.59206
        41.000          22.000
  23191977.00107  23191985.94043 121874652.58907  94967327.40143      3916.30807
        44.000          30.000
  22250372.78208  22250378.50944 116926475.80608  91111633.24244      -317.30508
        47.000          34.000
  21459983.82609  21459990.46145 112772913.01309  87875104.08945       229.98509
        49.000          38.000
  23233176.35307  23233184.67542 122091208.60707  95136046.84342     -1770.33207
        43.000          27.000
  22420616.52908  22420622.61244 117821116.33608  91808735.21544      1701.39208
        48.000          34.000
 11  8  8  0 11  0.0000000  0 10G23G20G31G04G14G25G17G32G24G12       -.000420442
  23961144.47306  23961149.67341 125916640.56506  98116922.74141      5392.45106
        40.000          22.000
  20759206.86709  20759212.41946 109090401.42509  85005537.76046      2009.51209
        49.000          41.000
  22541666.14308  22541671.62744 118457247.10408  92304405.17044      3822.54908
        46.000          34.000
  22431199.60608  22431206.47843 117876730.01908  91852076.83643      4499.42408
        45.000          30.000
  23497473.71506  23497480.00642 123479965.32106  96218261.12342     -1562.24106
        41.000          24.000
  23169669.84307  23169678.59143 121757425.68407  94875981.77743      3899.05807
        44.000          29.000
  22252235.32308  22252240.52644 116936266.62108  91119262.43744      -335.13208
        48.000          34.000
  21458720.74209  21458727.22645 112766274.87909  87869931.45345       212.85609
        49.000          37.000
  23243308.86207  23243315.67342 122144449.94907  95177533.55242     -1778.93107
        43.000          27.000
  22410967.70308  22410973.90644 117770411.55808  91769225.00044      1679.23808
        47.000          35.000
 11  8  8  0 11 30.0000000  0 10G23G20G31G04G14G25G17G32G24G12       -.000452108
  23930377.26607  23930382.92141 125754957.90407  97990936.26241      5386.07907
        42.000          22.000
  20747794.20809  20747799.58946 109030427.63609  84958804.94346      1988.44709
        49.000          40.000
  22519893.05108  22519898.78344 118342827.90408  92215247.36744      3805.11208
        47.000          34.000
  22405554.84508  22405560.93443 117741964.38208  91747064.71243      4484.52608
        45.000          30.000
  23506422.04206  23506428.26042 123526989.52706  96254903.34842     -1572.90506
        41.000          24.000
  23147459.70707  23147468.37843 121640711.22407  94785035.45543      3881.62107
        43.000          30.000
  22254199.02908  22254205.16044 116946585.29408  91127302.93644      -352.99308
        47.000          35.000
  21457554.06709  21457561.01445 112760146.02309  87865155.73045       195.51309
        49.000          38.000
  23253487.16407  23253495.23342 122197944.74407  95219217.75342     -1787.69007
        42.000          25.000
  22401444.23108  22401450.04744 117720364.06208  91730226.96144      1657.04108
        47.000          35.000
 11  8  8  0 12  0.0000000  0 10G23G20G31G04G14G25G17G32G24G12       -.000483776
  23899643.79507  23899648.51741 125593450.64307  97865086.34941      5380.51807
        42.000          22.000
  20736498.78809  20736504.08246 108971069.61409  84912551.91546      1968.15909
        49.000          40.000
  22498216.32708  22498221.60444 118228915.76808  92126484.72744      3788.50108
        47.000          33.000
  22379991.24008  22379998.31043 117607631.08208  91642389.44543      4470.39608
        45.000          30.000
  23515428.04207  23515434.29442 123574316.07007  96291781.09342     -1582.57807
        42.000          25.000
  23125346.54108  23125355.35043 121524505.82808  94694485.80943      3864.90708
        45.000          30.000
  22256261.77908  22256267.82044 116957424.34508  91135748.93344      -370.05408
        46.000          35.000
  21456483.64509  21456490.00345 112754518.97909  87860770.95545       179.13609
        49.000          38.000
  23263714.68807  23263721.94042 122251684.72907  95261092.86842     -1795.59107
        42.000          25.000
  22392044.24408  22392050.23444 117670967.92908  91691736.46644      1635.62008
        47.000          34.000
 11  8  8  0 12 30.0000000  0 10G23G20G31G04G14G25G17G32G24G12        .000484557
  24168738.07107  24168741.90842 127007548.02107  98966980.28942      5374.51707
        42.000          24.000
  21025113.52009  21025118.81146 110487751.06809  86094381.63846      1947.60709
        49.000          41.000
  22776429.81908  22776435.20644 119690937.52708  93265722.38544      3771.38208
        45.000          34.000
  22654304.83508  22654311.44443 119049158.24708  92765657.34343      4455.80608
        45.000          31.000
  23824283.36206  23824290.04242 125197362.83606  97556492.84142     -1592.77806
        41.000          24.000
  23403124.26507  23403133.06943 122984237.17707  95831938.82543      3847.60707
        43.000          30.000
  22558216.28608  22558221.94444 118544202.54508  92372199.44844      -387.47108
        46.000          35.000
  21755300.71409  21755307.37845 114324814.33009  89084377.69645       162.35409
        49.000          38.000
  23573779.97207  23573787.22142 123881087.85807  96530757.69442     -1803.72107
        43.000          26.000
  22682561.58408  22682567.49044 119197646.49108  92881356.11844      1613.77908
        46.000          34.000
 11  8  8  0 13  0.0000000  0 10G23G20G31G04G14G25G17G32G24G12        .000452886
  24138072.70506  24138076.53941 126846400.92606  98841411.10241      5368.64706
        41.000          22.000
  21014052.99809  21014058.46846 110429627.50009  86049090.56246      1927.37809
        49.000          41.000
  22754947.28708  22754952.85144 119578047.36208  93177755.96744      3754.65808
        46.000          34.000
  22628907.65207  22628915.35543 118915698.92607  92661663.09443      4441.47007
        44.000          30.000
  23833403.09606  23833410.22841 125245289.34206  97593838.17241     -1602.14406
        41.000          22.000
  23381205.95907  23381214.99743 122869058.80507  95742189.48343      3830.90807
        44.000          30.000
  22560475.41208  22560481.82845 118556078.06308  92381453.09545      -404.31208
        47.000          36.000
  21754420.45709  21754426.91445 114320189.50009  89080773.99645       146.04009
        49.000          38.000
  23584098.49707  23584106.34042 123935313.75207  96573011.66042     -1811.38207
        43.000          27.000
  22673410.01308  22673415.98444 119149555.62708  92843882.71644      1592.42708
        46.000          34.000
 11  8  8  0 13 30.0000000  0 10G23G20G31G04G14G25G17G32G24G12        .000421217
  24107442.16406  24107446.84942 126685439.86006  98715986.92242      5362.47106
        41.000          25.000
  21003110.61009  21003116.04246 110372124.12609  86004282.71546      1906.63609
        49.000          41.000
  22733563.44508  22733569.42544 119465674.01008  93090192.35944      3737.36308
        46.000          34.000
  22603596.05407  22603602.82243 118782682.60407  92558014.02743      4426.73307
        44.000          30.000
  23842580.30106  23842586.97341 125293514.28606  97631416.06441     -1612.23606
        41.000          22.000
  23359386.98307  23359396.29743 122754399.71007  95652844.74743      3813.53507
        44.000          30.000
  22562834.10208  22562840.37444 118568471.72008  92391110.48644      -421.51408
        46.000          35.000
  21753635.64909  21753642.68445 114316065.69809  89077560.65645       129.29709
        49.000          37.000
  23594463.16606  23594471.48842 123989781.37106  96615453.98442     -1819.38006
        41.000          26.000
  22664383.36708  22664389.17844 119102119.24308  92806919.30344      1570.52208
        47.000          34.000
 11  8  8  0 14  0.0000000  0 10G23G20G31G04G14G25G17G32G24G12        .000389551
  24076850.04507  24076854.35142 126524672.90107  98590713.92942      5355.59607
        42.000          25.000
  20992287.58009  20992292.87946 110315247.11509  85959962.97946      1885.51809
        49.000          41.000
  22712279.16608  22712285.06944 119353825.04108  93003037.31244      3719.55108
        46.000          34.000
  22578369.83307  22578376.41143 118650117.63907  92454716.68343      4411.23107
        44.000          30.000
  23851814.57106  23851820.84041 125342041.04806  97669229.13641     -1622.59306
        41.000          22.000
  23337669.06108  23337677.90143 122640268.15108  95563911.09043      3795.63508
        45.000          30.000
  22565291.86908  22565297.81844 118581386.54708  92401173.97144      -439.10608
        46.000          34.000
  21752947.76908  21752954.42145 114312447.67108  89074741.36245       112.19208
        48.000          37.000
  23604874.81006  23604882.41342 124044494.36806  96658087.52342     -1827.82206
        39.000          24.000
  22655481.89208  22655487.99544 119055343.16708  92770470.41344      1548.14908
        47.000          34.000
 11  8  8  0 14 30.0000000  0 10G23G20G31G04G14G25G17G32G24G12        .000357888
  24046293.75507  24046298.88242 126364102.38607  98465594.08342      5349.47307
        42.000          24.000
  20981583.03809  20981588.48346 110258996.06009  85916130.98046      1865.01009
        49.000          41.000
  22691094.89908  22691101.30144 119242502.42408  92916292.53244      3702.43208
        47.000          34.000
  22553229.45307  22553236.63543 118518005.89307  92351772.47743      4396.58207
        44.000          30.000
  23861105.88606  23861112.64041 125390866.92706  97707275.33141     -1632.10906
        40.000          22.000
  23316050.67707  23316059.67043 122526665.87407  95475389.86343      3778.31507
        44.000          30.000
  22567847.90608  22567854.04144 118594820.25708  92411641.77844      -455.93808
        47.000          34.000
  21752354.83609  21752361.29445 114309333.17309  89072314.51445        95.86409
        49.000          37.000
  23615333.38707  23615339.59442 124099449.46007  96700909.53542     -1835.28307
        42.000          25.000
  22646706.62008  22646712.30044 119009227.11908  92734535.81844      1526.72808
        47.000          34.000
 11  8  8  0 15  0.0000000  0 10G23G20G31G04G14G25G17G32G24G12        .000326222
  24015774.13906  24015778.64241 126203717.73706  98340619.04541      5342.65106
        41.000          23.000
  20970995.67209  20971001.28746 110203358.51409  85872777.05846      1843.98009
        49.000          41.000
  22670009.39307  22670015.37244 119131695.22507  92829949.27444      3684.57007
        44.000          35.000
  22528173.90608  22528180.76643 118386337.56208  92249173.75143      4381.16208
        45.000          30.000
  23870450.62406  23870457.63241 125439976.42306  97745542.46641     -1642.02206
        40.000          22.000
  23294532.48207  23294540.89643 122413582.39207  95387272.87843      3760.41507
        42.000          30.000
  22570500.15508  22570506.45344 118608758.12008  92422502.44244      -473.32508
        47.000          34.000
  21751855.07109  21751862.09245 114306708.51809  89070269.31245        78.96009
        49.000          38.000
  23625833.55506  23625841.33642 124154632.24506  96743909.04342     -1843.58906
        41.000          27.000
  22638053.87608  22638060.02544 118963758.13508  92699105.44144      1504.45808
        46.000          35.000
 11  8  8  0 15 30.0000000  0 10G23G20G31G04G14G25G17G32G24G12        .000294555
  23985290.64406  23985295.17141 126043528.69206  98215796.35541      5336.49906
        41.000          22.000
  20960526.32709  20960531.64546 110148341.86409  85829906.93146      1823.76909
        49.000          41.000
  22649023.07208  22649029.02444 119021412.94008  92744015.09844      3667.49508
        46.000          34.000
  22503204.53008  22503211.29143 118255121.92708  92146927.80443      4366.48408
        46.000          30.000
  23879851.43606  23879857.68441 125489374.59606  97784034.65641     -1651.17206
        39.000          22.000
  23273113.76707  23273122.55543 122301027.24007  95299567.57343      3743.20807
        44.000          31.000
  22573249.41408  22573255.33144 118623205.78108  92433760.34244      -489.87808
        46.000          34.000
  21751450.02609  21751456.83145 114304579.59709  89068610.48545        62.95909
        49.000          38.000
  23636378.80807  23636386.99742 124210047.45807  96787089.62942     -1850.86907
        42.000          27.000
  22629526.02708  22629532.01144 118918943.20708  92664184.70244      1483.07608
        47.000          34.000
 11  8  8  0 16  0.0000000  0 10G23G20G31G04G14G25G17G32G24G12        .000262884
  23954843.58207  23954848.87742 125883529.49307  98091121.72642      5329.93207
        42.000          25.000
  20950173.34509  20950178.65246 110093937.95809  85787514.28246      1802.96409
        49.000          41.000
  22628135.87508  22628141.60744 118911649.16308  92658484.91144      3649.87308
        46.000          34.000
  22478319.95708  22478326.94843 118124353.26608  92045030.12743      4351.27508
        45.000          31.000
  23889303.72206  23889310.84041 125539050.03006  97822742.71741     -1660.64006
        39.000          22.000
  23251794.19207  23251802.95943 122188994.30807  95212269.18643      3725.43507
        44.000          30.000
  22576093.86208  22576099.41244 118638152.55508  92445407.18244      -506.82108
        46.000          34.000
  21751137.35109  21751143.99545 114302936.11109  89067329.81945        46.47909
        49.000          38.000
  23646966.01906  23646974.14742 124265684.10906  96830442.66242     -1858.43306
        40.000          24.000
  22621120.89908  22621126.80444 118874773.82408  92629767.00744      1461.32308
        46.000          34.000
 11  8  8  0 16 30.0000000  0 10G23G20G31G04G14G25G17G32G24G12        .000231216
  23924436.53407  23924441.23342 125723736.68207  97966607.91942      5322.82707
        43.000          25.000
  20939940.34209  20939945.70646 110040161.07009  85745610.20646      1782.11909
        49.000          40.000
  22607350.60408  22607355.52544 118802419.95308  92573371.23744      3631.92408
        47.000          34.000
  22453524.18908  22453530.56743 117994048.42308  91943493.93743      4335.62008
        45.000          30.000
  23898811.80606  23898818.96541 125589014.98206  97861676.44241     -1670.33206
        40.000          23.000
  23230577.44207  23230586.39143 122077499.99207  95125390.50143      3707.38307
        44.000          30.000
  22579035.67308  22579040.74344 118653610.24408  92457452.13044      -523.81308
        47.000          34.000
  21750919.88909  21750926.50745 114301791.05009  89066437.49045        29.82409
        49.000          38.000
  23657598.54106  23657605.95241 124321554.45106  96873977.88041     -1866.29906
        41.000          23.000
  22612841.00908  22612847.30844 118831263.93208  92595863.17344      1439.30208
        46.000          34.000
 11  8  8  0 17  0.0000000  0 10G23G20G31G04G14G25G17G32G24G12        .000199546
  23894066.89706  23894071.67842 125564142.56106  97842248.88142      5316.56206
        41.000          24.000
  20929824.05009  20929829.56546 109987001.39109  85704187.06646      1761.81609
        49.000          40.000
  22586664.94808  22586670.52244 118693717.12108  92488667.71144      3614.64808
        46.000          35.000
  22428814.30308  22428821.30243 117864199.46308  91842312.98243      4320.78608
        45.000          30.000
  23908373.32906  23908379.69241 125639256.76106  97900825.88941     -1679.31606
        40.000          22.000
  23209461.92807  23209470.67143 121966536.57607  95038925.53843      3689.98507
        43.000          31.000
  22582072.11808  22582077.67244 118669567.26108  92469886.16244      -540.11708
        46.000          34.000
  21750794.31109  21750801.17045 114301133.07809  89065924.81145        13.97009
        49.000          38.000
  23668271.87606  23668278.97842 124377646.17306  96917685.70942     -1873.28106
        41.000          24.000
  22604684.80708  22604690.96444 118788403.32808  92562465.27744      1417.94408
        46.000          34.000
 11  8  8  0 17 30.0000000  0 10G23G20G31G04G14G25G17G32G24G12        .000167875
  23863734.89107  23863739.83042 125404751.12507  97718047.78942      5309.38007
        42.000          25.000
  20919825.94309  20919831.29046 109934460.65209  85663246.21746      1740.69309
        49.000          40.000
  22566080.64808  22566086.12844 118585544.74408  92404377.56044      3596.59708
        46.000          34.000
  22404192.01407  22404199.48143 117734810.55807  91741490.52143      4304.99007
        44.000          31.000
  23917986.27906  23917992.88841 125689774.62006  97940190.39641     -1689.02806
        40.000          22.000
  23188448.30007  23188456.86643 121856107.87907  94952877.21643      3671.64607
        44.000          31.000
  22585203.23008  22585209.12844 118686022.97108  92482708.80844      -557.16308
        46.000          34.000
  21750762.01709  21750768.37445 114300962.39109  89065791.82245        -2.66609
        49.000          37.000
  23678987.94607  23678995.43642 124433958.49007  96961565.44242     -1881.07907
        42.000          24.000
  22596653.21008  22596659.35344 118746193.43508  92529574.43344      1395.87908
        46.000          34.000
 11  8  8  0 18  0.0000000  0 10G23G20G31G04G14G25G17G32G24G12        .000136209
  23833444.68806  23833449.90342 125245574.82606  97594014.39142      5302.35806
        41.000          26.000
  20909947.56209  20909952.97846 109882548.70009  85622795.31246      1720.02909
        49.000          40.000
  22545598.98708  22545604.81444 118477914.10308  92320509.49744      3578.86208
        46.000          34.000
  22379659.34607  22379667.18843 117605894.07207  91641036.14543      4289.43807
        44.000          30.000
  23927653.29406  23927659.90941 125740575.89306  97979775.75041     -1697.94406
        39.000          22.000
  23167538.91908  23167546.87643 121746225.79608  94867254.84043      3653.77408
        45.000          31.000
  22588431.17408  22588437.16544 118702985.29408  92495926.19644      -573.79908
        46.000          34.000
  21750824.20409  21750830.11245 114301287.17009  89066044.91945       -19.03309
        49.000          37.000
  23689747.15706  23689755.06842 124490498.68806  97005622.68142     -1888.39806
        41.000          24.000
  22588746.23708  22588752.15744 118704643.68308  92497198.00244      1374.16008
        46.000          34.000
 11  8  8  0 18 30.0000000  0 10G23G20G31G04G14G25G17G32G24G12        .000104542
  23803195.05407  23803199.24642 125086608.74607  97470144.81942      5295.54707
        43.000          26.000
  20900186.98409  20900192.58046 109831258.17909  85582828.65646      1699.66309
        49.000          41.000
  22525219.04908  22525224.97544 118370819.64408  92237059.20644      3561.10808
        47.000          34.000
  22355217.23908  22355223.98243 117477444.79808  91540945.83443      4274.01408
        45.000          31.000
  23937372.87206  23937379.58241 125791650.73106  98019574.27041     -1706.78706
        40.000          22.000
  23146732.09508  23146740.38843 121636885.11808  94782054.33143      3635.83508
        45.000          31.000
  22591753.20908  22591759.42044 118720443.85308  92509530.26844      -589.97608
        46.000          33.000
  21750978.24309  21750984.33045 114302098.36009  89066677.01245       -34.95609
        49.000          37.000
  23700546.98906  23700555.80742 124547257.36106  97049850.13242     -1895.30806
        41.000          24.000
  22580963.68108  22580969.75844 118663746.18508  92465329.81844      1352.65608
        46.000          35.000
 11  8  8  0 19  0.0000000  0 10G23G20G31G04G14G25G17G32G24G12        .000072877
  23772985.14807  23772990.43342 124927855.59707  97346441.21242      5288.13007
        42.000          26.000
  20890545.15509  20890550.94646 109780589.58009  85543346.64146      1678.47209
        49.000          41.000
  22504942.94508  22504948.52144 118264264.09908  92154028.88944      3542.67608
        46.000          35.000
  22330863.80008  22330870.09143 117349465.67508  91441221.86843      4258.00808
        45.000          31.000
  23947143.49006  23947150.42141 125842996.78906  98059584.14641     -1716.06406
        39.000          21.000
  23126027.93808  23126036.82743 121528088.27308  94697277.57243      3617.36308
        45.000          31.000
  22595169.39108  22595175.94044 118738397.27208  92523519.92944      -606.85108
        45.000          33.000
  21751224.86109  21751231.22745 114303394.93309  89067687.24345       -51.51409
        49.000          38.000
  23711390.66107  23711397.82742 124604232.09107  97094245.87242     -1902.82207
        42.000          24.000
  22573305.21208  22573311.45044 118623501.05608  92433969.97344      1330.43508
        46.000          34.000
 11  8  8  0 19 30.0000000  0 10G23G20G31G04G14G25G17G32G24G12        .000041212
  23742815.46206  23742821.41942 124769318.00006  97222905.51442      5281.06906
        40.000          25.000
  20881021.73709  20881026.79646 109730543.25509  85504349.50846      1657.94909
        49.000          41.000
  22484768.83008  22484774.32044 118158249.75408  92071420.29944      3524.85808
        45.000          35.000
  22306600.28508  22306606.48743 117221959.37008  91341866.34243      4242.31408
        46.000          31.000
  23956965.72206  23956972.28541 125894612.24206  98099803.92741     -1724.94106
        40.000          22.000
  23105428.39007  23105437.44544 121419837.89607  94612926.64444      3599.26307
        42.000          32.000
  22598680.12308  22598686.01844 118756843.99408  92537894.00044      -623.07108
        45.000          33.000
  21751563.85109  21751570.30645 114305176.12909  89069075.26445       -67.41709
        49.000          37.000
  23722273.41307  23722280.38741 124661421.22907  97138808.74841     -1909.64807
        43.000          22.000
  22565770.83908  22565776.86244 118583908.31208  92403118.48844      1308.90608
        46.000          34.000
 11  8  8  0 20  0.0000000  0 10G23G20G31G04G14G25G17G32G24G12        .000009545
  23712688.39707  23712692.51942 124610993.61107  97099535.97942      5273.75507
        43.000          24.000
  20871615.91809  20871621.29146 109681114.18209  85465833.34946      1637.20709
        49.000          41.000
  22464697.42108  22464703.20044 118052773.33208  91989230.84944      3506.70408
        46.000          35.000
  22282425.34508  22282432.36243 117094923.27908  91242877.22943      4226.49908
        45.000          31.000
  23966837.95706  23966843.93641 125946489.47406  98140227.72741     -1733.72106
        41.000          22.000
  23084932.57907  23084941.69843 121312131.05607  94528999.24943      3580.95707
        43.000          31.000
  22602282.61108  22602288.86344 118775776.79708  92552646.82044      -639.34608
        45.000          33.000
  21751993.31809  21752000.05445 114307434.89209  89070835.25545       -83.42309
        49.000          38.000
  23733194.85207  23733202.61841 124718817.52607  97183533.01541     -1916.88007
        42.000          23.000
  22558359.90408  22558365.97044 118544962.47808  92372771.05144      1287.29508
        46.000          34.000
 11  8  8  0 20 30.0000000  0 10G23G20G31G04G14G25G17G32G24G12       -.000022123
  23682601.23107  23682606.14742 124452888.55607  96976337.36142      5266.61607
        43.000          25.000
  20862327.81809  20862333.15846 109632305.61609  85427800.73346      1616.73309
        49.000          41.000
  22444729.47608  22444734.87344 117947840.37508  91907464.95944      3488.80908
        45.000          35.000
  22258342.43507  22258348.81643 116968362.99407  91144258.88443      4210.87907
        44.000          30.000
  23976759.56606  23976766.06041 125998629.42806  98180856.23841     -1742.17806
        39.000          22.000
  23064541.14207  23064550.13943 121204973.19107  94445499.63043      3562.87107
        42.000          31.000
  22605978.72207  22605984.41944 118795196.94607  92567779.38844      -655.30307
        44.000          33.000
  21752514.65609  21752520.85845 114310173.28909  89072969.05745       -99.15009
        49.000          37.000
  23744156.69107  23744165.22642 124776422.15707  97228419.64642     -1923.54507
        42.000          24.000
  22551072.71408  22551078.64444 118506666.67008  92342930.14044      1265.81108
        46.000          34.000
 11  8  8  0 21  0.0000000  0 10G23G20G31G04G14G25G17G32G24G12       -.000053789
  23652558.32607  23652562.11842 124295007.59707  96853313.25242      5259.41407
        42.000          26.000
  20853158.52308  20853163.87446 109584120.93308  85390254.23146      1596.15208
        48.000          41.000
  22424865.49208  22424871.13045 117843455.42708  91826126.01745      3470.80108
        46.000          36.000
  22234350.32707  22234356.94043 116842284.51907  91046015.99143      4194.96607
        44.000          31.000
  23986731.75405  23986738.23841 126051032.77805  98221689.91541     -1750.67905
        38.000          22.000
  23044254.78208  23044263.92644 121098369.59008  94362431.90244      3544.55108
        45.000          32.000
  22609766.70708  22609772.85844 118815105.16608  92583292.27944      -671.40108
        45.000          33.000
  21753127.42209  21753134.10045 114313393.26809  89075478.22045      -114.89709
        49.000          37.000
  23755158.61307  23755166.84542 124834235.85407  97273469.22042     -1930.15607
        42.000          25.000
  22543909.08508  22543915.57044 118469023.43008  92313597.71344      1244.31208
        46.000          34.000
 11  8  8  0 21 30.0000000  0 10G23G20G31G04G14G25G17G32G24G12       -.000085458
  23622555.29906  23622560.33342 124137347.07906  96730460.89542      5251.18706
        40.000          26.000
  20844106.92509  20844111.94646 109536553.40209  85353188.61146      1574.80009
        49.000          41.000
  22405104.98708  22405110.83745 117739613.79308  91745210.43945      3451.83108
        46.000          36.000
  22210448.75608  22210455.53044 116716683.21208  90948144.86544      4178.31508
        45.000          32.000
  23996752.68905  23996758.83141 126103690.57205  98262721.83741     -1759.96605
        38.000          22.000
  23024073.56607  23024082.78243 120992315.82007  94279792.61543      3525.49807
        43.000          31.000
  22613646.47308  22613652.58444 118835492.96008  92599178.86544      -688.01308
        45.000          33.000
  21753830.36609  21753836.46545 114317086.19309  89078355.82045      -131.42109
        49.000          37.000
  23766199.04707  23766206.21542 124892249.95307  97318674.95742     -1937.60707
        42.000          26.000
  22536868.76708  22536874.62844 118432025.85308  92284768.40244      1222.00708
        47.000          34.000
 11  8  8  0 22  0.0000000  0 10G23G20G31G04G14G25G17G32G24G12       -.000117123
  23592598.01207  23592602.72242 123979918.42407  96607789.26242      5244.08707
        42.000          25.000
  20835174.19009  20835179.69846 109489611.76009  85316610.67146      1554.68309
        49.000          41.000
  22385450.06908  22385455.83844 117636326.52608  91664726.82444      3434.15508
        45.000          35.000
  22186640.60408  22186647.44044 116591570.38208  90850654.32844      4162.60308
        46.000          32.000
  24006822.05505  24006829.00241 126156609.19705  98303957.15141     -1767.95405
        38.000          22.000
  23003999.12207  23004007.86343 120886822.68907  94197590.20343      3507.49507
        43.000          31.000
  22617618.75408  22617625.16844 118856367.10408  92615444.40444      -703.46708
        45.000          33.000
  21754624.25109  21754631.13245 114321259.62409  89081607.85245      -146.80709
        49.000          37.000
  23777277.50806  23777285.83641 124950470.84306  97364041.79041     -1943.73506
        41.000          23.000
  22529953.22708  22529959.18044 118395682.15508  92256448.62244      1201.03008
        46.000          34.000
 11  8  8  0 22 30.0000000  0 10G23G20G31G04G14G25G17G32G24G12       -.000148785
  23562686.06807  23562689.74242 123822724.01607  96485300.21442      5235.19107
        42.000          27.000
  20826360.27709  20826365.58046 109443296.18909  85280520.65446      1532.77309
        49.000          40.000
  22365901.29108  22365907.29444 117533595.18408  91584676.39944      3414.41908
        45.000          35.000
  22162926.11908  22162932.51744 116466948.36508  90753546.31344      4145.24408
        46.000          32.000
  24016940.85605  24016947.88041 126209785.97605  98345393.49841     -1777.53405
        38.000          21.000
  22984031.11808  22984040.39243 120781892.08008  94115826.10443      3487.62208
        46.000          31.000
  22621682.97808  22621689.33744 118877724.81908  92632086.74244      -720.58108
        45.000          33.000
  21755509.46609  21755516.07645 114325911.70309  89085232.86145      -163.68709
        49.000          37.000
  23788395.38406  23788402.79041 125008895.94906  97409567.68641     -1951.54806
        40.000          22.000
  22523161.45208  22523167.28244 118359991.71208  92228637.87244      1178.20808
        45.000          34.000
 11  8  8  0 23  0.0000000  0 10G23G20G31G04G14G25G17G32G24G12       -.000180446
  23532816.21706  23532820.80842 123665764.29006  96362994.03042      5228.11506
        41.000          26.000
  20817665.40309  20817670.98846 109397603.75809  85244916.05846      1512.71009
        49.000          40.000
  22346457.63408  22346463.68544 117431419.25208  91505058.73544      3396.60608
        46.000          35.000
  22139304.77708  22139311.38644 116342817.46508  90656820.97044      4129.56608
        46.000          33.000
  24027109.03506  24027115.50841 126263216.43106  98387027.57041     -1785.18506
        39.000          21.000
  22964170.97908  22964179.56143 120677524.04008  94034500.37443      3469.56508
        46.000          31.000
  22625838.86408  22625844.44744 118899561.89608  92649102.62144      -735.82508
        45.000          32.000
  21756485.25809  21756491.77145 114331039.04209  89089228.20145      -178.74509
        49.000          37.000
  23799551.85106  23799559.41241 125067521.21106  97455249.68241     -1957.52406
        41.000          22.000
  22516493.42108  22516499.27244 118324951.95108  92201334.10844      1157.14808
        46.000          34.000
 11  8  8  0 23 30.0000000  0 10G23G20G31G04G14G25G17G32G24G12       -.000212106
  23502992.82907  23502996.68642 123509038.11507  96240869.85042      5220.26907
        42.000          26.000
  20809088.71908  20809094.16046 109352532.04808  85209795.31146      1492.05108
        48.000          41.000
  22327119.69408  22327125.48844 117329797.67208  91425873.06544      3378.12008
        45.000          35.000
  22115776.89208  22115783.47744 116219176.75108  90560477.59144      4113.11508
        46.000          33.000
  24037323.88605  24037330.96241 126316894.79505  98428854.78541     -1793.25705
        38.000          20.000
  22944417.00707  22944425.75243 120573717.37707  93953612.05743      3450.93807
        44.000          31.000
  22630083.89808  22630090.29244 118921873.06808  92666487.93344      -751.51908
        45.000          32.000
  21757550.02209  21757556.97245 114336636.68009  89093589.98045      -194.38509
        49.000          37.000
  23810744.35706  23810753.14142 125126340.81306  97501083.11142     -1963.75506
        41.000          25.000
  22509948.88908  22509955.02944 118290559.25108  92174534.60144      1135.72808
        46.000          34.000
 11  8  8  0 24  0.0000000  0 10G23G20G31G04G14G25G17G32G24G12       -.000243770
  23473212.08807  23473216.90542 123352544.49607  96118926.91642      5212.54907
        42.000          25.000
  20800629.09409  20800634.61546 109308076.16009  85175154.38946      1471.59209
        49.000          41.000
  22307887.00108  22307892.46544 117228728.06608  91347117.52144      3359.78508
        46.000          35.000
  22092341.15608  22092348.41344 116096024.42308  90464514.76944      4096.93808
        46.000          32.000
  24047584.96305  24047590.81941 126370814.75805  98470870.27241     -1801.31405
        38.000          20.000
  22924769.81508  22924778.72544 120470470.13508  93873159.67744      3432.19708
        46.000          32.000
  22634418.65207  22634425.25544 118944652.04607  92684237.74844      -767.07507
        44.000          33.000
  21758703.87108  21758710.55645 114342699.16708  89098314.00045      -209.76608
        48.000          38.000
  23821973.39006  23821981.83942 125185348.24106  97547062.62842     -1970.07306
        40.000          24.000
  22503526.38408  22503532.44144 118256809.01608  92148235.73744      1114.30208
        46.000          34.000
 11  8  8  0 24 30.0000000  0 10G23G20G31G04G14G25G17G32G24G12       -.000275430
  23443479.08507  23443483.73942 123196293.73607  95997173.21342      5203.94507
        43.000          27.000
  20792288.01809  20792293.52846 109264244.46009  85140999.83346      1450.38109
        49.000          40.000
  22288760.86407  22288766.68044 117128220.18207  91268799.70844      3340.61507
        44.000          35.000
  22069001.15208  22069008.26544 115973370.99308  90368940.68544      4079.77608
        46.000          32.000
  24057892.07105  24057898.63541 126424982.02805  98513078.46841     -1809.92705
        38.000          20.000
  22905230.78908  22905239.59544 120367792.31308  93793150.97844      3412.75408
        45.000          32.000
  22638843.88307  22638850.08244 118967904.71307  92702356.70544      -783.24707
        44.000          33.000
  21759947.45309  21759953.94645 114349232.90409  89103405.17045      -225.98109
        49.000          37.000
  23833239.74405  23833248.22041 125244550.05205  97593193.74841     -1977.02605
        38.000          22.000
  22497227.57008  22497233.56044 118223708.60208  92122443.20944      1092.27508
        46.000          34.000
 11  8  8  0 25  0.0000000  0 10G23G20G31G04G14G25G17G32G24G12       -.000307088
  23413792.27907  23413796.62842 123040288.78107  95875610.96942      5195.79107
        44.000          26.000
  20784066.05809  20784071.52346 109221037.36409  85107331.95846      1429.59509
        49.000          40.000
  22269742.34308  22269747.98345 117028276.56808  91190921.53445      3321.76708
        46.000          36.000
  22045756.60208  22045763.22244 115851219.55408  90273757.75944      4063.21308
        46.000          32.000
  24068246.97206  24068253.50441 126479394.91006  98555477.98541     -1817.92006
        39.000          21.000
  22885801.11908  22885809.72444 120265686.55708  93713588.04544      3393.75508
        46.000          33.000
  22643358.17908  22643364.97344 118991629.38608  92720843.43644      -798.89608
        45.000          32.000
  21761280.40508  21761286.86445 114356237.08208  89108862.95645      -241.54808
        48.000          37.000
  23844541.94506  23844550.07441 125303944.65806  97639475.29541     -1983.17906
        40.000          22.000
  22491052.78708  22491058.57344 118191258.19308  92097157.16144      1070.60508
        46.000          34.000
 11  8  8  0 25 30.0000000  0 10G23G20G31G04G14G25G17G32G24G12       -.000338751
  23384150.38007  23384154.86243 122884519.76607  95754232.59043      5188.45207
        43.000          28.000
  20775960.31009  20775965.52646 109178441.75509  85074140.51846      1409.86309
        49.000          40.000
  22250828.72508  22250834.67345 116928886.30108  91113474.57645      3303.86208
        47.000          36.000
  22022605.84608  22022612.44144 115729559.59208  90178957.80544      4047.24108
        46.000          32.000
  24078645.52206  24078651.66941 126534038.11906  98598057.04341     -1825.17106
        40.000          20.000
  22866477.31208  22866486.46844 120164142.20108  93634462.57444      3375.54208
        46.000          32.000
  22647960.40308  22647966.53244 119015811.10008  92739686.31144      -813.48108
        45.000          32.000
  21762700.05608  21762706.41945 114363697.25308  89114676.01945      -256.13808
        48.000          36.000
  23855878.15606  23855886.05441 125363516.54706  97685894.86941     -1988.48606
        41.000          22.000
  22484998.71308  22485004.58944 118159444.12708  92072366.97244      1050.06808
        46.000          34.000
 11  8  8  0 26  0.0000000  0 10G23G20G31G04G14G25G17G32G24G12       -.000370416
  23354554.31407  23354558.73642 122728993.04907  95633042.98742      5180.12207
        44.000          27.000
  20767972.00008  20767977.61546 109136461.79308  85041428.85146      1388.79408
        48.000          40.000
  22232022.14708  22232028.12745 116830055.34308  91036463.38345      3284.81008
        46.000          36.000
  21999549.57608  21999555.99844 115608397.98008  90084546.18344      4030.15108
        46.000          32.000
  24089088.53106  24089094.65341 126588913.43406  98640816.88241     -1833.31506
        39.000          21.000
  22847261.95108  22847270.93944 120063165.42108  93555779.40044      3356.16708
        46.000          32.000
  22652649.18808  22652655.24844 119040451.85608  92758886.89344      -829.11108
        45.000          33.000
  21764207.43608  21764213.55945 114371616.17008  89120846.49145      -271.84108
        47.000          37.000
  23867247.36906  23867256.84641 125423267.81706  97732454.33841     -1994.96106
        39.000          22.000
  22479065.92508  22479072.36744 118128270.52808  92048075.86444      1028.28608
        46.000          34.000
 11  8  8  0 26 30.0000000  0 10G23G20G31G04G14G25G17G32G24G12       -.000402079
  23325006.72507  23325010.32042 122573717.89607  95512049.40342      5171.86007
        43.000          27.000
  20760101.61309  20760106.98846 109095103.95609  85009201.94946      1368.45709
        49.000          41.000
  22213323.52507  22213329.35744 116731791.84107  90959894.39244      3266.15207
        44.000          35.000
  21976589.42708  21976595.75844 115487743.18908  89990529.49144      4013.50608
        47.000          32.000
  24099575.29906  24099581.89141 126644025.28806  98683761.07441     -1840.68406
        39.000          20.000
  22828156.24607  22828165.40944 119962764.65407  93477545.04644      3337.29507
        44.000          32.000
  22657427.00608  22657432.00644 119065556.19508  92778448.71644      -844.27208
        45.000          33.000
  21765802.39808  21765808.49345 114379998.97908  89127378.54545      -286.93808
        48.000          36.000
  23878653.69906  23878662.04341 125483202.79006  97779156.91041     -2000.80106
        39.000          22.000
  22473256.94208  22473263.02344 118097743.05508  92024288.19844      1007.06508
        46.000          34.000
 11  8  8  0 27  0.0000000  0 10G23G20G31G04G14G25G17G32G24G12       -.000433740
  23295507.59707  23295511.43442 122418698.10707  95391254.77042      5162.95907
        43.000          26.000
  20752350.21008  20752355.69146 109054369.15908  84977460.54246      1347.33908
        48.000          41.000
  22194732.80408  22194738.78845 116634098.72608  90883769.83545      3246.80708
        46.000          36.000
  21953726.65708  21953733.32744 115367598.96508  89896910.64644      3996.20108
        45.000          33.000
  24110107.75205  24110113.97741 126699372.25105  98726888.51241     -1848.89205
        38.000          21.000
  22809160.96208  22809170.26844 119862943.16008  93399762.08844      3317.63208
        45.000          32.000
  22662291.41708  22662297.21444 119091122.97008  92798370.85944      -860.02008
        45.000          32.000
  21767485.48408  21767492.34445 114388845.17508  89134271.70345      -302.63208
        48.000          36.000
  23890094.16806  23890101.83741 125543320.47606  97826001.69841     -2007.03106
        39.000          22.000
  22467571.06808  22467576.97044 118067861.90608  92001004.15344       985.22008
        47.000          34.000
 11  8  8  0 27 30.0000000  0 10G23G20G31G04G14G25G17G32G24G12       -.000465401
  23266056.10307  23266060.22343 122263931.61207  95270657.63143      5154.60007
        43.000          28.000
  20744716.12809  20744721.95546 109014252.27709  84946200.63046      1326.84609
        49.000          40.000
  22176250.37508  22176256.30545 116536972.87608  90808087.36845      3227.98308
        46.000          36.000
  21930960.59908  21930967.04944 115247962.58008  89803687.54044      3979.45808
        45.000          32.000
  24120681.91205  24120689.44441 126754947.04005  98770193.48741     -1856.31805
        38.000          20.000
  22790275.89108  22790284.30043 119763697.72808  93322427.97443      3298.43308
        47.000          31.000
  22667243.65907  22667249.07343 119117144.86907  92818647.64043      -874.98007
        44.000          31.000
  21769255.73609  21769262.92645 114398148.15209  89141520.74945      -317.71009
        49.000          37.000
  23901567.38706  23901575.83741 125603613.82506  97872983.49541     -2012.67606
        40.000          22.000
  22462006.53708  22462012.66544 118038621.64708  91978219.50844       963.95508
        47.000          34.000
 11  8  8  0 28  0.0000000  0 10G23G20G31G04G14G25G17G32G24G12       -.000497064
  23236653.84607  23236657.35242 122109417.52607  95150257.10342      5146.48407
        43.000          27.000
  20737198.94908  20737204.93846 108974750.49308  84915420.00646      1306.75808
        48.000          41.000
  22157875.68108  22157881.25745 116440413.21108  90732845.98945      3209.42908
        46.000          36.000
  21908291.08108  21908297.75144 115128833.69308  89710859.86844      3962.76408
        46.000          33.000
  24131301.02405  24131307.40341 126810744.89105  98813672.31541     -1863.26705
        37.000          20.000
  22771498.83408  22771507.89244 119665027.76708  93245542.30344      3279.71208
        46.000          32.000
  22672280.93408  22672286.60944 119143616.65908  92839275.03744      -889.57008
        45.000          32.000
  21771110.82209  21771118.19745 114407903.72209  89149122.49645      -332.55409
        49.000          37.000
  23913073.72906  23913080.63241 125664078.15306  97920098.71841     -2018.11006
        40.000          22.000
  22456563.82708  22456570.15944 118010019.15108  91955931.84144       942.95408
        47.000          34.000
 11  8  8  0 28 30.0000000  0 10G23G20G31G04G14G25G17G32G24G12        .000471273
  23507093.00407  23507096.85342 123530587.40607  96257662.23442      5137.18807
        43.000          27.000
  21029592.26108  21029598.07446 110511288.15408  86112722.10146      1285.51308
        48.000          41.000
  22439402.91708  22439408.95645 117919848.04608  91885652.26045      3189.74608
        45.000          36.000
  22185512.34708  22185518.90244 116585641.84108  90846035.07444      3944.99008
        47.000          33.000
  24441753.31705  24441760.46241 128442184.54305 100084923.91441     -1871.14305
        37.000          20.000
  23052626.19207  23052635.28044 121142361.83107  94396711.71744      3259.61907
        44.000          32.000
  22977196.24807  22977202.26544 120745958.88107  94087853.40444      -905.17607
        44.000          32.000
  22072847.99609  22072854.00245 115993533.43509  90384678.18845      -348.14909
        49.000          37.000
  24224403.20105  24224411.70041 127300132.30405  99194946.15241     -2024.40405
        38.000          22.000
  22751035.17508  22751041.35144 119557477.64408  93161743.62944       921.15208
        47.000          34.000
 11  8  8  0 29  0.0000000  0 10G23G20G31G04G14G25G17G32G24G12        .000439615
  23477790.28307  23477794.20943 123376601.03807  96137672.89943      5128.42807
        43.000          28.000
  21022312.64308  21022317.98346 110473029.92108  86082910.48446      1264.87308
        48.000          40.000
  22421247.56708  22421253.52645 117824440.52808  91811308.69345      3170.59608
        46.000          36.000
  22163040.64608  22163046.31644 116467549.12808  90754014.77144      3927.72508
        47.000          33.000
  24452457.66605  24452464.85241 128498435.15105 100128755.49341     -1878.69105
        37.000          19.000
  23034072.68608  23034081.75643 121044862.89208  94320738.52543      3240.18508
        46.000          31.000
  22982406.58107  22982412.92444 120773338.61307  94109188.25944      -920.17107
        44.000          32.000
  22074878.00309  22074884.73145 116004203.76609  90392992.70445      -363.33009
        49.000          37.000
  24235976.45206  24235984.21641 127360945.90406  99242333.40441     -2030.01006
        39.000          22.000
  22745837.70408  22745843.57044 119530162.23708  93140458.88444       899.75108
        46.000          34.000
 11  8  8  0 29 30.0000000  0 10G23G20G31G04G14G25G17G32G24G12        .000407953
  23448536.48107  23448540.37143 123222872.70307  96017884.61243      5119.66807
        42.000          28.000
  21015148.46308  21015154.04446 110435383.29708  86053575.42246      1244.27708
        48.000          40.000
  22403200.52208  22403206.18245 117729601.86208  91737408.50245      3151.33808
        45.000          36.000
  22140665.61708  22140671.77944 116349968.59008  90662393.60444      3910.38108
        46.000          33.000
  24463203.16305  24463209.38541 128554899.29105 100172753.49441     -1885.94205
        38.000          19.000
  23015629.55007  23015638.25044 120947942.67407  94245216.28144      3220.60107
        43.000          32.000
  22987700.60907  22987707.02844 120801159.35407  94130866.72944      -935.12707
        44.000          32.000
  22076993.68909  22076999.55545 116015319.51309  90401654.32945      -378.40809
        49.000          37.000
  24247580.01206  24247587.33841 127421920.79506  99289846.03941     -2035.52706
        39.000          21.000
  22740759.95608  22740766.10944 119503479.78508  93119667.32544       878.56008
        46.000          34.000
 11  8  8  0 30  0.0000000  0 10G23G20G31G04G14G25G17G32G24G12        .000376295
  23419333.94707  23419338.32742 123069414.30307  95898306.68842      5110.97607
        42.000          27.000
  21008102.73308  21008108.38146 110398357.45708  86024724.09846      1224.08208
        47.000          40.000
  22385263.43008  22385269.02245 117635342.97908  91663960.12045      3132.63708
        46.000          37.000
  22118389.97908  22118396.27344 116232911.60008  90571180.37244      3893.31508
        47.000          33.000
  24473989.26005  24473996.65241 128611583.75105 100216923.15541     -1893.14405
        36.000          18.000
  22997298.62207  22997307.49643 120851612.24007  94170153.60143      3201.34307
        44.000          31.000
  22993079.97407  22993086.13944 120829427.93007  94152894.20644      -949.43407
        43.000          32.000
  22079194.85608  22079201.15045 116026888.36208  90410669.01045      -392.94408
        48.000          37.000
  24259215.40906  24259222.94641 127483064.81306  99337490.62141     -2040.79606
        40.000          22.000
  22735804.68508  22735810.89444 119477438.92808  93099375.71844       857.64208
        46.000          34.000
 11  8  8  0 30 30.0000000  0 10G23G20G31G04G14G25G17G32G24G12        .000344638
  23390183.80707  23390188.10143 122916227.17407  95778940.12743      5101.72407
        43.000          29.000
  21001174.72509  21001180.18846 110361950.87209  85996355.27946      1203.22309
        49.000          41.000
  22367437.34408  22367442.84545 117541664.26608  91590963.74645      3112.94408
        47.000          37.000
  22096214.32208  22096220.78844 116116379.18808  90480375.93344      3875.71808
        46.000          32.000
  24484817.43305  24484824.51541 128668485.11005 100261261.85441     -1900.26405
        36.000          19.000
  22979079.68608  22979088.52244 120755872.44408  94095551.16244      3181.51408
        47.000          32.000
  22998544.30907  22998549.88544 120858140.93307  94175267.96244      -964.43407
        43.000          32.000
  22081481.89308  22081488.65345 116038907.47108  90420034.51545      -408.12008
        48.000          37.000
  24270882.08305  24270889.44541 127544374.58905  99385264.46141     -2046.28405
        38.000          20.000
  22730970.80208  22730977.15744 119452037.56408  93079582.40344       836.04008
        46.000          33.000
 11  8  8  0 31  0.0000000  0 10G23G20G31G04G14G25G17G32G24G12        .000312980
  23361084.54707  23361088.96343 122763309.76707  95659783.73643      5092.94407
        43.000          29.000
  20994363.64908  20994369.37846 110326158.90808  85968465.43046      1183.06208
        48.000          40.000
  22349720.41408  22349726.12745 117448562.86308  91518417.20345      3093.92608
        45.000          37.000
  22074139.22308  22074145.13044 116000369.43808  90389978.75144      3858.44208
        46.000          33.000
  24495685.77005  24495693.04041 128725596.72905 100305764.35341     -1907.12405
        37.000          20.000
  22960973.22307  22960982.02644 120660720.58307  94021406.83544      3162.06607
        43.000          32.000
  23004090.44907  23004097.15143 120887291.64407  94197982.79643      -978.75007
        43.000          30.000
  22083853.61008  22083860.30445 116051370.96408  90429746.32345      -422.58808
        48.000          36.000
  24282578.15705  24282587.29041 127605843.68205  99433162.55341     -2051.20605
        38.000          21.000
  22726258.03308  22726263.96444 119427270.30008  93060283.21544       815.23408
        46.000          33.000
 11  8  8  0 31 30.0000000  0 10G23G20G31G04G14G25G17G32G24G12        .000281320
  23332036.28407  23332040.34343 122610660.71907  95540836.50343      5083.33007
        42.000          29.000
  20987668.87408  20987674.59746 110290977.89208  85941051.63646      1162.04608
        48.000          41.000
  22332112.94608  22332118.89245 117356037.11408  91446319.29445      3074.04808
        46.000          36.000
  22052162.06108  22052168.33944 115884881.00408  90299987.78644      3840.44008
        47.000          33.000
  24506591.97905  24506599.54741 128782912.48605 100350425.94741     -1914.30705
        36.000          19.000
  22942978.02508  22942987.22144 120566154.99308  93947719.40144      3141.91408
        46.000          32.000
  23009720.25507  23009726.86743 120916874.39907  94221034.31243      -993.75507
        44.000          31.000
  22086309.13408  22086315.92145 116064273.45708  90439800.13345      -437.83708
        48.000          37.000
  24294306.18706  24294314.04541 127667465.93006  99481179.93041     -2057.08506
        39.000          22.000
  22721664.98308  22721670.65744 119403132.73608  93041474.68144       793.62808
        45.000          33.000
 11  8  8  0 32  0.0000000  0 10G23G20G31G04G14G25G17G32G24G12        .000249655
  23303039.23607  23303043.15043 122458280.97807  95422099.12043      5074.80507
        42.000          28.000
  20981090.19508  20981095.90346 110256404.80708  85914111.49846      1142.40708
        48.000          40.000
  22314615.24108  22314621.46844 117264086.10908  91374669.14844      3055.53708
        46.000          35.000
  22030284.39008  22030291.01044 115769913.88508  90210403.01844      3823.62808
        47.000          33.000
  24517536.68805  24517543.99941 128840428.06005 100395243.16741     -1920.52705
        37.000          20.000
  22925094.23808  22925103.16444 120472175.35408  93874488.52144      3122.94008
        45.000          32.000
  23015431.09407  23015437.25443 120946884.73507  94244418.98943     -1007.36807
        43.000          30.000
  22088846.92408  22088853.87645 116077611.34408  90450193.24045      -451.83608
        48.000          36.000
  24306060.19505  24306068.24341 127729236.53605  99529312.59341     -2061.57205
        38.000          23.000
  22717190.87008  22717196.69444 119379622.00308  93023154.53344       773.35008
        46.000          33.000
 11  8  8  0 32 30.0000000  0 10G23G20G31G04G14G25G17G32G24G12        .000217990
  23274094.88507  23274098.80642 122306178.31207  95303577.58342      5065.38107
        42.000          27.000
  20974627.71008  20974633.32746 110222445.23208  85887649.46446      1121.77708
        47.000          40.000
  22297228.57607  22297234.62645 117172717.49007  91303472.79945      3035.94707
        44.000          36.000
  22008507.70208  22008514.59944 115655476.28408  90121230.87844      3805.83008
        46.000          34.000
  24528520.64905  24528527.80141 128898146.65205 100440218.55041     -1927.52005
        37.000          20.000
  22907323.80707  22907332.11144 120378789.24007  93801720.14444      3102.85707
        44.000          33.000
  23021223.82107  23021229.87743 120977325.93007  94268139.39143     -1021.81607
        43.000          31.000
  22091469.34108  22091475.67145 116091389.00608  90460929.05645      -466.56708
        48.000          36.000
  24317842.92805  24317851.75741 127791160.07205  99577564.53741     -2066.52805
        37.000          20.000
  22712837.60308  22712843.29744 119356742.88608  93005326.57644       752.05608
        46.000          33.000
 11  8  8  0 33  0.0000000  0 10G23G20G31G04G14G25G17G32G24G12        .000186327
  23245205.35207  23245208.88743 122154359.52507  95185277.30343      5055.61507
        43.000          29.000
  20968283.06708  20968288.59846 110189102.99108  85861668.52146      1100.78108
        48.000          40.000
  22279953.64707  22279959.42345 117081936.72307  91232734.52245      3015.85407
        44.000          36.000
  21986832.75208  21986839.57344 115541574.27008  90032476.08844      3787.38808
        46.000          33.000
  24539543.20205  24539550.67341 128956070.52605 100485354.04841     -1934.48705
        36.000          19.000
  22889666.41908  22889675.57844 120286002.41008  93729418.75044      3082.52008
        45.000          32.000
  23027099.30607  23027105.09443 121008199.75907  94292196.90443     -1036.64507
        43.000          31.000
  22094175.02109  22094181.79445 116105608.56109  90472009.22045      -481.71909
        49.000          37.000
  24329655.92905  24329665.01141 127853238.23205  99625937.00241     -2072.12405
        37.000          20.000
  22708604.50808  22708610.26644 119334498.86908  92987993.56944       730.57108
        46.000          33.000
 11  8  8  0 33 30.0000000  0 10G23G20G31G04G14G25G17G32G24G12        .000154667
  23216369.46707  23216373.44043 122002827.12907  95067200.14643      5046.43607
        44.000          30.000
  20962055.62508  20962061.09746 110156377.39208  85836168.09046      1080.74208
        48.000          40.000
  22262790.42108  22262796.24245 116991745.26208  91162455.47745      2996.78708
        46.000          37.000
  21965260.23208  21965267.00544 115428210.03808  89944140.29844      3770.07308
        45.000          34.000
  24550603.91405  24550611.91441 129014196.97105 100530647.22341     -1940.77105
        36.000          20.000
  22872124.39108  22872133.35944 120193816.58108  93657585.66044      3063.02708
        46.000          33.000
  23033055.85407  23033062.14643 121039503.97507  94316589.77143     -1050.54207
        43.000          31.000
  22096965.20208  22096971.35045 116120268.39108  90483432.39445      -495.77608
        48.000          37.000
  24341500.17106  24341507.12641 127915468.84506  99674428.29741     -2076.70406
        39.000          21.000
  22704492.71408  22704498.05444 119312888.90608  92971154.64344       709.98108
        46.000          33.000
 11  8  8  0 34  0.0000000  0 10G23G20G31G04G14G25G17G32G24G12        .000123004
  23187587.41807  23187591.61443 121851577.28707  94949343.14243      5036.75807
        44.000          28.000
  20955944.35108  20955949.36846 110124261.39708  85811142.66246      1060.25408
        48.000          41.000
  22245739.12108  22245744.90445 116902138.15908  91092631.76745      2976.99208
        47.000          36.000
  21943789.37108  21943796.03244 115315379.51608  89856220.42944      3752.04108
        46.000          34.000
  24561701.65805  24561708.76841 129072517.24805 100576091.49441     -1947.35405
        36.000          19.000
  22854695.21208  22854704.51244 120102226.80408  93586217.00944      3042.95408
        47.000          34.000
  23039093.38607  23039099.32743 121071229.13207  94341310.67243     -1064.60907
        42.000          30.000
  22099836.68208  22099843.32745 116135360.40908  90495192.38645      -510.29308
        48.000          36.000
  24353369.09306  24353376.58141 127977843.25606  99723031.78141     -2081.64506
        39.000          21.000
  22700498.90008  22700504.99544 119291904.97708  92954803.47644       688.95508
        46.000          34.000
 11  8  8  0 34 30.0000000  0 10G23G20G31G04G14G25G17G32G24G12        .000091342
  23158859.88207  23158863.90243 121700615.61607  94831710.69243      5027.21207
        43.000          28.000
  20949949.20608  20949954.72646 110092758.09608  85786594.67746      1040.03408
        48.000          40.000
  22228799.57008  22228805.00845 116813119.93408  91023266.95445      2957.52408
        45.000          36.000
  21922420.81808  21922427.63944 115203087.87308  89768720.44044      3734.14608
        46.000          34.000
  24572837.13605  24572844.85441 129131032.43805 100621687.68441     -1953.60405
        36.000          20.000
  22837380.55007  22837389.68144 120011238.19707  93515316.80944      3023.08607
        44.000          33.000
  23045210.91307  23045216.99643 121103376.98807  94366360.93043     -1078.49107
        43.000          30.000
  22102791.19608  22102798.04245 116150885.95008  90507290.14745      -524.60008
        48.000          36.000
  24365265.21205  24365273.98041 128040362.56005  99771748.18141     -2086.31805
        37.000          21.000
  22696625.22708  22696631.51144 119271549.70208  92938942.23644       668.13508
        46.000          34.000
 11  8  8  0 35  0.0000000  0 11G23G20G31G04G14G25G02G17G32G24G12     .000059682
  23130187.13807  23130191.23243 121549940.54307  94714301.57143      5017.48107
        44.000          28.000
  20944070.25508  20944075.05946 110061862.66408  85762520.31046      1019.47308
        48.000          40.000
  22211971.45608  22211976.96245 116724688.06808  90954359.07645      2937.68508
        47.000          36.000
  21901155.19108  21901161.25944 115091332.96208  89681638.65844      3716.05508
        46.000          33.000
  24584008.57805  24584016.28741 129189735.79005 100667430.40341     -1960.18105
        37.000          19.000
  22820180.21508  22820188.91544 119920848.06108  93444882.93844      3002.84208
        45.000          33.000
  25369174.37504  25369180.80041 133315877.68004 103882547.56241      5425.93804
        33.000          17.000
  23051407.75307  23051413.77443 121135940.24107  94391734.87443     -1092.55407
        42.000          31.000
  22105827.19308  22105833.61244 116166839.56908  90519721.53644      -539.10608
        48.000          35.000
  24377188.23805  24377197.24141 128103019.73205  99820571.66341     -2090.98105
        36.000          22.000
  22692870.86408  22692877.02144 119251817.97808  92923566.88544       647.13408
        45.000          33.000
 11  8  8  0 35 30.0000000  0 11G23G20G31G04G14G25G02G17G32G24G12     .000028017
  23101570.34007  23101574.60443 121399556.70307  94597119.37943      5007.85207
        44.000          29.000
  20938306.83108  20938311.79946 110031576.52008  85738920.72446       999.27208
        48.000          40.000
  22195255.27708  22195261.23745 116636845.89208  90885910.73345      2918.07608
        46.000          36.000
  21879991.47608  21879998.10144 114980119.14608  89594978.52444      3697.91008
        47.000          33.000
  24595215.60105  24595222.21641 129248627.06605 100713319.56241     -1966.06905
        36.000          18.000
  22803093.97808  22803102.90744 119831060.10508  93374918.28244      2982.76408
        46.000          33.000
  25338208.32105  25338213.06741 133153142.32405 103755740.95041      5422.69605
        36.000          18.000
  23057682.72007  23057689.56443 121168918.81407  94417432.43043     -1106.25007
        44.000          31.000
  22108944.36508  22108951.14645 116183221.24908  90532486.43645      -553.31508
        48.000          36.000
  24389139.28105  24389147.13941 128165815.63705  99869503.45241     -2095.57105
        38.000          20.000
  22689234.39708  22689240.49944 119232710.60608  92908678.05244       626.39608
        45.000          33.000
 11  8  8  0 36  0.0000000  0 11G23G20G31G04G14G25G02G17G32G24G12    -.000003650
  23073009.40107  23073013.79743 121249465.92507  94480165.56943      4997.75907
        43.000          29.000
  20932659.23908  20932664.59846 110001898.06608  85715794.68246       978.73508
        48.000          40.000
  22178652.10408  22178656.98745 116549593.86208  90817922.18745      2898.14508
        46.000          37.000
  21858930.96708  21858938.17544 114869447.66108  89508741.00544      3679.58508
        47.000          33.000
  24606457.54304  24606463.94041 129307703.27604 100759352.89641     -1972.91004
        35.000          16.000
  22786122.57308  22786131.54544 119741875.08708  93305423.43844      2962.34908
        46.000          34.000
  25307258.11504  25307263.55841 132990501.71404 103629007.93641      5419.36504
        34.000          17.000
  23064037.31607  23064043.57043 121202309.28407  94443450.94743     -1120.20007
        43.000          31.000
  22112142.68008  22112149.44345 116200028.34908  90545582.83645      -567.77308
        48.000          36.000
  24401114.25805  24401122.07641 128228746.59305  99918540.49241     -2100.24405
        37.000          19.000
  22685717.00108  22685723.12644 119214225.49308  92894274.11544       605.37108
        45.000          33.000
 11  8  8  0 36 30.0000000  0 11G23G20G31G04G14G25G02G17G32G24G12    -.000035313
  23044504.94707  23044509.51443 121099676.93807  94363446.89043      4988.00307
        42.000          30.000
  20927128.08009  20927133.47646 109972833.54309  85693147.04246       958.71609
        49.000          40.000
  22162162.51208  22162167.90545 116462939.94108  90750399.67445      2878.64308
        45.000          37.000
  21837976.15608  21837982.28444 114759327.00508  89422932.68944      3661.68008
        47.000          34.000
  24617735.48304  24617742.09141 129366968.36504 100805533.39641     -1978.33004
        35.000          17.000
  22769267.73707  22769276.85844 119653300.93807  93236404.56944      2942.49507
        44.000          34.000
  25276328.96804  25276334.49341 132827964.87404 103502356.01941      5416.39204
        35.000          18.000
  23070470.47907  23070476.69743 121236115.90407  94469793.73443     -1133.74007
        42.000          29.000
  22115422.94708  22115429.69844 116217265.95208  90559014.73644      -581.54308
        48.000          35.000
  24413116.92405  24413124.48141 128291817.18105  99967686.30641     -2104.57505
        38.000          21.000
  22682318.85308  22682325.05144 119196368.06208  92880359.22944       584.91708
        46.000          32.000
 11  8  8  0 37  0.0000000  0 11G23G20G31G04G14G25G02G17G32G24G12    -.000066979
  23016057.38807  23016061.92043 120950184.24707  94246959.07543      4977.53407
        43.000          30.000
  20921712.72708  20921718.09646 109944374.16208  85670970.94246       938.01308
        48.000          41.000
  22145784.45008  22145790.64945 116376877.22908  90683337.85245      2858.26208
        46.000          37.000
  21817124.39408  21817131.47044 114649751.33708  89337549.06744      3642.79308
        47.000          34.000
  24629046.95504  24629054.44341 129426411.75704 100851852.73741     -1984.93604
        35.000          17.000
  22752527.57307  22752536.51244 119565331.17607  93167856.63444      2921.66007
        44.000          34.000
  25245417.49505  25245423.31841 132665525.95605 103375780.42341      5412.38305
        37.000          16.000
  23076980.49607  23076987.04843 121270328.00707  94496452.49943     -1147.67607
        42.000          30.000
  22118783.10209  22118789.61945 116234924.23209  90572774.51145      -596.18709
        49.000          36.000
  24425143.23605  24425152.00041 128355017.21905 100016932.95941     -2109.48205
        36.000          20.000
  22679038.45708  22679044.49444 119179129.05108  92866926.15544       563.79408
        45.000          33.000
 11  8  8  0 37 30.0000000  0 11G23G20G31G04G14G25G02G17G32G24G12    -.000098642
  22987668.58107  22987672.63943 120800998.63407  94130710.54343      4967.83207
        43.000          30.000
  20916413.23108  20916418.76146 109916527.61508  85649272.33746       918.22308
        47.000          41.000
  22129522.80308  22129528.40345 116291415.57408  90616744.36545      2838.77908
        46.000          37.000
  21796378.60408  21796385.11144 114540730.96208  89252598.13144      3624.80508
        46.000          34.000
  24640393.85704  24640401.93241 129486039.66004 100898315.94741     -1990.57604
        34.000          16.000
  22735904.63208  22735913.28544 119477975.92408  93099787.57744      2901.65008
        47.000          34.000
  25214525.97005  25214532.79241 132503195.35605 103249289.01441      5409.29205
        36.000          17.000
  23083569.56607  23083575.42743 121304951.66507  94523431.95943     -1160.96707
        42.000          30.000
  22122224.55808  22122231.05244 116253009.76408  90586867.22744      -609.73608
        48.000          35.000
  24437194.64904  24437204.23941 128418352.91704 100066285.33841     -2113.25204
        34.000          21.000
  22675876.69408  22675883.17944 119162516.13808  92853981.01644       543.46708
        45.000          33.000
 11  8  8  0 38  0.0000000  0 11G23G20G31G04G14G25G02G17G32G24G12    -.000130309
  22959336.29507  22959340.77643 120652111.93007  94014694.91843      4958.33007
        43.000          29.000
  20911229.24108  20911234.44646 109889281.92808  85628041.82146       898.64308
        47.000          40.000
  22113371.43908  22113377.36745 116206545.18008  90550611.66045      2819.60508
        46.000          37.000
  21775736.98408  21775743.48744 114432256.81208  89168072.82844      3607.10908
        47.000          34.000
  24651772.74205  24651781.10341 129545839.13905 100944912.76841     -1995.65905
        36.000          17.000
  22719396.31608  22719405.60644 119391225.40008  93032189.68944      2882.11908
        47.000          34.000
  25183656.08605  25183661.47441 132340964.69505 103122875.73541      5406.62105
        38.000          19.000
  23090234.05807  23090240.34243 121339973.34507  94550721.59343     -1173.64307
        42.000          29.000
  22125744.55308  22125751.21944 116271509.74908  90601282.95144      -623.01308
        48.000          35.000
  24449271.15505  24449278.90541 128481810.95005 100115733.02241     -2116.83105
        38.000          19.000
  22672832.66008  22672838.52544 119146516.66308  92841513.85344       523.57908
        45.000          34.000
 11  8  8  0 38 30.0000000  0 11G23G20G31G04G14G25G02G17G32G24G12    -.000161975
  22931062.93107  22931067.30243 120503531.97707  93898918.19343      4947.38807
        43.000          29.000
  20906159.75108  20906165.27246 109862642.60608  85607283.74646       877.79808
        48.000          40.000
  22097335.15308  22097340.86345 116122273.04008  90484945.09645      2798.95008
        47.000          37.000
  21755200.36308  21755206.54044 114324336.91608  89083979.40044      3587.98808
        46.000          34.000
  24663186.58805  24663193.46241 129605813.63705 100991646.13041     -2002.08505
        37.000          17.000
  22703004.97608  22703014.06844 119305087.08108  92965068.87044      2861.03008
        46.000          34.000
  25152804.35105          .000   132178842.17805          .000        5402.04605
        36.000            .000
  23096975.31907  23096980.91343 121375396.37107  94578323.92743     -1187.63207
        42.000          30.000
  22129345.01908  22129350.72844 116290428.08208  90616024.55844      -637.70008
        47.000          35.000
  24461371.16906  24461379.05841 128545394.96006 100165278.91541     -2121.75806
        39.000          19.000
  22669905.29508  22669911.52944 119131135.28708  92829528.30644       502.26108
        46.000          33.000
 11  8  8  0 39  0.0000000  0 12G23G20G31G04G14G25G02G17G13G32G24G12 -.000193636
  22902849.15807  22902854.21643 120355268.77507  93783388.01943      4936.95807
        43.000          30.000
  20901207.42408  20901212.79646 109836616.51208  85587003.43446       857.46608
        48.000          40.000
  22081414.65908  22081420.11445 116038608.41708  90419751.88545      2778.81408
        46.000          37.000
  21734771.38408  21734777.26744 114216980.95608  89000325.41444      3569.20908
        46.000          34.000
  24674633.56905  24674640.90341 129665968.25505 101038519.77941     -2008.19305
        36.000          17.000
  22686731.60408  22686740.65844 119219570.19908  92898432.35444      2840.26408
        45.000          34.000
  25121975.68304  25121982.49041 132016837.41204 102870320.92541      5398.23704
        35.000          20.000
  23103792.51206  23103798.87243 121411225.80306  94606242.92843     -1200.89806
        41.000          30.000
  25049304.18804          .000   131634902.60804          .000        5790.24404
        33.000            .000
  22133025.84608  22133032.15744 116309770.59908  90631096.62844      -651.68908
        48.000          35.000
  24473494.87405  24473503.10541 128609110.35405 100214927.23141     -2125.77205
        36.000          19.000
  22667097.62708  22667103.54944 119116378.31308  92818029.30444       481.55308
        46.000          33.000
 11  8  8  0 39 30.0000000  0 12G23G20G31G04G14G25G02G17G13G32G24G12 -.000225302
  22874694.18507  22874698.92243 120207312.07607  93668097.13343      4926.75307
        44.000          29.000
  20896368.72908  20896374.15446 109811189.53508  85567190.26546       837.49508
        48.000          40.000
  22065606.80908  22065612.31345 115955538.02108  90355021.70545      2759.04308
        47.000          36.000
  21714447.32408  21714453.38244 114110176.59408  88917101.22544      3550.91808
        47.000          35.000
  24686111.41605  24686119.13741 129726286.24905 101085520.73141     -2013.23705
        37.000          17.000
  22670574.12008  22670583.02644 119134661.95608  92832270.12644      2820.14208
        45.000          35.000
  25091167.83006  25091174.42941 131854938.99406 102744166.47241      5394.74606
        39.000          17.000
  23110684.96307  23110691.22243 121447445.28807  94634465.89143     -1213.77407
        42.000          29.000
  25016256.56106  25016262.96241 131461225.50106 102437410.96641      5788.29606
        39.000          18.000
  22136784.15108  22136790.12044 116329521.61108  90646487.01944      -665.22508
        47.000          35.000
  24485642.24104  24485651.26341 128672941.14404 100264665.27141     -2129.72704
        35.000          19.000
  22664405.12808  22664411.35044 119102230.97008  92807005.51044       461.45008
        45.000          33.000
 11  8  8  0 40  0.0000000  0 11G23G20G31G04G14G25G02G17G32G24G12    -.000256970
  22846598.40407  22846603.18843 120059667.30007  93553049.06143      4916.40107
        44.000          30.000
  20891644.54709  20891649.77846 109786364.51309  85547846.14746       817.64709
        49.000          40.000
  22049912.89708  22049918.61545 115873067.29508  90290758.80245      2739.17508
        47.000          37.000
  21694228.74808  21694235.58544 114003930.12408  88834311.77544      3532.43708
        47.000          35.000
  24697620.52204  24697628.41441 129786769.71304 101132650.54141     -2018.65204
        35.000          16.000
  22654533.46608  22654542.60544 119050367.94408  92766586.51244      2799.79508
        46.000          34.000
  25060381.78105  25060387.13141 131693153.51405 102618099.88741      5391.12305
        38.000          20.000
  23117651.93307  23117657.99743 121484056.50107  94662994.10743     -1226.79707
        42.000          29.000
  22140620.55808  22140627.40744 116349683.47908  90662197.49144      -678.81808
        47.000          35.000
  24497810.73705  24497820.02141 128736889.78505 100314495.40941     -2133.44205
        37.000          20.000
  22661829.79308  22661835.62944 119088695.64808  92796458.54644       441.18208
        45.000          33.000
 11  8  8  0 40 30.0000000  0 12G23G20G31G04G14G25G02G17G13G32G24G12 -.000288638
  22818563.12708  22818567.05343 119912339.14308  93438248.24843      4905.37108
        45.000          30.000
  20887034.99608  20887040.33046 109762141.20008  85528970.82846       797.07508
        48.000          40.000
  22034333.94908  22034339.41045 115791198.21008  90226964.71445      2718.61308
        46.000          37.000
  21674117.87608  21674124.32644 113898244.25908  88751959.14844      3513.20308
        47.000          35.000
  24709161.50505  24709169.76741 129847417.69305 101179908.67041     -2024.59005
        36.000          18.000
  22638609.85808  22638618.79644 118966690.24408  92701383.11044      2778.75008
        46.000          34.000
  25029616.65605  25029621.48941 131531483.91605 102492123.60241      5386.74805
        37.000          18.000
  23124692.97007  23124698.70443 121521057.30807  94691825.88543     -1240.03407
        42.000          29.000
  24950191.88303  24950201.38041 131114063.73503 102166902.48241      5783.18803
        31.000          16.000
  22144535.91308  22144541.83844 116370254.91108  90678226.90844      -692.80808
        48.000          34.000
  24510003.07105  24510011.08341 128800954.06805 100364415.55841     -2137.74905
        38.000          21.000
  22659369.78807  22659376.21544 119075771.78507  92786388.01844       420.28807
        44.000          33.000
 11  8  8  0 41  0.0000000  0 12G23G20G31G04G14G25G02G17G13G32G24G12 -.000320305
  22790588.00808  22790592.15543 119765330.63108  93323696.29543      4894.96608
        45.000          31.000
  20882540.49808  20882545.87746 109738520.76608  85510565.18046       777.30008
        48.000          41.000
  22018869.89908  22018875.36445 115709934.14608  90163642.05745      2698.68208
        48.000          37.000
  21654113.72008  21654120.63344 113793123.21708  88670046.65644      3494.62408
        47.000          34.000
  24720734.31804  24720741.86941 129908229.37504 101227294.34541     -2029.71204
        35.000          17.000
  22622804.36008  22622813.45744 118883632.31208  92636662.67144      2758.26208
        46.000          34.000
  24998872.38804  24998879.98041 131369934.52304 102366240.93341      5383.16904
        33.000          20.000
  23131807.96306  23131813.91743 121558447.55106  94720961.13443     -1252.86106
        41.000          28.000
  24917182.27505  24917189.08541 130940586.97405 102031725.87741      5781.32805
        38.000          17.000
  22148529.01608  22148535.31644 116391236.43008  90694575.85344      -706.20608
        47.000          35.000
  24522215.77205  24522223.18241 128865133.89905 100414425.78641     -2141.35305
        36.000          18.000
  22657027.60408  22657033.71144 119063460.41408  92776794.79844       400.20008
        45.000          33.000
 11  8  8  0 41 30.0000000  0 12G23G20G31G04G14G25G02G17G13G32G24G12 -.000351972
  22762673.85508  22762678.29843 119618643.97008  93209395.10843      4884.24308
        45.000          31.000
  20878159.93208  20878165.42746 109715501.98908  85492628.36646       757.34908
        48.000          40.000
  22003521.06908  22003526.51845 115629275.40308  90100791.11645      2678.59408
        47.000          38.000
  21634217.23108  21634224.00944 113688567.68308  88588574.81044      3475.82008
        47.000          35.000
  24732336.75105  24732344.73441 129969201.74805 101274805.18241     -2034.90205
        37.000          18.000
  22607117.08808  22607126.00844 118801194.58108  92572425.49544      2737.64608
        47.000          35.000
  24968155.79405  24968162.15541 131208507.25605 102240453.62441      5378.90605
        38.000          22.000
  23138996.43506  23139002.94843 121596223.87006  94750397.21443     -1265.56606
        41.000          29.000
  24884183.32604  24884191.09941 130767182.24704 101896605.45641      5778.81904
        35.000          16.000
  22152598.64008  22152605.48744 116412626.26508  90711243.38444      -719.77108
        48.000          35.000
  24534450.19905  24534458.14041 128929426.78205 100464524.06741     -2144.78505
        36.000          17.000
  22654800.29707  22654807.01044 119051758.93507  92767676.74944       379.95107
        44.000          33.000
 11  8  8  0 42  0.0000000  0 12G23G20G31G04G14G25G02G17G13G32G24G12 -.000383639
  22734822.51208  22734826.30943 119472282.14408  93095347.07543      4873.39408
        46.000          31.000
  20873894.26908  20873899.79346 109693084.81008  85475160.44746       737.29508
        48.000          40.000
  21988287.28108  21988292.68745 115549223.22308  90038412.70245      2658.33008
        46.000          36.000
  21614429.11208  21614435.67444 113584580.33908  88507545.69844      3456.91408
        47.000          35.000
  24743970.12305  24743977.17341 130030332.93905 101322439.81241     -2040.24405
        37.000          16.000
  22591548.27708  22591556.96244 118719378.83108  92508672.95044      2716.94808
        45.000          33.000
  24937460.33005  24937466.46841 131047204.49505 102114763.15341      5374.65305
        38.000          20.000
  23146258.65607  23146264.29243 121634383.99307  94780132.35443     -1278.33007
        43.000          30.000
  24851197.69803          .000   130593852.93003          .000        5776.54303
        31.000            .000
  22156746.09708  22156752.63044 116434422.25208  90728227.46844      -733.18408
        47.000          35.000
  24546705.68505  24546714.43241 128993830.53505 100514708.72441     -2148.56005
        38.000          18.000
  22652690.10908  22652696.28944 119040666.70908  92759033.41144       359.72708
        45.000          33.000
 11  8  8  0 42 30.0000000  0 12G23G20G31G04G14G25G02G17G13G32G24G12 -.000415308
  22707032.14208  22707036.25143 119326243.93708  92981551.17043      4862.31508
        46.000          31.000
  20869741.74108  20869747.27646 109671265.06908  85458158.13846       717.13908
        48.000          40.000
  21973169.06508  21973174.50845 115469775.51208  89976505.34045      2637.92008
        47.000          37.000
  21594749.02408  21594755.47544 113481159.46908  88426958.00444      3437.72508
        48.000          35.000
  24755632.29704  24755639.61841 130091617.16104 101370193.73341     -2045.49804
        35.000          16.000
  22576097.53408  22576106.50144 118638183.05208  92445403.51544      2695.92308
        47.000          34.000
  24906789.37905  24906795.59141 130886025.34005 101989169.09941      5370.12205
        37.000          20.000
  23153592.46507  23153597.61043 121672922.17307  94810162.03043     -1291.06907
        43.000          28.000
  24818231.24605          .000   130420597.71605          .000        5773.68205
        36.000            .000
  22160970.73208  22160976.87844 116456619.10408  90745523.78144      -746.79708
        47.000          35.000
  24558982.18005  24558989.91141 129058339.96905 100564975.80841     -2152.24105
        38.000          20.000
  22650693.90907  22650700.26644 119030178.76707  92750860.93844       339.32107
        44.000          33.000
 11  8  8  0 43  0.0000000  0 12G23G20G31G04G14G25G02G17G13G32G24G12 -.000446976
  22679305.18908  22679308.81743 119180535.90508  92868012.57143      4851.48908
        46.000          31.000
  20865703.86509  20865709.39146 109650045.06509  85441623.14546       697.47109
        49.000          40.000
  21958166.80008  21958172.23045 115390937.27008  89915072.93645      2617.87608
        46.000          37.000
  21575177.49308  21575183.64644 113378310.88108  88346816.22944      3418.87208
        48.000          35.000
  24767323.70304  24767330.86041 130153055.81704 101418067.91041     -2050.46904
        35.000          15.000
  22560765.05408  22560774.12944 118557612.32808  92382621.16344      2675.44408
        47.000          34.000
  24876142.37304  24876148.11841 130724975.53204 101863675.69341      5366.42104
        35.000          19.000
  23160997.31407  23161003.39843 121711839.94607  94840487.57943     -1303.49107
        43.000          28.000
  24785276.01804  24785284.30741 130247422.90304 101491598.05141      5771.27004
        33.000          18.000
  22165270.74908  22165277.24144 116479218.73308  90763133.90744      -759.90208
        47.000          35.000
  24571278.12405  24571286.88041 129122956.56405 100615326.35541     -2155.52205
        38.000          19.000
  22648813.59507  22648819.82844 119020297.70307  92743161.42644       319.39907
        44.000          33.000
 11  8  8  0 43 30.0000000  0 12G23G20G31G04G14G25G02G17G13G32G24G12 -.000478641
  22651641.03408  22651645.10443 119035162.94408  92754735.01843      4839.91208
        46.000          30.000
  20861780.22308  20861785.78046 109629426.66508  85425556.92746       677.04108
        48.000          40.000
  21943281.09108  21943286.45045 115312712.07508  89854118.29045      2597.03608
        47.000          37.000
  21555715.73608  21555722.13744 113276039.05608  88267123.89644      3399.17508
        47.000          34.000
  24779044.27105  24779051.96841 130214649.33805 101466062.75441     -2055.80105
        36.000          16.000
  22545552.32708  22545561.54744 118477670.39408  92320328.76144      2653.98908
        47.000          34.000
  24845521.12405  24845526.52441 130564060.86105 101738287.71841      5361.26005
        37.000          19.000
  23168475.30507  23168481.71843 121751137.01007  94871108.63943     -1316.33307
        43.000          28.000
  24752338.57205  24752346.43341 130074333.86905 101356723.43641      5767.79305
        36.000          19.000
  22169648.35608  22169654.84744 116502221.95108  90781058.45344      -773.75508
        48.000          34.000
  24583593.71805  24583602.85541 129187680.78405 100665760.84241     -2159.58505
        38.000          19.000
  22647049.67508  22647055.32444 119011024.31308  92735935.30444       298.66208
        45.000          33.000
 11  8  8  0 44  0.0000000  0 12G23G20G31G04G14G25G02G17G13G32G24G12  .000489692
  22923833.43608  22923837.85343 120465545.74408  93869319.07443      4829.35508
        46.000          30.000
  21157762.05908  21157767.71446 111184822.88408  86637554.09846       657.75408
        48.000          40.000
  22228303.70108  22228309.54745 116810516.56908  91021238.70545      2577.32408
        47.000          37.000
  21836156.02508  21836162.83944 114749762.30808  89415479.67744      3380.66908
        47.000          35.000
  25090585.15305  25090592.36141 131851806.76105 102741769.81241     -2060.16605
        37.000          16.000
  22830251.52408  22830260.75144 119973774.37008  93486124.10444      2633.78408
        47.000          34.000
  25114718.21805  25114723.93041 131978702.29805 102840605.76841      5357.47605
        36.000          19.000
  23475815.80806  23475822.40143 123366222.66106  96129616.95943     -1328.16406
        41.000          28.000
  25019206.83503          .000   131476752.07403          .000        5765.60503
        31.000            .000
  22473892.73908  22473899.69044 118101039.15908  92026889.96944      -786.34808
        47.000          35.000
  24895721.02205  24895730.95541 130827921.81805 101943870.65641     -2162.12905
        37.000          17.000
  22945191.34807  22945197.53744 120577770.96307  93956776.76644       279.27707
        44.000          33.000
 11  8  8  0 44 30.0000000  0 12G23G20G31G04G14G25G02G17G13G32G24G12  .000458021
  22896295.65308  22896300.11244 120320833.34408  93756556.20544      4818.42308
        46.000          32.000
  21154063.87508  21154069.56746 111165388.05708  86622410.11946       638.17908
        48.000          40.000
  22213648.60107  22213653.95745 116733503.06407  90961228.21445      2557.14407
        44.000          38.000
  21816911.73108  21816918.15144 114648632.16608  89336676.96044      3361.74308
        48.000          35.000
  25102360.87605  25102367.88941 131913685.79205 102789987.02141     -2064.84405
        37.000          18.000
  22815275.65207  22815284.61544 119895076.56207  93424801.15844      2613.23707
        44.000          34.000
  25084147.61805  25084152.35441 131818047.40205 102715420.21241      5353.12505
        38.000          19.000
  23483434.71007  23483440.14843 123406253.42607  96160809.72743     -1340.15607
        43.000          28.000
  24986301.96204  24986310.94141 131303824.22004 102314764.97941      5763.04704
        34.000          17.000
  22478419.63008  22478426.71444 118124827.01808  92045425.92544      -799.24808
        47.000          35.000
  24908074.25805  24908083.73241 130892838.08605 101994454.86641     -2165.14605
        38.000          16.000
  22943654.22008  22943659.88844 120569692.15308  93950481.70244       259.60008
        45.000          33.000
 11  8  8  0 45  0.0000000  0 12G23G20G31G04G14G25G02G17G13G32G24G12  .000426347
  22868821.43608  22868826.11943 120176455.93708  93644054.34743      4806.83108
        46.000          31.000
  21150477.84108  21150483.64746 111146544.58208  86607726.93846       618.13008
        48.000          40.000
  22199109.14308  22199114.71745 116657097.91608  90901691.80345      2536.52308
        45.000          38.000
  21797776.33608  21797782.80944 114548076.61208  89258321.99444      3342.14408
        47.000          35.000
  25114162.66304  25114170.45941 131975705.14004 102838313.49441     -2069.65804
        35.000          18.000
  22800418.84307  22800428.27944 119817003.50407  93363965.02244      2591.91907
        44.000          34.000
  25053601.36805  25053606.14441 131657526.63905 102590339.10141      5348.06605
        38.000          18.000
  23491120.90807  23491127.26943 123446648.00407  96192285.97043     -1352.70507
        42.000          29.000
  24953411.28504  24953420.01741 131130982.76704 102180083.62941      5759.80004
        34.000          19.000
  22483020.39308  22483027.42845 118149005.44108  92064266.27145      -812.64608
        47.000          36.000
  24920445.10705  24920454.53841 130957848.18005 102045112.05641     -2168.92605
        38.000          18.000
  22942229.90508  22942235.75144 120562209.00708  93944650.69044       239.34608
        45.000          33.000
 11  8  8  0 45 30.0000000  0 12G23G20G31G04G14G25G02G17G13G32G24G12  .000394676
  22841413.11108  22841417.34743 120032423.21208  93531821.10743      4794.93708
        45.000          31.000
  21147005.90209  21147011.33946 111128298.21209  86593508.95646       597.90509
        49.000          40.000
  22184686.96908  22184692.67545 116581308.93408  90842635.47845      2515.57608
        47.000          38.000
  21778752.61808  21778758.97644 114448104.33308  89180421.49744      3322.37308
        48.000          35.000
  25125992.85105  25125999.98041 132037870.46905 102886754.18841     -2075.03905
        36.000          16.000
  22785682.83808  22785691.99644 119739563.47708  93303622.14844      2570.46908
        47.000          34.000
  25023081.67605  25023087.21541 131497149.55605 102465370.00441      5342.92505
        37.000          19.000
  23498878.16807  23498884.51043 123487410.94807  96224049.22443     -1365.25907
        42.000          29.000
  24920538.46705  24920547.89141 130958236.02505 102045476.01241      5756.21105
        36.000          16.000
  22487697.09508  22487703.78844 118173579.59208  92083414.89744      -826.04008
        47.000          34.000
  24932835.83705  24932844.04341 131022956.60105 102095845.89541     -2172.33405
        38.000          18.000
  22940920.10608  22940926.44044 120555327.20808  93939288.19944       218.98908
        45.000          33.000
 11  8  8  0 46  0.0000000  0 12G23G20G31G04G14G25G02G17G13G32G24G12  .000363004
  22814069.67908  22814073.71643 119888731.63308  93419853.70943      4784.35108
        45.000          31.000
  21143646.12709  21143651.61946 111110642.47409  86579751.24346       579.04309
        49.000          40.000
  22170380.78908  22170386.67845 116506131.21108  90784055.43545      2496.12308
        48.000          38.000
  21759838.56008  21759845.08644 114348711.38308  89102972.43844      3303.77908
        47.000          35.000
  25137847.57704  25137855.50141 132100172.24304 102935300.91241     -2078.57404
        34.000          16.000
  22771066.11408  22771074.85244 119662751.49608  93243768.63244      2550.28808
        46.000          35.000
  24992589.08205  24992595.16141 131336912.68905 102340510.09141      5339.14605
        36.000          18.000
  23506703.22106  23506709.52942 123528533.77106  96256092.91342     -1376.42606
        41.000          26.000
  24887684.27805  24887692.21541 130785580.78405 101910939.44841      5754.10705
        38.000          17.000
  22492447.13908  22492453.51344 118198541.57908  92102865.73944      -838.14908
        47.000          34.000
  24945241.51305  24945251.50041 131088155.44605 102146650.14641     -2174.38005
        36.000          18.000
  22939724.39308  22939729.96244 120549039.41408  93934388.59044       200.08808
        46.000          33.000
 11  8  8  0 46 30.0000000  0 12G23G20G31G04G14G25G02G17G13G32G24G12  .000331324
  22786789.04208  22786793.81743 119745374.50408  93308146.94943      4772.75908
        45.000          31.000
  21140397.03008  21140402.32046 111093567.20108  86566445.80246       559.25808
        48.000          40.000
  22156189.74508  22156195.56345 116431556.60408  90725945.35545      2475.52708
        47.000          37.000
  21741033.67508  21741040.29445 114249890.36208  89025969.02945      3284.23808
        47.000          36.000
  25149726.50504  25149735.31241 132162599.94204 102983945.98841     -2083.39404
        33.000          16.000
  22756567.16508  22756576.07944 119586559.80408  93184398.46744      2529.08708
        47.000          34.000
  24962123.75005  24962128.37241 131176809.24305 102215754.20441      5334.28705
        37.000          19.000
  23514594.76707  23514601.29842 123570005.09707  96288408.20742     -1388.50107
        42.000          27.000
  24854844.14104  24854853.13741 130613010.51304 101776469.24241      5750.60004
        34.000          14.000
  22497268.93208  22497276.17644 118223880.84708  92122610.65444      -851.18208
        47.000          35.000
  24957664.65305  24957673.74141 131153433.50805 102197516.11241     -2177.36305
        36.000          18.000
  22938638.43908  22938644.68644 120543334.80908  93929943.31744       180.22908
        45.000          33.000
 11  8  8  0 47  0.0000000  0 12G23G20G31G04G14G25G02G17G13G32G24G12  .000299646
  22759576.27408  22759580.26143 119602369.12308  93196714.19043      4761.03508
        45.000          31.000
  21137260.37809  21137266.59746 111077086.47809  86553603.58546       539.49709
        49.000          40.000
  22142116.60308  22142122.41145 116357601.34708  90668317.91445      2454.98508
        46.000          37.000
  21722340.69408  21722347.06445 114151658.04608  88949424.35745      3264.77508
        48.000          36.000
  25161632.97105  25161642.16341 132225166.55705 103032699.27441     -2087.73905
        36.000          17.000
  22742189.30908  22742198.31944 119511004.53508  93125524.24944      2508.01308
        47.000          35.000
  24931684.83004  24931690.21241 131016856.98704 102091116.07241      5329.36004
        35.000          19.000
  23522555.19807  23522561.71143 123611837.32907  96321004.75943     -1400.33207
        42.000          29.000
  24822024.37005  24822032.99841 130440542.44805 101642078.73841      5747.19705
        37.000          18.000
  22502165.27208  22502172.01244 118249610.23008  92142659.51744      -864.00908
        47.000          34.000
  24970104.39504  24970112.98841 131218804.02104 102248454.00141     -2180.54704
        35.000          16.000
  22937666.24508  22937672.70844 120538226.76208  93925962.95844       160.50308
        45.000          32.000
 11  8  8  0 47 30.0000000  0 12G23G20G31G04G14G25G02G17G13G32G24G12  .000267975
  22732432.12208  22732435.94844 119459723.76808  93085561.99144      4749.01908
        45.000          32.000
  21134238.69309  21134244.34846 111061205.13209  86541228.45246       519.66309
        49.000          40.000
  22128162.43108  22128168.52945 116284271.70808  90611177.88745      2434.18508
        46.000          38.000
  21703761.35508  21703767.40245 114054021.78408  88873344.15245      3244.80508
        48.000          36.000
  25173567.79705  25173573.81341 132287873.58505 103081561.47141     -2092.56405
        37.000          16.000
  22727934.03008  22727942.85944 119436092.30208  93067151.07844      2486.58708
        47.000          34.000
  24901278.44105  24901282.87141 130857063.75205 101966601.87641      5323.90105
        37.000          20.000
  23530585.48007  23530591.39242 123654033.56607  96353885.01842     -1412.32907
        42.000          27.000
  24789226.00704  24789234.01241 130268185.40504 101507774.56341      5743.45204
        35.000          16.000
  22507136.34008  22507143.10044 118275733.64508  92163015.41044      -877.12908
        47.000          34.000
  24982562.11905  24982569.94041 131284270.07805 102299466.56941     -2183.54005
        38.000          19.000
  22936808.76908  22936815.09444 120533719.60608  93922450.84144       140.52208
        45.000          33.000
 11  8  8  0 48  0.0000000  0 12G23G20G31G04G14G25G02G17G13G32G24G12  .000236305
  22705354.76408  22705358.71343 119317433.73808  92974686.66243      4736.49908
        46.000          31.000
  21131328.90808  21131334.56446 111045914.67608  86529313.80346       499.31208
        48.000          39.000
  22114326.19708  22114332.21245 116211561.09908  90554520.19445      2412.82708
        47.000          38.000
  21685293.96008  21685300.39545 113956976.16508  88797724.18545      3224.43808
        47.000          36.000
  25185526.45005  25185532.80941 132350713.72505 103130527.47141     -2097.69005
        38.000          16.000
  22713799.91608  22713809.16244 119361816.95608  93009274.18144      2464.76608
        46.000          34.000
  24870899.80306  24870904.69241 130697424.93006 101842208.05741      5318.11506
        39.000          19.000
  23538681.87706  23538688.57743 123696583.78906  96387041.06143     -1424.79006
        40.000          29.000
  24756448.74406  24756455.48441 130095934.18606 101373553.09141      5739.31106
        40.000          19.000
  22512180.23708  22512187.49144 118302241.98408  92183671.21244      -890.48808
        47.000          35.000
  24995035.73605  24995043.70941 131349822.63005 102350546.45541     -2187.01705
        37.000          16.000
  22936063.64908  22936070.07943 120529804.55908  93919400.11743       120.05908
        46.000          31.000
 11  8  8  0 48 30.0000000  0 12G23G20G31G04G14G25G02G17G13G32G24G12  .000204637
  22678346.07208  22678349.91444 119175500.17908  92864089.01244      4725.15608
        45.000          32.000
  21128530.99508  21128536.71746 111031213.17508  86517858.10446       480.14208
        48.000          40.000
  22100607.72708  22100613.69545 116139469.81508  90498345.15645      2392.56808
        47.000          38.000
  21666939.20008  21666945.72945 113860521.88308  88722565.01145      3205.12708
        47.000          36.000
  25197508.19905  25197514.92841 132413683.30505 103179606.67641     -2101.35205
        36.000          16.000
  22699787.10708  22699796.15944 119288178.49308  92951893.53044      2443.97508
        47.000          34.000
  24840550.93205  24840555.97941 130537941.81505 101717935.59441      5313.54505
        36.000          19.000
  23546846.25306  23546852.03942 123739484.39906  96420470.08742     -1435.84006
        41.000          26.000
  24723690.86706  24723698.19141 129923790.75106 101239415.47041      5736.12306
        40.000          19.000
  22517298.12208  22517304.60744 118329132.36408  92204624.74944      -902.84708
        46.000          34.000
  25007526.84805  25007534.57741 131415458.73205 102401691.57741     -2189.23305
        38.000          19.000
  22935430.89108  22935437.41044 120526478.63208  93916808.41044       101.01608
        45.000          32.000
 11  8  8  0 49  0.0000000  0 12G23G20G31G04G14G25G02G17G13G32G24G12  .000172964
  22651404.54808  22651408.57044 119033920.37908  92753767.09944      4713.44208
        46.000          32.000
  21125844.57408  21125849.87046 111017093.93808  86506856.15246       460.98608
        48.000          40.000
  22087006.03308  22087011.96745 116067993.03008  90442648.91545      2372.37808
        46.000          38.000
  21648696.35108  21648702.77744 113764654.85508  88647863.39244      3185.83508
        47.000          35.000
  25209512.01304  25209521.14341 132476773.83604 103228768.07041     -2104.98504
        33.000          15.000
  22685894.42908  22685903.26144 119215172.44008  92895005.73744      2423.03208
        45.000          34.000
  24810231.28705  24810236.27341 130378611.37705 101593782.10941      5308.65205
        38.000          21.000
  23555074.69007  23555080.42142 123782727.23407  96454165.82642     -1446.96307
        42.000          27.000
  24690947.96502          .000   129751751.44402          .000        5732.62702
        26.000            .000
  22522486.03008  22522492.86944 118356397.35208  92225870.19944      -914.96108
        47.000          34.000
  25020031.54404  25020040.29241 131481170.44204 102452895.30341     -2191.65004
        34.000          16.000
  22934908.89708  22934914.59944 120523734.94508  93914670.47444        81.88008
        45.000          32.000
 11  8  8  0 49 30.0000000  0 12G23G20G31G04G14G25G02G17G13G32G24G12  .000141291
  22624529.61208  22624534.02843 118892695.58808  92643721.74643      4701.35708
        46.000          31.000
  21123268.37208  21123273.75746 111003554.99508  86496306.36846       441.41108
        48.000          39.000
  22073521.47908  22073527.22045 115997130.30208  90387431.23845      2351.65008
        48.000          38.000
  21630565.43008  21630571.94344 113669375.97008  88573620.09544      3166.04508
        47.000          35.000
  25221539.31703  25221550.39841 132539983.70503 103278022.90841     -2109.35503
        30.000          16.000
  22672122.30708  22672131.05344 119142798.54008  92838610.45344      2401.70408
        47.000          34.000
  24779940.43905  24779945.89041 130219434.92205 101469748.56241      5303.03205
        38.000          21.000
  23563368.45607  23563373.67343 123826308.73407  96488125.46043     -1458.49107
        43.000          28.000
  24658234.73006  24658239.15941 129579818.35806 100971361.32541      5729.18006
        39.000          18.000
  22527745.34708  22527752.01844 118384033.98908  92247405.18844      -927.58808
        46.000          34.000
  25032549.12506  25032557.99041 131546954.33806 102504155.46641     -2194.09706
        39.000          20.000
  22934497.28308  22934502.82944 120521570.51008  93912983.89444        62.34908
        45.000          32.000
 11  8  8  0 50  0.0000000  0 12G23G20G31G04G14G25G02G17G13G32G24G12  .000109623
  22597727.16308  22597730.98743 118751845.14908  92533968.13543      4689.09208
        47.000          31.000
  21120805.10908  21120810.85746 110990611.81708  86486220.75646       421.89508
        48.000          39.000
  22060156.84208  22060162.37745 115926898.67108  90332705.17545      2330.89908
        47.000          37.000
  21612550.21608  21612556.40845 113574703.35308  88499849.18945      3146.01608
        47.000          36.000
  25233594.86304  25233603.22441 132603325.10104 103327385.92841     -2113.19804
        35.000          16.000
  22658473.42908  22658482.66844 119071074.59508  92782721.68244      2380.25908
        46.000          34.000
  24749683.92806  24749688.78541 130060431.57906 101345850.01641      5297.50006
        39.000          22.000
  23571727.90807  23571734.35843 123870242.68807  96522359.70843     -1469.96107
        42.000          28.000
  24625540.20304  24625547.76741 129408010.20604 100837484.81141      5724.94604
        35.000          19.000
  22533077.86708  22533084.66044 118412057.23208  92269241.52644      -940.14208
        46.000          34.000
  25045084.42605  25045092.43341 131612825.28305 102555483.42741     -2196.80205
        36.000          18.000
  22934198.04308  22934203.94444 120520000.31008  93911760.30444        42.74908
        45.000          32.000
 11  8  8  0 50 30.0000000  0 11G23G20G31G04G25G02G17G13G32G24G12     .000077953
  22570992.44608  22570996.66143 118611354.97308  92424495.22043      4676.85108
        47.000          31.000
  21118452.01209  21118457.33246 110978247.02009  86476585.94146       402.37309
        49.000          40.000
  22046909.45909  22046915.34945 115857283.44309  90278459.71345      2310.10309
        49.000          38.000
  21594646.74008  21594653.20745 113480622.40808  88426539.33145      3125.93308
        47.000          36.000
  22644945.68408  22644954.82544 118999985.19008  92727327.37744      2358.90608
        47.000          35.000
  24719456.25106  24719461.53941 129901587.31906 101222075.34241      5292.11906
        39.000          22.000
  23580152.49006  23580158.81343 123914510.27306  96556853.88543     -1481.25006
        41.000          28.000
  24592867.50205  24592874.54841 129236313.38105 100703695.23241      5721.16705
        38.000          15.000
  22538480.70408  22538487.41844 118440448.64308  92291364.71244      -952.56808
        46.000          33.000
  25057631.61803  25057641.65441 131678764.97103 102606864.94741     -2199.13103
        30.000          14.000
  22934009.50507  22934015.61744 120519006.26007  93910985.56044        23.36407
        44.000          32.000
 11  8  8  0 51  0.0000000  0 11G23G20G31G04G25G02G17G13G32G24G12     .000046282
  22544327.75408  22544331.35544 118471229.79908  92315306.71544      4664.73108
        47.000          32.000
  21116209.64008  21116214.65846 110966461.93108  86467402.81846       383.26708
        48.000          39.000
  22033780.11308  22033785.45445 115788287.27508  90224696.49545      2289.58508
        47.000          38.000
  21576857.09108  21576863.49145 113387137.32908  88353693.79745      3106.32808
        48.000          36.000
  22631539.15708  22631548.36444 118929533.69708  92672430.10544      2337.87108
        46.000          35.000
  24689260.07405  24689265.32041 129742907.29605 101098428.58641      5286.63605
        37.000          21.000
  23588639.80307  23588646.05342 123959111.65307  96591608.20842     -1492.20707
        42.000          27.000
  24560216.07705  24560223.31041 129064733.02405 100569996.25141      5717.30505
        38.000          19.000
  22543953.39608  22543960.35344 118469208.99908  92313775.36744      -964.67308
        46.000          34.000
  25070193.58402          .000   131744774.48702          .000       -2201.76302
        25.000            .000
  22933930.03407  22933935.96843 120518589.60607  93910660.77443         4.31607
        44.000          31.000
 11  8  8  0 51 30.0000000  0 10G23G20G31G04G25G02G17G13G32G12        .000014610
  22517733.65508  22517736.87244 118331473.55408  92206405.75044      4652.29008
        47.000          33.000
  21114077.05408  21114082.52846 110955256.14608  86458671.02146       363.79908
        48.000          39.000
  22020768.14208  22020774.16845 115719912.26408  90171417.32145      2268.69608
        45.000          38.000
  21559181.39009  21559187.79644 113294250.63909  88281314.55744      3086.13309
        49.000          35.000
  22618254.79207  22618263.65744 118859721.98507  92618031.37444      2316.30407
        44.000          35.000
  24659096.50005  24659101.55041 129584394.89805 100974912.52341      5280.72305
        38.000          22.000
  23597190.43507  23597196.94043 124004044.93307  96626621.13043     -1503.40307
        44.000          28.000
  24527588.23905  24527596.32841 128893272.26505 100436390.60541      5713.30605
        36.000          18.000
  22549496.31608  22549503.22144 118498337.36808  92336472.76444      -977.17808
        46.000          33.000
  22933960.00807  22933966.66744 120518749.35607  93910785.19144       -14.91207
        44.000          32.000
 11  8  8  0 52  0.0000000  0 10G23G20G31G04G25G02G17G13G32G12       -.000017061
  22491209.84608  22491213.66944 118192090.04808  92097795.07444      4639.68808
        47.000          33.000
  21112054.92408  21112060.37046 110944630.58308  86450391.33446       344.30708
        48.000          39.000
  22007875.84908  22007881.64145 115652160.25808  90118623.48745      2247.87608
        48.000          38.000
  21541620.45908  21541626.74944 113201965.70608  88209404.20344      3065.84008
        48.000          35.000
  22605092.36608  22605100.94144 118790552.63208  92564133.16544      2294.68808
        47.000          35.000
  24628964.53305  24628969.92141 129426054.38405 100851530.38041      5274.99505
        38.000          21.000
  23605804.54307  23605809.39242 124049309.45007  96661892.20742     -1514.54107
        43.000          27.000
  24494985.58805  24494991.88541 128721936.33205 100302882.12441      5708.90105
        38.000          17.000
  22555109.26708  22555116.28044 118527833.76908  92359456.95744      -989.46808
        46.000          33.000
  22934100.51007  22934106.79744 120519485.51807  93911358.76244       -34.29207
        44.000          32.000
 11  8  8  0 52 30.0000000  0 10G23G20G31G04G25G02G17G13G32G12       -.000048733
  22464756.64408  22464760.74544 118053077.87108  91989473.83144      4627.77808
        47.000          32.000
  21110142.82508  21110148.29646 110934579.75908  86442559.39646       325.72308
        48.000          39.000
  21995101.20708  21995106.94145 115585028.26408  90066312.81245      2227.51008
        45.000          38.000
  21524173.32708  21524179.54345 113110279.85708  88137960.68645      3046.45508
        48.000          36.000
  22592051.21308  22592060.15744 118722022.40408  92510732.95344      2273.75008
        45.000          35.000
  24598866.35905  24598872.05141 129267884.04405 100728280.80141      5269.68205
        38.000          21.000
  23614477.59206  23614484.77942 124094898.58606  96697416.23842     -1524.95606
        41.000          25.000
  24462404.17905  24462410.71441 128550722.96805 100169469.27341      5705.22405
        38.000          17.000
  22560791.35808  22560797.73344 118557691.98308  92382723.08744     -1001.05508
        45.000          34.000
  22934349.33407  22934355.03343 120520792.23307  93912376.97143       -52.87107
        43.000          31.000
 11  8  8  0 53  0.0000000  0 10G23G20G31G04G25G02G17G13G32G12       -.000080407
  22438374.77308  22438378.59844 117914440.12408  91881444.39844      4614.78508
        46.000          33.000
  21108339.39208  21108344.79246 110925103.27708  86435175.09846       306.10808
        48.000          39.000
  21982444.62908  21982450.30245 115518517.27108  90014486.09345      2206.41608
        48.000          38.000
  21506840.02108  21506846.74145 113019195.23608  88066985.65945      3025.89808
        47.000          36.000
  22579131.86508  22579141.15745 118654132.65208  92457831.85445      2252.11408
        47.000          36.000
  24568800.22706  24568805.70041 129109887.07406 100605166.33041      5263.32506
        39.000          21.000
  23623215.91107  23623221.98442 124140809.96907  96733191.32842     -1535.86407
        43.000          26.000
  24429846.66005  24429853.54641 128379635.59005 100036154.56041      5700.60605
        37.000          19.000
  22566541.86308  22566548.21444 118587910.61808  92406270.03544     -1013.53508
        46.000          33.000
  22934706.01407  22934712.23343 120522668.01507  93913838.62443       -72.18307
        43.000          31.000
 11  8  8  0 53 30.0000000  0 10G23G20G31G04G25G02G17G13G32G12       -.000112082
  22412064.58408  22412068.38544 117776178.92708  91773708.36544      4602.83208
        47.000          33.000
  21106645.28608  21106650.80846 110916200.30408  86428237.71546       287.70008
        48.000          39.000
  21969905.99408  21969911.70945 115452628.12908  89963143.94845      2186.40108
        46.000          38.000
  21489622.18708  21489628.81045 112928713.55808  87996480.45345      3006.41108
        47.000          36.000
  22566335.15208  22566344.29744 118586884.37108  92405430.54944      2231.31808
        45.000          34.000
  24538768.34005  24538772.61441 128952066.10505 100482189.03141      5258.09105
        37.000          21.000
  23632012.90307  23632019.19842 124187041.23907  96769215.68842     -1545.89807
        42.000          27.000
  24397313.79005  24397320.80841 128208676.99205  99902940.28541      5696.88005
        36.000          16.000
  22572360.30608  22572366.74644 118618488.30608  92430096.80244     -1024.85308
        46.000          33.000
  22935171.33407  22935177.18343 120525111.56307  93915742.55743       -90.44407
        44.000          31.000
 11  8  8  0 54  0.0000000  0 10G23G20G31G04G25G02G17G13G32G12       -.000143762
  22385825.61208  22385829.45944 117638292.25608  91666264.21244      4589.97608
        47.000          33.000
  21105058.74708  21105064.33946 110907864.27508  86421742.12046       268.40308
        48.000          39.000
  21957485.48808  21957490.74545 115387356.38008  89912282.76945      2165.54708
        47.000          38.000
  21472517.73308  21472524.51044 112838831.41908  87926442.44144      2986.19208
        47.000          35.000
  22553659.48308  22553668.68044 118520273.28308  92353525.75944      2209.77008
        46.000          35.000
  24508768.75005  24508773.51441 128794418.43305 100359346.75441      5252.15305
        38.000          21.000
  23640869.42707  23640876.23542 124233584.64707  96805483.27542     -1556.60207
        42.000          26.000
  24364805.26205  24364812.38141 128037844.46505  99769824.29241      5692.36305
        38.000          18.000
  22578246.29508  22578252.68344 118649417.80208  92454197.67044     -1036.75308
        45.000          33.000
  22935743.05807  22935749.42643 120528115.55707  93918083.14543      -109.44807
        43.000          30.000
 11  8  8  0 54 30.0000000  0 10G23G20G31G04G25G02G17G13G32G12       -.000175442
  22359658.97108  22359663.70944 117500789.20308  91559119.03844      4577.16808
        47.000          34.000
  21103581.51708  21103586.94946 110900100.56408  86415692.44446       249.42908
        48.000          39.000
  21945183.47308  21945188.86545 115322709.62908  89861908.59245      2144.60908
        48.000          38.000
  21455529.42108  21455536.55045 112749557.13708  87856878.05045      2965.84008
        48.000          36.000
  22541106.90708  22541115.92244 118454306.99008  92302123.37944      2188.30108
        47.000          35.000
  24478804.79905  24478809.23441 128636953.64705 100236646.94941      5245.81505
        37.000          21.000
  23649786.44406  23649793.26942 124280444.55306  96841997.49542     -1567.21206
        41.000          27.000
  24332322.55705  24332329.94141 127867147.35805  99636813.70441      5688.04705
        37.000          18.000
  22584199.90308  22584206.68544 118680704.24208  92478576.66844     -1048.58408
        46.000          32.000
  22936422.54807  22936428.81243 120531685.40407  93920864.76443      -128.15407
        44.000          31.000
 11  8  8  0 55  0.0000000  0 10G23G20G31G04G25G02G17G13G32G12       -.000207121
  22333566.75708  22333571.11144 117363672.08108  91452274.56444      4564.53108
        47.000          33.000
  21102212.67508  21102217.95746 110892908.41008  86410088.16546       230.65408
        47.000          39.000
  21933000.77608  21933006.32645 115258688.43108  89812021.93645      2123.97008
        48.000          38.000
  21438657.24408  21438663.83845 112660892.09108  87787788.39645      2945.64008
        48.000          36.000
  22528676.72508  22528685.88944 118388986.32908  92251224.12244      2166.86508
        47.000          34.000
  24448873.75405  24448879.48541 128479674.16105 100114091.55641      5240.00005
        38.000          21.000
  23658764.07006  23658769.73542 124327618.23106  96878756.20942     -1577.26106
        41.000          25.000
  24299866.47305  24299872.96041 127696588.84205  99503911.07941      5683.42305
        37.000          18.000
  22590221.08008  22590227.60244 118712345.58708  92503232.25244     -1060.13708
        45.000          33.000
  22937208.75007  22937215.48643 120535819.11407  93924085.71343      -146.74807
        43.000          30.000
 11  8  8  0 55 30.0000000  0 10G23G20G31G04G25G02G17G13G32G12       -.000238801
  22307548.01808  22307552.05444 117226941.30808  91345731.15544      4551.29908
        47.000          34.000
  21100951.95108  21100957.68546 110886284.19608  86404926.42746       211.44008
        48.000          39.000
  21920936.39108  21920942.47645 115195290.93308  89762621.18645      2102.85608
        48.000          38.000
  21421900.90908  21421907.27845 112572835.60108  87719172.96545      2925.03408
        48.000          36.000
  22516369.46208  22516378.34244 118324309.76708  92200826.75344      2145.21008
        47.000          35.000
  24418979.65105  24418985.30441 128322580.36905  99991680.82041      5233.39305
        38.000          21.000
  23667799.48206  23667805.66442 124375100.93406  96915755.71942     -1587.86106
        41.000          25.000
  24267436.69005  24267443.45241 127526168.99105  99371116.43741      5678.33005
        37.000          18.000
  22596308.96408  22596315.85144 118744338.12108  92528161.50544     -1072.25108
        46.000          33.000
  22938102.60407  22938109.00143 120540513.69707  93927743.98243      -165.78107
        44.000          31.000
 11  8  8  0 56  0.0000000  0 10G23G20G31G04G25G02G17G13G32G12       -.000270482
  22281602.77608  22281606.82744 117090599.41908  91239490.77644      4537.91008
        47.000          34.000
  21099799.64608  21099805.04446 110880227.33808  86400206.79146       192.14408
        48.000          39.000
  21908991.09608  21908997.14645 115132518.42908  89713707.64645      2081.68908
        48.000          38.000
  21405260.25208  21405266.88645 112485389.68708  87651033.27745      2904.39908
        48.000          36.000
  22504184.46908  22504193.54544 118260278.41008  92150932.13744      2123.30108
        47.000          35.000
  24389122.43405  24389127.50941 128165675.20605  99869417.07341      5226.55305
        38.000          20.000
  23676894.09907  23676899.74142 124422890.68507  96952994.50742     -1598.32507
        42.000          26.000
  24235033.94905  24235041.15941 127355890.78805  99238432.16441      5673.28105
        37.000          17.000
  22602463.74108  22602469.87244 118776680.02508  92553362.97344     -1084.23808
        45.000          33.000
  22939101.74507  22939108.59444 120545765.68807  93931836.15444      -184.66307
        44.000          32.000
 11  8  8  0 56 30.0000000  0 10G23G20G31G04G25G02G17G13G32G12       -.000302162
  22255732.96808  22255737.41644 116954653.13408  91133558.60644      4524.11608
        48.000          33.000
  21098755.65508  21098761.05546 110874740.25508  86395931.15046       172.63208
        47.000          39.000
  21897165.78808  21897171.59245 115070375.27508  89665284.49045      2060.16108
        47.000          38.000
  21388737.39308  21388744.06945 112398559.74808  87583373.57545      2883.29108
        48.000          36.000
  22492123.33008  22492132.53545 118196897.02808  92101544.04245      2101.08908
        48.000          36.000
  24359302.13006  24359306.90141 128008965.24206  99747305.40541      5219.59506
        39.000          21.000
  23686046.99007  23686052.11542 124470988.63307  96990473.38242     -1609.08207
        42.000          26.000
  24202657.92204  24202666.16741 127185760.74504  99105863.30741      5667.77304
        35.000          19.000
  22608685.03808  22608691.39444 118809373.30408  92578838.15444     -1096.44508
        46.000          32.000
  22940207.97807  22940214.96544 120551578.11607  93936364.97744      -203.78407
        43.000          32.000
 11  8  8  0 57  0.0000000  0 10G23G20G31G04G25G02G17G13G32G12       -.000333838
  22229939.80008  22229943.66944 116819107.33208  91027938.48644      4511.47008
        48.000          33.000
  21097820.14308  21097825.32546 110869824.26108  86392100.48846       154.32108
        48.000          39.000
  21885460.74709  21885466.69745 115008864.50409  89617353.97145      2039.71709
        49.000          38.000
  21372332.26708  21372338.69245 112312349.86708  87516197.02045      2863.23308
        48.000          36.000
  22480186.98608  22480195.79645 118134168.87508  92052664.96345      2080.01508
        48.000          36.000
  24329518.79906  24329523.52741 127852455.73006  99625349.90441      5213.56906
        39.000          22.000
  23695257.56806  23695263.81042 124519394.72906  97028192.36342     -1618.68706
        41.000          25.000
  24170312.70305  24170320.52441 127015784.62505  98973414.64441      5663.18305
        37.000          19.000
  22614973.29108  22614980.06944 118842419.04908  92604587.99344     -1107.45108
        45.000          32.000
  22941421.03107  22941427.84344 120557952.67107  93941332.21344      -221.86507
        44.000          32.000
 11  8  8  0 57 30.0000000  0 10G23G20G31G04G25G02G17G13G32G12       -.000365515
  22204221.15308  22204225.17744 116683955.59508  90922625.45444      4498.53508
        47.000          34.000
  21096991.45208  21096997.03146 110865469.51208  86388707.15546       135.91808
        48.000          39.000
  21873874.58908  21873880.16845 114947977.29308  89569909.25845      2019.26808
        47.000          38.000
  21356043.44408  21356050.00445 112226752.36508  87449497.68045      2843.13508
        48.000          36.000
  22468372.09908  22468381.88744 118072085.57108  92004288.35744      2058.74008
        48.000          35.000
  24299773.11406  24299777.51741 127696140.08506  99503545.51241      5207.33906
        39.000          22.000
  23704525.79706  23704532.01142 124568097.54106  97066142.51842     -1628.27106
        40.000          26.000
  24137996.59406  24138002.42541 126845955.94706  98841080.68441      5658.48106
        39.000          19.000
  22621326.71608  22621333.23944 118875806.41308  92630604.10644     -1118.56908
        45.000          32.000
  22942739.74207  22942746.25843 120564877.32507  93946727.89843      -239.94107
        43.000          31.000
 11  8  8  0 58  0.0000000  0 10G23G20G31G04G25G02G17G13G32G12       -.000397198
  22178577.10008  22178581.32944 116549195.90808  90817617.91044      4485.51308
        48.000          33.000
  21096268.67308  21096273.57946 110861669.88208  86385746.37846       117.52408
        48.000          39.000
  21862405.92308  21862411.57245 114887710.40108  89522948.01445      1998.58908
        46.000          37.000
  21339870.52908  21339877.28145 112141764.20208  87383273.13045      2822.87608
        47.000          37.000
  22456680.62908  22456689.97245 118010643.13608  91956411.02145      2037.48508
        45.000          36.000
  24270063.71306  24270068.95441 127540016.47406  99381890.70441      5200.96206
        39.000          22.000
  23713849.05107  23713855.06642 124617089.94507  97104318.33842     -1637.82707
        42.000          26.000
  24105704.88205  24105712.19141 126676272.51705  98708859.93741      5653.86705
        37.000          18.000
  22627743.82608  22627750.88244 118909529.06108  92656881.49444     -1129.57008
        45.000          32.000
  22944160.52507  22944167.53444 120572345.99807  93952547.45344      -257.79807
        44.000          32.000
 11  8  8  0 58 30.0000000  0 10G23G20G31G04G25G02G17G13G32G12       -.000428881
  22153009.63808  22153013.86544 116414837.63908  90712923.16844      4471.77208
        47.000          33.000
  21095652.16309  21095657.61246 110858431.00509  86383222.57846        98.44209
        49.000          39.000
  21851057.32108  21851062.83445 114828070.64008  89476475.41445      1977.31908
        48.000          38.000
  21323815.77608  21323822.43045 112057393.72808  87317529.90945      2801.86008
        48.000          36.000
  22445112.07508  22445120.72544 117949849.26808  91909039.12844      2015.49308
        47.000          35.000
  24240393.05606  24240397.68541 127384094.19806  99260392.73141      5193.81406
        39.000          22.000
  23723227.82007  23723233.32042 124666376.17407  97142723.19642     -1647.85107
        42.000          26.000
  24073444.21905  24073452.12641 126506743.94805  98576759.78541      5648.14005
        38.000          18.000
  22634226.11908  22634232.51744 118943591.81608  92683423.88344     -1141.21608
        45.000          32.000
  22945686.75407  22945693.67244 120580364.44107  93958795.51744      -276.62607
        44.000          32.000
 11  8  8  0 59  0.0000000  0 10G23G20G31G04G25G02G17G13G32G12       -.000460564
  22127518.60408  22127522.76944 116280882.62308  90608542.63144      4458.07608
        48.000          33.000
  21095142.17908  21095147.93946 110855750.87008  86381134.15246        79.70208
        48.000          39.000
  21839827.39108  21839833.55545 114769057.84608  89430491.37345      1956.30408
        48.000          38.000
  21307877.86008  21307884.41945 111973641.71408  87252268.63845      2781.07408
        47.000          37.000
  22433666.46308  22433675.56645 117889703.88908  91862172.61345      1993.72608
        47.000          36.000
  24210761.20106  24210765.97142 127228375.51806  99139053.46242      5186.88506
        41.000          24.000
  23732662.35607  23732668.02242 124715953.10207  97181354.56742     -1657.64207
        43.000          25.000
  24041215.79906  24041221.72341 126337372.59306  98444782.24841      5642.82206
        39.000          20.000
  22640772.01907  22640778.91043 118977992.22507  92710229.41243     -1152.60707
        44.000          31.000
  22947316.27107  22947322.79143 120588929.13007  93965469.35343      -294.95607
        43.000          31.000
 11  8  8  0 59 30.0000000  0 10G23G20G31G04G25G02G17G13G32G12       -.000492240
  22102107.59908  22102111.93044 116147345.82908  90504487.99444      4444.42408
        48.000          34.000
  21094740.86808  21094746.03346 110853640.89108  86379490.00646        61.04508
        48.000          39.000
  21828719.88408  21828725.12446 114710685.60108  89385006.57346      1935.21508
        48.000          39.000
  21292060.78008  21292067.36945 111890522.06808  87187500.07345      2760.36108
        47.000          37.000
  22422347.33008  22422356.47444 117830220.33608  91815821.83544      1971.97808
        47.000          35.000
  24181169.72906  24181174.52642 127072875.89006  99017885.03342      5179.77506
        41.000          24.000
  23742153.59807  23742160.34042 124765831.11407  97220220.59542     -1667.34907
        42.000          25.000
  24009018.23306  24009025.32441 126168173.50806  98312938.82441      5637.35906
        40.000          20.000
  22647384.46107  22647391.55744 119012741.18207  92737306.49244     -1163.89607
        43.000          32.000
  22949051.38207  22949058.91243 120598050.77307  93972577.05043      -313.11507
        43.000          31.000
 11  8  8  1  0  0.0000000  0 10G23G20G31G04G25G02G17G13G32G12        .000476082
  22376566.85708  22376570.87844 117589637.35108  91628351.51944      4430.83008
        48.000          34.000
  21394236.66608  21394242.23545 112427503.02008  87605876.06645        42.54908
        48.000          38.000
  22117523.20108  22117528.83845 116228358.88608  90567609.15545      1914.34608
        46.000          38.000
  21576154.01908  21576160.75645 113383442.07208  88350814.37245      2739.57008
        48.000          37.000
  22710943.46108  22710952.74944 119346803.93808  92997575.27844      1950.29808
        45.000          35.000
  24451411.27306  24451416.86842 128493005.92606 100124479.90142      5172.66106
        40.000          24.000
  24051490.42806  24051496.86942 126391408.56706  98486904.23842     -1676.80206
        41.000          25.000
  24276644.94605  24276650.97241 127574558.61305  99408823.37341      5631.98205
        38.000          21.000
  22953852.27407  22953859.08844 120623238.91707  93992239.83044     -1174.96607
        44.000          32.000
  23250683.10307  23250689.81343 122183130.19707  95207703.61643      -331.19607
        44.000          31.000
 11  8  8  1  0 30.0000000  0 10G23G20G31G04G25G02G17G13G32G12        .000444402
  22351309.58808  22351314.32044 117456913.25008  91524930.15944      4417.24608
        48.000          35.000
  21394045.36108  21394050.64345 112426498.81008  87605093.56545        24.19908
        48.000          38.000
  22106652.97508  22106658.88545 116171237.01708  90523098.66345      1893.49108
        48.000          38.000
  21560572.95408  21560579.27945 113301560.53208  88287010.54845      2718.97008
        47.000          36.000
  22699870.16308  22699879.13444 119288614.20808  92952232.61144      1928.75008
        47.000          35.000
  24421900.14406  24421905.09041 128337920.54306 100003634.20341      5165.87406
        40.000          23.000
  24061088.57006  24061095.30942 126441849.25106  98526208.59542     -1686.13306
        41.000          25.000
  24244507.48505  24244514.38141 127405682.01605  99277231.22441      5626.47005
        37.000          19.000
  22960589.97707  22960596.95143 120658648.26307  94019831.47743     -1185.80107
        44.000          31.000
  23252623.10707  23252630.18043 122193330.20407  95215651.91543      -349.07707
        44.000          30.000
 11  8  8  1  1  0.0000000  0 10G23G20G31G04G25G02G17G13G32G12        .000412724
  22326132.90908  22326136.99544 117324606.19408  91421833.75644      4403.62808
        48.000          34.000
  21393960.48908  21393965.77946 112426051.95208  87604745.35946         5.85908
        48.000          39.000
  22095903.45108  22095908.91945 116114747.72508  90479081.07745      1872.72908
        48.000          38.000
  21545110.17308  21545117.22445 113220306.57708  88223695.75845      2698.23708
        48.000          36.000
  22688921.97108  22688931.02544 119231079.12108  92907400.12844      1907.21708
        47.000          35.000
  24392429.11106  24392434.67342 128183053.06106  99882958.30242      5158.80906
        41.000          24.000
  24070742.99107  24070747.34142 126492574.25807  98565734.56342     -1695.04907
        43.000          24.000
  24212403.56706  24212410.90041 127236977.52606  99145773.32341      5620.78606
        39.000          17.000
  22967392.05407  22967398.97143 120694391.92607  94047683.64043     -1196.77707
        43.000          31.000
  23254667.35607  23254675.00743 122204072.43507  95224022.51843      -366.83607
        43.000          31.000
 11  8  8  1  1 30.0000000  0 10G23G20G31G04G25G02G17G13G32G12        .000381044
  22301034.26008  22301038.27344 117192712.11608  91319059.15944      4389.60008
        48.000          34.000
  21393980.02808  21393985.41646 112426154.77108  87604825.45646       -12.57308
        48.000          39.000
  22085273.19608  22085278.79945 116058884.90208  90435551.60345      1851.74808
        46.000          38.000
  21529766.84408  21529773.43745 113139675.24508  88160866.16545      2677.37808
        48.000          37.000
  22678096.95008  22678105.74945 119174192.81008  92863073.22445      1885.36108
        46.000          36.000
  24362999.66806  24363005.13441 128028399.87006  99762449.38441      5151.46006
        40.000          22.000
  24080448.07707  24080452.87842 126543574.83207  98605475.27042     -1704.47807
        42.000          24.000
  24180333.24106  24180339.54541 127068441.27506  99014446.37941      5615.04906
        39.000          19.000
  22974255.99707  22974262.44444 120730461.71007  94075789.97544     -1207.64607
        43.000          32.000
  23256813.69107  23256820.56743 122215349.05707  95232809.51343      -384.79507
        43.000          30.000
 11  8  8  1  2  0.0000000  0 10G23G20G31G04G25G02G17G13G32G12        .000349363
  22276014.46108  22276018.49144 117061231.27208  91216606.54844      4375.42508
        48.000          35.000
  21394103.60608  21394109.28246 112426804.08808  87605331.39846       -31.11308
        48.000          39.000
  22074761.74308  22074767.38745 116003647.18608  90392509.25945      1830.48808
        48.000          38.000
  21514541.46609  21514548.08445 113059665.93409  88098521.25645      2656.19609
        49.000          37.000
  22667394.84708  22667403.07345 119117953.42508  92819250.28845      1863.51108
        46.000          36.000
  24333610.93006  24333616.27841 127873961.50606  99642107.84641      5144.01406
        41.000          22.000
  24090203.73606  24090209.13941 126594845.97906  98645426.71941     -1713.82806
        39.000          23.000
  24148294.25306  24148300.20341 126900073.84606  98883251.09541      5608.94506
        39.000          20.000
  22981181.04007  22981187.71344 120766853.70807  94104147.38344     -1218.85307
        43.000          32.000
  23259060.06307  23259066.89543 122227156.03807  95242009.94543      -402.77307
        43.000          30.000
 11  8  8  1  2 30.0000000  0 10G23G20G31G04G25G02G17G13G32G12        .000317684
  22251075.46708  22251079.45544 116930176.55508  91114485.94044      4361.67008
        48.000          35.000
  21394332.88009  21394338.11346 112428008.67609  87606270.04946       -49.14609
        49.000          39.000
  22064371.08508  22064376.86945 115949044.86808  90349962.00345      1809.75108
        48.000          38.000
  21499436.87809  21499442.95845 112980289.88409  88036669.74645      2635.56609
        49.000          37.000
  22656818.14908  22656826.84645 119062371.70108  92775939.78645      1842.07508
        48.000          36.000
  24304265.24806  24304270.63841 127719750.63306  99521943.45441      5136.89006
        41.000          22.000
  24100013.28706  24100019.12641 126646395.43906  98685595.06841     -1722.58306
        41.000          23.000
  24116288.70806  24116295.76841 126731887.92006  98752197.19341      5603.39806
        39.000          20.000
  22988169.47407  22988175.87944 120803576.03807  94132762.11644     -1229.29707
        44.000          32.000
  23261409.47107  23261415.78943 122239501.50407  95251630.00343      -420.16107
        42.000          30.000
 11  8  8  1  3  0.0000000  0 10G23G20G31G04G25G02G17G13G32G12        .000286003
  22226216.08908  22226220.38744 116799540.69708  91012691.77144      4347.21208
        48.000          34.000
  21394665.46209  21394671.02345 112429757.57209  87607632.80045       -67.68109
        49.000          38.000
  22054099.86208  22054105.40245 115895068.65808  90307902.48445      1788.46708
        48.000          38.000
  21484451.06308  21484457.62345 112901539.07408  87975305.47045      2614.24808
        48.000          37.000
  22646364.66308  22646373.46844 119007438.79808  92733134.94044      1820.01008
        47.000          35.000
  24274962.80907  24274966.98441 127565760.53407  99401951.20841      5129.02807
        42.000          23.000
  24109873.97906  24109879.06441 126698211.19506  98725970.92941     -1731.87506
        40.000          22.000
  24084317.63506  24084324.45441 126563877.69206  98621280.33341      5597.03106
        39.000          20.000
  22995217.94607  22995225.05544 120840617.59307  94161625.61944     -1240.29307
        44.000          32.000
  23263858.87307  23263865.48243 122252373.80907  95261660.36143      -438.04707
        44.000          30.000
 11  8  8  1  3 30.0000000  0 10G23G20G31G04G25G02G17G13G32G12        .000254327
  22201439.30308  22201443.11044 116669336.05608  90911233.54544      4332.83708
        48.000          35.000
  21395103.95508  21395109.11045 112432059.23408  87609426.28445       -86.09908
        48.000          38.000
  22043949.73608  22043955.69645 115841728.83208  90266338.85845      1767.12408
        47.000          38.000
  21469586.14108  21469593.05045 112823424.55908  87914437.02145      2593.15408
        48.000          37.000
  22636036.34008  22636045.76744 118953164.89408  92690843.60744      1798.07108
        47.000          35.000
  24245703.42907  24245708.64441 127412004.07707  99282141.08841      5121.16707
        42.000          22.000
  24119784.84106  24119791.40742 126750300.65106  98766560.14642     -1741.01106
        40.000          25.000
  24052382.29406  24052388.20041 126396055.43106  98490509.84241      5590.71306
        40.000          20.000
  23002328.76808  23002335.87443 120877986.51308  94190744.21043     -1251.18208
        45.000          31.000
  23266410.48807  23266416.64643 122265780.99207  95272107.42643      -456.01607
        44.000          29.000
 11  8  8  1  4  0.0000000  0 10G23G20G31G04G25G02G17G13G32G12        .000222648
  22176742.14008  22176746.54144 116539552.85008  90810103.71044      4319.33608
        48.000          34.000
  21395644.03809  21395649.84345 112434899.92109  87611639.76145      -103.42309
        49.000          38.000
  22033918.21808  22033923.73745 115789013.21608  90225261.68945      1747.00708
        48.000          38.000
  21454840.81708  21454847.69045 112745935.28508  87854055.78245      2572.78808
        48.000          37.000
  22625831.60808  22625840.48945 118899538.19408  92649056.62145      1777.02108
        47.000          36.000
  24216486.70406  24216491.51641 127258471.40606  99162505.24041      5114.14506
        41.000          22.000
  24129747.18806  24129752.60641 126802649.48006  98807351.42841     -1749.01906
        40.000          22.000
  24020481.13806  24020486.09441 126228411.76506  98359878.64441      5585.31206
        40.000          21.000
  23009499.90708  23009507.02244 120915668.62008  94220106.84944     -1260.98108
        45.000          32.000
  23269061.06107  23269067.49543 122279708.84207  95282960.38143      -472.60307
        43.000          30.000
 11  8  8  1  4 30.0000000  0 10G23G20G31G04G25G02G17G13G32G12        .000190968
  22152127.01009  22152131.35244 116410198.29209  90709307.90144      4304.56609
        49.000          34.000
  21396288.08108  21396293.30745 112438282.93108  87614275.84745      -121.88508
        48.000          38.000
  22024006.22508  22024012.58346 115736927.02608  90184675.07046      1725.63008
        48.000          39.000
  21440214.76509  21440221.76645 112669077.06009  87794166.26845      2551.30909
        49.000          38.000
  22615751.01308  22615760.13945 118846563.61108  92607777.82845      1754.87308
        47.000          36.000
  24187315.03907  24187319.80441 127105169.69707  99043049.35241      5106.10307
        42.000          22.000
  24139757.83805  24139764.40541 126855259.10605  98848345.95141     -1758.26705
        37.000          23.000
  23988614.45005  23988619.80341 126060953.07505  98229391.21841      5578.70105
        38.000          20.000
  23016730.73908  23016737.40643 120953666.54808  94249715.57643     -1271.89908
        45.000          31.000
  23271810.77207  23271817.36943 122294159.25107  95294220.22843      -490.46907
        43.000          29.000
 11  8  8  1  5  0.0000000  0 10G23G20G31G04G25G02G17G13G32G12        .000159288
  22127593.31909  22127597.13844 116281273.23009  90608846.78744      4289.95609
        49.000          34.000
  21397034.25309  21397040.03345 112442205.78009  87617332.57745      -140.09809
        49.000          37.000
  22014214.45108  22014220.08445 115685468.71208  90144577.61745      1704.48708
        47.000          38.000
  21425709.25209  21425715.86445 112592849.69809  87734768.31345      2530.09809
        49.000          38.000
  22605793.89608  22605802.93244 118794240.00008  92567006.24144      1732.90508
        45.000          35.000
  24158186.01106  24158191.77441 126952100.39106  98923774.57541      5098.16406
        41.000          22.000
  24149818.44206  24149824.95941 126908125.48606  98889540.51741     -1766.79706
        40.000          23.000
  23956783.41905  23956789.37941 125893682.30705  98099050.67041      5572.06505
        38.000          20.000
  23024021.17808  23024027.90343 120991977.35408  94279568.11343     -1282.62708
        46.000          31.000
  23274659.60507  23274666.04843 122309129.57307  95305885.29643      -508.01807
        43.000          30.000
 11  8  8  1  5 30.0000000  0 10G23G20G31G04G25G02G17G13G32G12        .000127608
  22103141.91408  22103146.45044 116152781.73708  90508723.51544      4275.77608
        48.000          35.000
  21397883.96608  21397889.35345 112446667.97908  87620809.57445      -157.74908
        48.000          38.000
  22004541.95108  22004547.89645 115634640.60308  90104971.33345      1683.77908
        48.000          38.000
  21411324.36309  21411331.25745 112517255.93609  87675864.12445      2509.27309
        49.000          37.000
  22595961.03808  22595970.38044 118742569.21308  92526743.36044      1711.50908
        46.000          35.000
  24129103.04006  24129108.56541 126799267.36706  98804683.68641      5090.55206
        40.000          22.000
  24159928.35307  24159933.70942 126961247.83107  98930934.56842     -1774.79007
        42.000          25.000
  23924988.20105  23924995.50341 125726602.80305  97968859.02641      5566.30805
        37.000          20.000
  23031370.39108  23031377.29843 121030600.44808  94309663.98643     -1292.70008
        45.000          31.000
  23277606.78707  23277613.66343 122324619.33707  95317955.29243      -525.09307
        43.000          30.000
 11  8  8  1  6  0.0000000  0 11G23G20G31G04G10G25G02G17G13G32G12     .000095932
  22078773.69108  22078778.28644 116024725.04108  90408939.08244      4261.76308
        48.000          35.000
  21398835.04909  21398840.90445 112451667.21609  87624705.05645      -175.10309
        49.000          38.000
  21994989.82908  21994995.46645 115584440.94308  90065854.79245      1663.31508
        47.000          38.000
  21397059.94009  21397066.44345 112442295.53309  87617453.38145      2488.69609
        49.000          38.000
  24329661.22205  24329666.96441 127853191.33405  99625913.14641      5576.45505
        37.000          21.000
  22586252.49708  22586261.90844 118691550.39108  92486988.49344      1690.22508
        46.000          35.000
  24100065.70206  24100071.21141 126646672.70706  98685778.63641      5082.93906
        41.000          22.000
  24170084.57606  24170091.25342 127014622.42106  98972525.19242     -1783.00306
        39.000          25.000
  23893231.32805  23893237.99541 125559715.82305  97838817.19741      5560.32205
        38.000          20.000
  23038779.05307  23038786.05743 121069533.09707  94340001.10343     -1302.43207
        44.000          30.000
  23280652.76407  23280659.63543 122340624.95907  95330427.27543      -541.62607
        44.000          30.000
 11  8  8  1  6 30.0000000  0 11G23G20G31G04G10G25G02G17G13G32G12     .000064247
  22054487.12408  22054491.18844 115897098.73208  90309490.12644      4247.42708
        48.000          35.000
  21399887.20908  21399893.07845 112457195.33208  87629012.65045      -192.65108
        48.000          38.000
  21985555.19308  21985560.98745 115534863.54808  90027223.10345      1642.58808
        47.000          38.000
  21382915.09409  21382921.54345 112367963.23809  87559532.10545      2467.52909
        49.000          37.000
  24297843.98204  24297850.45341 127685993.27904  99495628.99641      5571.04504
        33.000          21.000
  22576667.09608  22576676.61044 118641177.24808  92447736.75244      1668.74008
        46.000          35.000
  24071072.73906  24071078.22441 126494312.17306  98567056.07641      5075.27306
        41.000          23.000
  24180287.18806  24180293.66441 127068240.23506  99014305.29141     -1790.88906
        39.000          21.000
  23861510.52406  23861516.42741 125393018.21506  97708923.02341      5553.73006
        39.000          20.000
  23046245.11307  23046252.23043 121108766.73307  94370572.76143     -1312.41207
        44.000          31.000
  23283795.22007  23283802.08843 122357137.84007  95343294.36043      -558.40307
        44.000          29.000
 11  8  8  1  7  0.0000000  0 11G23G20G31G04G10G25G02G17G13G32G12     .000032561
  22030284.32009  22030288.04444 115769911.66909  90210383.34944      4232.01209
        49.000          35.000
  21401040.64909  21401046.14745 112463257.36909  87633736.27645      -211.22609
        49.000          38.000
  21976240.50508  21976246.31346 115485914.97108  89989081.36146      1620.84508
        48.000          39.000
  21368891.20909  21368897.71745 112294266.34909  87502105.83745      2445.65909
        49.000          38.000
  24266059.70905  24266066.65541 127518968.62705  99365479.90141      5564.25305
        36.000          18.000
  22567205.58708  22567214.16144 118591456.23108  92408993.07144      1646.19608
        47.000          35.000
  24042125.80706  24042131.69242 126342194.43906  98448522.34242      5066.34306
        41.000          25.000
  24190537.41306  24190543.46341 127122104.69606  99056277.57341     -1799.74106
        40.000          22.000
  23829826.04406  23829831.87141 125226519.23506  97579183.58741      5546.30406
        39.000          21.000
  23053769.90907  23053776.60643 121148305.90507  94401382.47143     -1323.26707
        44.000          31.000
  23287034.84907  23287041.45843 122374162.22707  95356560.08643      -576.22107
        44.000          29.000
 11  8  8  1  7 30.0000000  0 11G23G20G31G04G10G25G02G17G13G32G12     .000000873
  22006164.88908  22006168.98045 115643162.55108  90111617.78445      4217.66608
        48.000          36.000
  21402295.06308  21402300.26245 112469848.20708  87638871.97545      -228.50608
        48.000          38.000
  21967044.87709  21967050.93945 115437591.67409  89951426.83345      1600.38609
        49.000          38.000
  21354987.85109  21354993.77545 112221202.74009  87445173.16445      2424.91209
        49.000          38.000
  24234309.32505  24234316.19841 127352116.40605  99235465.21441      5558.68605
        38.000          19.000
  22557867.43408  22557876.22445 118542384.15208  92370755.12145      1624.85808
        48.000          36.000
  24013225.66206  24013231.36042 126190318.38106  98330176.60742      5058.36406
        41.000          26.000
  24200833.63007  24200839.95041 127176210.01707  99098437.53441     -1807.44107
        42.000          23.000
  23798180.23905  23798186.59941 125060217.33305  97449597.59241      5540.00005
        38.000          21.000
  23061350.60207  23061357.84143 121188145.16307  94432426.00343     -1332.98307
        43.000          31.000
  23290371.14007  23290377.18743 122391692.28407  95370219.79543      -592.65107
        44.000          29.000
 11  8  8  1  8  0.0000000  0 11G23G20G31G04G10G25G02G17G13G32G12    -.000030811
  21982130.10009  21982134.83944 115516862.70609  90013202.32044      4202.72509
        49.000          35.000
  21403650.85209  21403656.27945 112476974.75509  87644425.08245      -246.26509
        49.000          37.000
  21957969.99408  21957975.77045 115389902.35408  89914266.36645      1579.32608
        48.000          38.000
  21341206.18909  21341212.72445 112148781.37209  87388740.91845      2403.48109
        49.000          37.000
  24202593.42305  24202600.03741 127185447.75305  99105593.51841      5552.65105
        38.000          21.000
  22548654.37308  22548663.35844 118493969.49308  92333029.40944      1603.12008
        47.000          35.000
  23984373.57106  23984378.51542 126038697.32306  98212030.39042      5050.08306
        41.000          26.000
  24211175.99806  24211182.24442 127230562.20206  99140789.90842     -1815.66406
        41.000          24.000
  23766574.07805  23766579.59341 124894124.10305  97320174.12941      5533.05205
        38.000          21.000
  23068989.45907  23068997.20944 121228290.94307  94463708.30944     -1343.15407
        43.000          32.000
  23293804.38807  23293810.57243 122409734.99007  95384279.11843      -609.72207
        44.000          29.000
 11  8  8  1  8 30.0000000  0 11G23G20G31G04G10G25G02G17G13G32G12    -.000062497
  21958181.10009  21958185.67945 115391006.92709  89915132.88045      4187.97409
        49.000          36.000
  21405107.43308  21405112.59445 112484628.38708  87650388.94045      -263.73008
        48.000          38.000
  21949014.15608  21949020.34445 115342839.80008  89877594.24345      1558.52108
        48.000          37.000
  21327545.89609  21327552.73845 112076996.49209  87332804.59745      2382.50509
        49.000          37.000
  24170911.88305  24170918.13941 127018958.17605  98975861.31741      5546.70905
        38.000          20.000
  22539564.70408  22539573.98744 118446205.53008  92295810.74544      1581.50408
        47.000          35.000
  23955568.58906  23955573.65542 125887326.17806  98094079.27142      5041.72906
        41.000          26.000
  24221565.17307  24221570.75841 127285151.08907  99183326.63441     -1823.32507
        42.000          22.000
  23735006.69605  23735012.48741 124728236.04005  97190910.84641      5526.47005
        38.000          21.000
  23076685.90907  23076693.40843 121268734.82307  94495223.02243     -1352.96407
        44.000          30.000
  23297333.09007  23297339.18143 122428280.26207  95398730.07643      -626.20107
        43.000          30.000
 11  8  8  1  9  0.0000000  0 11G23G20G31G04G10G25G02G17G13G32G12    -.000094183
  21934316.97109  21934321.38244 115265599.21009  89817412.66044      4172.46609
        49.000          35.000
  21406664.07709  21406669.84045 112492808.88609  87656763.36345      -281.68009
        49.000          38.000
  21940178.41809  21940184.12445 115296405.64109  89841411.79745      1537.08009
        49.000          38.000
  21314007.39309  21314014.05545 112005850.49409  87277366.10345      2360.64009
        49.000          37.000
  24139263.99605  24139271.01841 126852652.21505  98846272.23841      5540.39605
        38.000          20.000
  22530599.54808  22530608.77344 118399093.69608  92259100.20044      1559.26308
        46.000          35.000
  23926810.92607  23926816.23742 125736208.05007  97976325.02142      5032.75907
        43.000          26.000
  24231995.79806  24232003.88041 127339975.97706  99226047.22341     -1831.57206
        40.000          22.000
  23703479.05206  23703484.44941 124562556.89906  97061810.47841      5518.91606
        41.000          21.000
  23084439.28407  23084445.91243 121309476.12607  94526969.48843     -1363.29607
        43.000          31.000
  23300957.20907  23300963.68943 122447327.04707  95413571.65043      -643.56007
        44.000          29.000
 11  8  8  1  9 30.0000000  0 11G23G20G31G04G10G25G02G17G13G32G12    -.000125869
  21910538.50309  21910542.54545 115140641.79709  89720043.31045      4157.79309
        49.000          36.000
  21408321.26608  21408326.52545 112501514.90008  87663547.25145      -298.85308
        48.000          37.000
  21931461.76209  21931467.08645 115250599.73409  89805718.86745      1516.47009
        49.000          38.000
  21300590.50909  21300596.73945 111935344.55409  87222426.39645      2339.60509
        49.000          37.000
  24107653.07005  24107659.82641 126686532.50005  98716828.34141      5534.12105
        38.000          20.000
  22521758.60708  22521768.13944 118352634.31608  92222898.10844      1537.84708
        47.000          35.000
  23898102.91307  23898108.16442 125585346.50707  97858770.86942      5024.57507
        42.000          26.000
  24242472.92506  24242480.55641 127395034.29906  99268949.74041     -1839.33606
        39.000          20.000
  23671991.08306  23671997.23141 124397088.64506  96932873.92641      5512.16806
        40.000          21.000
  23092247.99807  23092255.46743 121350513.08307  94558946.38543     -1372.73907
        43.000          30.000
  23304676.95808  23304684.03643 122466874.22708  95428803.13443      -659.69708
        45.000          30.000
 11  8  8  1 10  0.0000000  0 11G23G20G31G04G10G25G02G17G13G32G12    -.000157556
  21886845.32908  21886849.68744 115016135.21308  89623025.24744      4142.64608
        48.000          35.000
  21410077.13109  21410082.59445 112510743.18209  87670738.10045      -316.37209
        49.000          38.000
  21922864.32809  21922870.14345 115205420.54809  89770514.34645      1495.52709
        49.000          38.000
  21287295.62009  21287301.42345 111865477.68809  87167984.63545      2318.27609
        49.000          37.000
  24076077.70406  24076082.76541 126520599.82706  98587530.04341      5527.98406
        39.000          19.000
  22513041.49008  22513050.88144 118306825.61908  92187203.05544      1516.09908
        48.000          35.000
  23869443.23407  23869449.12942 125434741.51807  97741416.40442      5015.84007
        42.000          25.000
  24252996.07607  24253000.80941 127450321.52507  99312030.63041     -1846.64607
        42.000          22.000
  23640543.74006  23640549.67941 124231833.22006  96804103.28841      5504.90206
        40.000          20.000
  23100112.85507  23100119.80543 121391842.06807  94591150.79143     -1382.45607
        43.000          31.000
  23308491.02607  23308498.19443 122486917.73007  95444421.51243      -676.33807
        44.000          29.000
 11  8  8  1 10 30.0000000  0 11G23G20G31G04G10G25G02G17G13G32G12    -.000189241
  21863239.78009  21863244.24444 114892087.76109  89526364.94544      4127.15309
        49.000          35.000
  21411932.73609  21411938.59045 112520497.67009  87678338.98545      -333.94009
        49.000          37.000
  21914386.92409  21914393.26345 115160873.36309  89735802.27645      1474.19409
        49.000          38.000
  21274123.19909  21274129.65345 111796256.83309  87114046.34745      2296.55809
        49.000          38.000
  24044537.94805  24044544.75641 126354862.39605  98458383.92941      5521.37705
        36.000          20.000
  22504449.57108  22504458.60544 118261673.32408  92152019.45944      1494.03808
        48.000          35.000
  23840834.68207  23840840.73542 125284402.23107  97624269.06042      5006.71907
        42.000          26.000
  24263561.89507  24263566.81742 127505841.06007  99355292.49242     -1854.48707
        43.000          24.000
  23609139.54306  23609145.20541 124066799.42906  96675505.58241      5497.29006
        41.000          21.000
  23108033.82907  23108040.75243 121433466.83607  94623585.61443     -1392.54907
        43.000          30.000
  23312401.07907  23312407.76943 122507460.87507  95460429.14143      -693.15907
        44.000          30.000
 11  8  8  1 11  0.0000000  0 11G23G20G31G04G10G25G02G17G13G32G12    -.000220922
  21839722.39409  21839726.60445 114768501.39609  89430063.92545      4112.04109
        49.000          36.000
  21413888.59409  21413895.07645 112530776.49209  87686348.46145      -351.15709
        49.000          38.000
  21906030.24609  21906036.03545 115116958.02109  89701582.49945      1453.50109
        49.000          38.000
  21261073.77509  21261080.35045 111727682.25809  87060611.63845      2275.31209
        49.000          37.000
  24013037.23405  24013043.74841 126189322.55405  98329391.75041      5514.95605
        36.000          19.000
  22495982.48408  22495991.05844 118217177.03008  92117346.98044      1472.47108
        48.000          35.000
  23812276.95907  23812282.63742 125134330.22907  97507329.70542      4998.12007
        43.000          25.000
  24274169.16906  24274174.44041 127561589.79506  99398732.98541     -1861.66506
        40.000          21.000
  23577776.78406  23577782.57341 123901989.63606  96547082.44041      5490.27806
        40.000          22.000
  23116010.04607  23116017.62543 121475385.31707  94656249.33943     -1402.01207
        43.000          30.000
  23316404.77007  23316411.33543 122528501.17707  95476824.25343      -709.37007
        44.000          29.000
 11  8  8  1 11 30.0000000  0 11G23G20G31G04G10G25G02G17G13G32G12    -.000252605
  21816291.39809  21816295.57244 114645372.00409  89334118.98844      4096.44009
        49.000          35.000
  21415943.46008  21415948.81845 112541571.76508  87694760.35045      -368.70608
        48.000          37.000
  21897792.91409  21897798.50045 115073668.34509  89667850.29345      1432.33409
        49.000          38.000
  21248146.53909  21248152.72145 111659748.66909  87007676.33245      2253.47209
        49.000          37.000
  23981573.48305  23981579.37841 126023976.95105  98200550.95241      5508.22305
        37.000          19.000
  22487638.94208  22487647.61444 118173330.46108  92083180.77144      1450.55208
        48.000          35.000
  23783769.46906  23783774.76542 124984522.24606  97390596.03642      4988.97506
        41.000          25.000
  24284819.92206  24284826.39642 127617558.87406  99442345.19542     -1869.54106
        39.000          25.000
  23546455.64906  23546462.84041 123737400.02106  96418830.95441      5482.42706
        39.000          22.000
  23124041.70507  23124049.00943 121517589.33107  94689135.53943     -1411.81607
        43.000          30.000
  23320500.89007  23320507.86743 122550030.06207  95493600.16443      -725.97707
        43.000          29.000
 11  8  8  1 12  0.0000000  0 11G23G20G31G04G10G25G02G17G13G32G12    -.000284288
  21792948.02109  21792952.45445 114522704.34409  89238533.86945      4081.54809
        49.000          36.000
  21418096.18608  21418101.60245 112552883.94608  87703575.04745      -385.36608
        48.000          37.000
  21889674.46609  21889680.29345 115031006.08909  89634607.01245      1411.99709
        49.000          38.000
  21235341.62809  21235348.01945 111592458.83709  86955242.65545      2232.62709
        49.000          38.000
  23950146.59805  23950153.01841 125858830.39705  98071865.21541      5501.73905
        37.000          21.000
  22479418.94108  22479428.13244 118130135.59408  92049522.27644      1429.22908
        48.000          35.000
  23755313.29307  23755318.62342 124834983.63907  97274072.65242      4980.46407
        42.000          25.000
  24295512.09206  24295518.78541 127673748.15706  99486128.99141     -1876.29906
        39.000          22.000
  23515178.09006  23515184.20341 123573035.23706  96290754.56741      5475.16606
        40.000          22.000
  23132127.23607  23132134.65643 121560079.03107  94722244.35343     -1420.78107
        44.000          30.000
  23324691.09007  23324697.57543 122572046.25707  95510755.31443      -741.66507
        44.000          28.000
 11  8  8  1 12 30.0000000  0 11G23G20G31G04G10G25G02G17G13G32G12    -.000315972
  21769693.01209  21769697.07545 114400497.53009  89143307.77345      4065.77609
        49.000          36.000
  21420346.01609  21420351.76545 112564709.18909  87712789.49845      -402.69009
        49.000          37.000
  21881675.25209  21881680.38246 114988968.68709  89601850.60946      1390.88909
        49.000          39.000
  21222658.58609  21222665.47545 111525811.62409  86903309.86345      2210.76209
        49.000          37.000
  23918758.50805  23918764.40641 125693882.96005  97943334.63041      5494.90205
        37.000          19.000
  22471322.60308  22471331.94944 118087590.38108  92016370.20544      1407.30908
        48.000          35.000
  23726908.06707  23726913.57542 124685714.31507  97157759.01542      4971.21107
        42.000          26.000
  24306246.19306  24306251.39041 127730152.49306  99530080.43841     -1883.61306
        40.000          21.000
  23483943.98007  23483950.31641 123408895.61207  96162853.51341      5467.40707
        42.000          22.000
  23140266.44107  23140273.14243 121602850.01907  94755572.32243     -1430.38107
        44.000          29.000
  23328973.10407  23328979.84043 122594546.46207  95528287.79443      -758.14007
        43.000          29.000
 11  8  8  1 13  0.0000000  0 11G23G20G31G04G10G25G02G17G13G32G12    -.000347657
  21746526.12408  21746530.28845 114278754.53108  89048443.09445      4050.39108
        48.000          36.000
  21422693.79108  21422699.80445 112577046.08508  87722402.65145      -419.76108
        48.000          37.000
  21873794.26809  21873799.99445 114947556.13009  89569581.07445      1370.03409
        49.000          38.000
  21210098.41009  21210105.15645 111459807.53209  86851878.05245      2189.44809
        49.000          38.000
  23887408.34005  23887414.97141 125529138.05805  97814961.93841      5488.06205
        37.000          19.000
  22463350.22608  22463359.38144 118045694.83708  91983724.28044      1385.70808
        47.000          35.000
  23698554.90507  23698560.11342 124536717.14107  97041657.24642      4961.98307
        42.000          27.000
  24317020.00806  24317025.26741 127786769.68806  99574197.76241     -1890.67406
        39.000          22.000
  23452752.76506  23452758.78441 123244985.06106  96035130.99741      5459.81406
        39.000          22.000
  23148458.86807  23148466.19143 121645901.03007  94789118.44343     -1439.64307
        44.000          29.000
  23333346.29007  23333352.58343 122617529.01107  95546196.20043      -774.13107
        43.000          28.000
 11  8  8  1 13 30.0000000  0 11G23G20G31G04G10G25G02G17G13G32G12    -.000379343
  21723448.04508  21723452.08345 114157477.15908  88953941.26545      4034.92208
        48.000          36.000
  21425138.58008  21425144.18645 112589892.28108  87732412.66045      -436.56208
        48.000          36.000
  21866032.75509  21866038.19845 114906767.65109  89537797.81945      1349.34609
        49.000          38.000
  21197660.95209  21197667.68345 111394447.46909  86800948.19345      2168.05709
        49.000          37.000
  23856097.82106  23856104.48941 125364597.48606  97686748.45941      5481.42606
        39.000          23.000
  22455501.81108  22455510.65944 118004448.36208  91951584.18744      1364.20908
        48.000          35.000
  23670253.99307  23670258.80842 124387994.71407  96925769.68342      4952.93007
        42.000          27.000
  24327833.07605  24327839.83541 127843596.28905  99618478.13441     -1897.53905
        36.000          20.000
  23421605.07006  23421611.78041 123081305.01806  95907588.10641      5452.32406
        39.000          22.000
  23156703.82108  23156711.19843 121689229.62308  94822880.82443     -1448.82308
        45.000          29.000
  23337810.47207  23337817.42643 122640990.24107  95564477.63243      -789.93207
        42.000          29.000
 11  8  8  1 14  0.0000000  0 11G23G20G31G04G10G25G02G17G13G32G12    -.000411028
  21700459.33308  21700463.30845 114036670.03708  88859805.83445      4018.97508
        48.000          36.000
  21427680.15208  21427685.81745 112603248.36408  87742819.97845      -453.89608
        48.000          37.000
  21858390.07609  21858395.45045 114866605.85809  89506502.89445      1328.27109
        49.000          38.000
  21185346.83908  21185353.42145 111329734.39308  86750522.50245      2146.31808
        48.000          38.000
  23824826.13005  23824833.43141 125200266.51105  97558698.30441      5473.84805
        37.000          22.000
  22447776.16208  22447785.74344 117963853.25908  91919951.64744      1342.24108
        48.000          35.000
  23642006.23007  23642011.14542 124239551.79707  96810099.87042      4943.38907
        42.000          27.000
  24338686.50705  24338693.66641 127900632.41505  99662921.85641     -1904.89305
        37.000          22.000
  23390503.95406  23390509.40541 122917860.96306  95780229.15841      5444.06706
        41.000          22.000
  23165002.31607  23165009.89743 121732836.32207  94856859.92243     -1458.18407
        44.000          29.000
  23342366.58307  23342373.32543 122664930.76307  95583132.65243      -806.17207
        42.000          29.000
 11  8  8  1 14 30.0000000  0 11G23G20G31G04G10G25G02G17G13G32G12    -.000442710
  21677560.77508  21677564.72145 113916338.70208  88766041.15445      4003.41308
        48.000          36.000
  21430318.92008  21430324.56645 112617116.10908  87753626.00645      -470.47908
        48.000          37.000
  21850867.18609  21850872.92745 114827073.53109  89475698.45845      1307.59809
        49.000          38.000
  21173155.94009  21173162.68345 111265671.92409  86700603.67445      2124.87309
        49.000          38.000
  23793596.20706  23793603.71141 125036150.85006  97430815.96341      5467.28006
        39.000          21.000
  22440175.64308  22440184.74644 117923912.41308  91888828.92244      1320.81508
        48.000          34.000
  23613813.00207  23613818.05442 124091394.67807  96694652.89142      4934.07207
        42.000          27.000
  24349581.66606  24349587.14041 127957878.71406  99707529.30141     -1911.18206
        39.000          21.000
  23359447.42306  23359453.29341 122754659.18306  95653058.98541      5436.37706
        40.000          22.000
  23173353.58907  23173360.78943 121776722.65907  94891057.02743     -1467.18807
        44.000          29.000
  23347013.42207  23347020.31843 122689351.41707  95602161.79343      -821.60207
        43.000          29.000
 11  8  8  1 15  0.0000000  0 11G23G20G31G04G10G25G02G17G13G32G12    -.000474390
  21654753.09208  21654757.38945 113796482.99808  88672647.09445      3987.35308
        47.000          36.000
  21433054.59708  21433060.40545 112631491.49808  87764827.58645      -487.51508
        48.000          36.000
  21843463.62009  21843469.31145 114788168.12709  89445382.57845      1286.49909
        49.000          38.000
  21161089.14908  21161095.36645 111202258.66908  86651190.75545      2103.04208
        48.000          38.000
  23762407.40206  23762413.96841 124872250.89906  97303101.69141      5459.86806
        39.000          20.000
  22432699.78808  22432708.40144 117884623.39008  91858214.09644      1298.95508
        48.000          35.000
  23585674.43507  23585678.86342 123943523.71007  96579428.91542      4924.32607
        42.000          27.000
  24360513.04305  24360519.84841 128015330.25305  99752296.71241     -1918.42305
        38.000          22.000
  23328436.96606  23328442.91241 122591700.18206  95526078.03341      5427.94006
        40.000          22.000
  23181757.34507  23181764.69843 121820884.39607  94925468.73843     -1476.56207
        43.000          29.000
  23351751.37506  23351757.52543 122714247.09306  95621561.02143      -837.64606
        41.000          28.000
 11  8  8  1 15 30.0000000  0 11G23G20G31G04G10G25G02G17G13G32G12     .000493927
  21931828.56508  21931832.10145 115252522.48008  89807223.29545      3971.41108
        48.000          36.000
  21735677.43809  21735683.32845 114221785.80409  89004017.91045      -504.40409
        49.000          37.000
  22135970.93909  22135976.33345 116325303.87809  90643150.73745      1265.62509
        49.000          38.000
  21448936.94609  21448943.35845 112714910.84909  87829880.75045      2081.32809
        49.000          38.000
  24031051.91706  24031058.08641 126283988.43806  98403156.86141      5452.51006
        40.000          21.000
  22725138.50808  22725147.74944 119421400.71108  93055702.95044      1277.14408
        48.000          35.000
  23857382.07207  23857386.72142 125371359.18107  97692027.93242      4914.69707
        42.000          27.000
  24671274.72805  24671282.09841 129648395.64905 101024815.20641     -1925.13205
        38.000          21.000
  23597264.85406  23597271.31041 124004405.15306  96626887.13641      5419.83406
        40.000          22.000
  23490003.92707  23490011.38443 123440731.28207  96187687.02043     -1485.61007
        44.000          29.000
  23656369.53507  23656376.44743 124315028.54307  96868923.19043      -853.29107
        42.000          29.000
 11  8  8  1 16  0.0000000  0 11G23G20G31G04G10G25G02G17G13G32G12     .000462250
  21909202.56708  21909206.67545 115133624.29708  89714575.36245      3955.55208
        48.000          37.000
  21738605.48808  21738610.92045 114237170.97008  89016006.34845      -520.97208
        48.000          36.000
  22128805.99009  22128811.49945 116287650.99309  90613810.80845      1244.93209
        49.000          38.000
  21437117.06908  21437123.56045 112652797.64908  87781480.85045      2059.79508
        48.000          38.000
  23999946.27506  23999953.04741 126120527.94306  98275785.01941      5445.36106
        39.000          22.000
  22717910.05108  22717918.96644 119383414.22708  93026103.03944      1255.59108
        47.000          35.000
  23829353.65007  23829358.28442 125224067.39207  97577255.12842      4905.12707
        42.000          27.000
  24682283.12304  24682291.91341 129706249.61204 101069896.14641     -1931.62104
        35.000          20.000
  23566349.13106  23566355.21241 123841939.32106  96500290.44141      5411.58706
        41.000          22.000
  23498511.53907  23498519.12643 123485437.30007  96222522.76543     -1494.39407
        44.000          28.000
  23661286.52907  23661293.57443 124340867.61407  96889057.50343      -868.86707
        42.000          28.000
 11  8  8  1 16 30.0000000  0 11G23G20G31G04G10G25G02G17G13G32G12     .000430569
  21886667.08708  21886671.57245 115015200.17208  89622296.83845      3939.28708
        47.000          36.000
  21741627.35708  21741632.70445 114253050.40508  89028379.94145      -537.86608
        48.000          37.000
  22121758.36908  22121764.02745 116250615.99908  90584952.35845      1223.90108
        48.000          38.000
  21425420.25809  21425426.35145 112591327.56809  87733582.12645      2037.97409
        49.000          38.000
  23968881.60805  23968889.26841 125957283.01505  98148581.18641      5437.56305
        38.000          20.000
  22710803.90608  22710812.69844 119346070.37308  92997003.81544      1233.75008
        48.000          35.000
  23801379.17706  23801383.67042 125077061.22806  97462704.91442      4895.16106
        41.000          25.000
  24693329.41305  24693336.65841 129764292.63705 101115124.34241     -1938.25705
        37.000          19.000
  23535479.58406  23535485.85042 123679715.97406  96373882.65342      5403.08606
        41.000          25.000
  23507068.38207  23507075.64343 123530404.93307  96257562.41843     -1503.51607
        44.000          29.000
  23666291.22507  23666297.57543 124367166.53907  96909550.19143      -884.46307
        42.000          29.000
 11  8  8  1 17  0.0000000  0 11G23G20G31G04G10G25G02G17G13G32G12     .000398890
  21864224.28608  21864227.94745 114897261.61008  89530396.66445      3922.80308
        48.000          37.000
  21744744.33308  21744749.84945 114269431.71908  89041144.58845      -554.82408
        48.000          36.000
  22114830.06509  22114835.75145 116214207.41109  90556582.03245      1202.83209
        49.000          38.000
  21413847.02308  21413853.19845 112530510.34708  87686192.13845      2015.96708
        48.000          38.000
  23937860.39905  23937867.97641 125794265.85305  98021554.87241      5429.56505
        37.000          20.000
  22703821.45808  22703830.70944 119309378.58508  92968412.77244      1211.78708
        48.000          35.000
  23773460.83907  23773465.73642 124930352.79407  97348386.64542      4884.92707
        42.000          27.000
  24704412.64305  24704418.98041 129822531.42905 101160505.22241     -1944.89305
        38.000          20.000
  23504658.17607  23504663.84841 123517747.23407  96247673.30141      5394.31607
        42.000          22.000
  23515677.31807  23515683.82643 123575641.52407  96292811.71543     -1512.78807
        44.000          29.000
  23671384.75806  23671391.64542 124393932.68606  96930407.00442      -900.39606
        40.000          27.000
 11  8  8  1 17 30.0000000  0 11G23G20G31G04G10G25G02G17G13G32G12     .000367210
  21841873.03608  21841876.92945 114779803.68608  89438871.05345      3907.05108
        48.000          37.000
  21747955.85508  21747961.16245 114286305.72108  89054293.12845      -570.82008
        47.000          36.000
  22108019.79409  22108024.95345 116178417.66709  90528693.89745      1182.51509
        49.000          38.000
  21402396.50708  21402403.11945 112470339.21808  87639305.52045      1994.66808
        48.000          37.000
  23906882.52406  23906888.17241 125631471.65506  97894702.10641      5422.63706
        41.000          21.000
  22696961.76408  22696971.43944 119273331.29008  92940324.00644      1190.62508
        47.000          35.000
  23745599.41006  23745604.42842 124783937.92206  97234297.17242      4875.39506
        41.000          27.000
  24715530.75805  24715538.00242 129880955.98405 101206030.48942     -1950.67905
        38.000          25.000
  23473883.46607  23473889.40341 123356029.20207  96121659.28941      5386.06907
        42.000          22.000
  23524334.32007  23524341.69543 123621137.80607  96328263.35143     -1521.04507
        43.000          29.000
  23676564.69406  23676571.42543 124421156.00706  96951619.94443      -915.23906
        41.000          28.000
 11  8  8  1 18  0.0000000  0 11G23G20G31G04G10G25G02G17G13G32G12     .000335529
  21819613.34908  21819617.32645 114662828.91308  89347721.87745      3891.37208
        48.000          37.000
  21751259.77708  21751265.70245 114303671.17908  89067824.60445      -586.67508
        47.000          36.000
  22101326.75209  22101332.22345 116143247.48509  90501288.54745      1162.25609
        49.000          38.000
  21391069.75709  21391076.15045 112410815.95609  87592923.86445      1973.52009
        49.000          38.000
  23875946.93106  23875952.93641 125468903.87606  97768025.81441      5415.44406
        41.000          21.000
  22690225.06708  22690234.16144 119237928.64308  92912737.57044      1169.50208
        48.000          35.000
  23717793.86607  23717799.04142 124637819.52007  97120438.72942      4865.87907
        42.000          27.000
  24726682.80904  24726690.54641 129939565.05104 101251699.44841     -1956.24004
        35.000          19.000
  23443157.58906  23443164.07742 123194564.95906  95995843.02242      5378.16906
        41.000          24.000
  23533041.45207  23533048.26043 123666892.57607  96363916.39643     -1529.26807
        43.000          28.000
  23681831.90206  23681838.51943 124448834.80906  96973187.78443      -930.02006
        41.000          28.000
 11  8  8  1 18 30.0000000  0 11G23G20G31G04G10G25G02G17G13G32G12     .000303849
  21797447.00508  21797450.93645 114546344.03708  89256954.45945      3874.78008
        48.000          36.000
  21754658.65308  21754664.21345 114321530.89108  89081741.24545      -603.45708
        48.000          36.000
  22094752.74508  22094758.39845 116108700.61708  90474368.92045      1141.31408
        48.000          38.000
  21379866.55808  21379872.97745 112351944.82208  87547050.27345      1951.57208
        48.000          38.000
  23845055.26805  23845062.66641 125306569.23805  97641531.22141      5407.49105
        37.000          21.000
  22683611.60608  22683620.55444 119203174.28708  92885656.23444      1147.81708
        48.000          35.000
  23690046.35107  23690051.10643 124492004.58807  97006816.80443      4855.49307
        42.000          28.000
  24737872.30705  24737877.92741 129998360.26905 101297513.80341     -1962.79805
        37.000          18.000
  23412481.73406  23412488.05242 123033361.57206  95870229.99842      5369.28206
        41.000          25.000
  23541797.55707  23541804.84143 123712907.93807  96399772.37943     -1537.96907
        43.000          29.000
  23687186.23107  23687193.28743 124476971.10807  96995112.13143      -945.34207
        42.000          28.000
 11  8  8  1 19  0.0000000  0 11G23G20G31G04G10G25G02G17G13G32G12     .000272169
  21775373.52009  21775377.71245 114430348.24909  89166568.14345      3858.37909
        49.000          37.000
  21758150.40208  21758155.99045 114339880.24008  89096039.37845      -619.70708
        47.000          36.000
  22088296.75609  22088302.48145 116074773.80609  90447932.44745      1120.59609
        49.000          38.000
  21368787.88208  21368794.02845 112293723.80208  87501683.25345      1929.82908
        48.000          38.000
  23814208.42606  23814215.94441 125144468.32506  97515218.85041      5399.39906
        39.000          23.000
  22677121.18008  22677129.75544 119169065.27708  92859077.63544      1126.28408
        47.000          34.000
  23662356.17207  23662361.12143 124346492.98207  96893431.09743      4845.31207
        42.000          28.000
  24749094.11904  24749101.48841 130057335.73404 101343468.43241     -1968.71104
        34.000          20.000
  23381856.28507  23381861.77442 122872419.30507  95744820.48342      5360.38607
        42.000          24.000
  23550603.16807  23550610.78643 123759179.82307  96435828.23443     -1546.68007
        43.000          28.000
  23692626.42406  23692633.57342 124505560.05006  97017389.18442      -960.52706
        40.000          27.000
 11  8  8  1 19 30.0000000  0 11G23G20G31G04G10G25G02G17G13G32G12     .000240488
  21753393.43508  21753397.84745 114314842.60408  89076563.75645      3842.01208
        48.000          37.000
  21761734.95908  21761740.50145 114358716.45608  89110716.93245      -635.99108
        48.000          36.000
  22081958.33808  22081964.22445 116041465.33608  90421977.77545      1100.03408
        48.000          38.000
  21357831.84908  21357838.64545 112236152.44508  87456822.48045      1908.17408
        48.000          38.000
  23783406.98106  23783414.35442 124982602.41906  97389089.52242      5391.59606
        41.000          25.000
  22670752.67608  22670761.76444 119135600.56608  92833001.23644      1104.74608
        48.000          34.000
  23634724.45106  23634730.19742 124201286.81006  96780283.40342      4835.10706
        41.000          27.000
  24760350.66905  24760358.89741 130116489.00305 101389561.60941     -1974.71705
        36.000          21.000
  23351280.04407  23351285.23841 122711739.75607  95619615.65641      5351.55807
        42.000          23.000
  23559457.04407  23559464.28843 123805705.22907  96472081.68643     -1554.99007
        43.000          28.000
  23698152.73906  23698159.39243 124534597.94406  97040016.11243      -975.36106
        41.000          28.000
 11  8  8  1 20  0.0000000  0 11G23G20G31G04G10G25G02G17G13G32G12     .000208811
  21731508.09809  21731512.42545 114199833.80909  88986946.54045      3825.39109
        49.000          37.000
  21765412.62808  21765418.27045 114378041.70408  89125775.44845      -652.31008
        48.000          36.000
  22075738.30809  22075744.36845 116008779.15109  90396508.02945      1079.11609
        49.000          38.000
  21347001.09609  21347007.39845 112179235.43609  87412471.62545      1886.35709
        49.000          38.000
  23752651.49806  23752657.62141 124820978.92706  97263149.04541      5383.45706
        41.000          22.000
  22664507.70108  22664517.02944 119102783.62508  92807429.58644      1083.07108
        48.000          35.000
  23607151.67107  23607157.64243 124056393.41007  96667379.59843      4824.65307
        42.000          28.000
  24771643.46106  24771649.53941 130175821.60406 101435794.94641     -1980.74206
        40.000          22.000
  23320753.96807  23320759.99242 122551329.97307  95494620.96242      5342.53907
        43.000          24.000
  23568359.45707  23568366.34343 123852486.54407  96508534.59643     -1563.58907
        44.000          29.000
  23703763.69006  23703770.69843 124564086.71406  97062994.40643      -990.40506
        41.000          28.000
 11  8  8  1 20 30.0000000  0 11G23G20G31G04G10G25G02G17G13G32G12     .000177130
  21709716.43909  21709720.37245 114085316.17409  88897712.04045      3808.91109
        49.000          37.000
  21769181.20108  21769186.90945 114397847.25508  89141208.32645      -668.22808
        47.000          36.000
  22069635.44609  22069641.01745 115976707.31709  90371516.97645      1058.78409
        49.000          38.000
  21336293.38108  21336300.36745 112122965.74808  87368625.09345      1864.77108
        48.000          38.000
  23721939.80705  23721946.35441 124659592.97805  97137393.68241      5375.45905
        37.000          21.000
  22658384.73608  22658394.06044 119070606.40308  92782356.34744      1061.77708
        48.000          34.000
  23579637.60107  23579643.18143 123911807.27707  96554715.16143      4814.30707
        42.000          29.000
  24782965.50505  24782972.55941 130235323.22605 101482160.18441     -1986.26005
        38.000          22.000
  23290279.81107  23290285.62642 122391185.51507  95369833.05942      5333.48607
        43.000          25.000
  23577308.05607  23577315.33243 123899514.45407  96545179.72043     -1571.72407
        43.000          29.000
  23709459.20106  23709466.11643 124594016.07706  97086315.93443     -1005.05906
        41.000          28.000
 11  8  8  1 21  0.0000000  0 11G23G20G31G04G10G25G02G17G13G32G12     .000145453
  21688019.60909  21688023.93145 113971301.22209  88808869.24645      3792.09009
        49.000          38.000
  21773042.78908  21773048.63745 114418140.22008  89157021.02745      -684.59508
        47.000          36.000
  22063650.85009  22063656.36845 115945258.89509  90347011.73945      1037.84709
        49.000          38.000
  21325710.33708  21325717.32745 112067353.26908  87325290.74945      1842.72908
        48.000          38.000
  23691276.20305  23691283.57341 124498456.73105  97011833.05141      5366.92905
        37.000          21.000
  22652384.96208  22652394.52044 119039078.32508  92757789.09544      1040.13208
        48.000          34.000
  23552184.79907  23552190.51143 123767540.39607  96442299.43443      4803.52507
        43.000          29.000
  24794321.88205  24794328.99441 130295000.06505 101528661.60441     -1992.21705
        38.000          21.000
  23259858.21207  23259864.19642 122231318.55207  95245261.43942      5324.18507
        42.000          25.000
  23586305.80907  23586313.11142 123946796.32007  96582022.67642     -1580.38107
        43.000          27.000
  23715239.81506  23715246.62442 124624393.79006  97109986.85242     -1020.13206
        41.000          27.000
 11  8  8  1 21 30.0000000  0 11G23G20G31G04G10G25G02G17G13G32G12     .000113777
  21666418.58108  21666422.65445 113857786.29508  88720416.05145      3775.14208
        48.000          37.000
  21776995.74008  21777001.62944 114438914.03408  89173208.44944      -700.79108
        47.000          35.000
  22057783.95609  22057789.63445 115914428.10809  90322987.78345      1017.15809
        49.000          38.000
  21315252.30009  21315258.69345 112012393.50809  87282464.99345      1820.87909
        49.000          37.000
  23660660.73806  23660668.19342 124337567.52606  96886464.83242      5358.63806
        40.000          25.000
  22646508.30308  22646516.88544 119008193.29608  92733722.76544      1018.61808
        47.000          34.000
  23524792.31007  23524797.79643 123623590.91207  96330131.04343      4792.68607
        43.000          29.000
  24805707.21904          .000   130354845.13704          .000       -1998.10104
        34.000            .000
  23229489.76207  23229494.94342 122071726.69107  95120904.12242      5314.87307
        43.000          25.000
  23595349.77107  23595357.34942 123994325.47907  96619058.37442     -1588.55007
        43.000          26.000
  23721104.49506  23721111.55942 124655211.73106  97134000.82042     -1034.81006
        41.000          26.000
 11  8  8  1 22  0.0000000  0 11G23G20G31G04G10G25G02G17G13G32G12     .000082099
  21644912.13809  21644916.43145 113744768.83009  88632350.48345      3758.71609
        49.000          37.000
  21781039.66608  21781045.06445 114460161.85908  89189765.15845      -716.37708
        47.000          36.000
  22052033.54309  22052039.62745 115884209.67909  90299441.00745       996.91909
        49.000          38.000
  21304917.16709  21304923.37045 111958081.82009  87240144.20045      1799.28709
        49.000          38.000
  23630091.41406  23630099.01742 124176923.87306  96761288.03442      5350.38606
        41.000          26.000
  22640752.42108  22640761.19444 118977946.42608  92710153.77944       997.37308
        48.000          35.000
  23497459.93807  23497464.76243 123479956.84707  96218208.57143      4782.34807
        43.000          29.000
  24817128.18506  24817135.22341 130414851.05906 101622020.26241     -2003.01306
        40.000          19.000
  23199171.49107  23199177.99442 121912408.37007  94996759.98942      5305.77707
        43.000          26.000
  23604440.90407  23604447.49743 124042095.28307  96656281.61843     -1596.43607
        43.000          28.000
  23727051.39207  23727057.70342 124686463.13707  97158352.50142     -1049.14107
        42.000          26.000
 11  8  8  1 22 30.0000000  0 11G23G20G31G04G10G25G02G17G13G32G12     .000050421
  21623500.98309  21623505.09145 113632253.14609  88544675.94845      3741.94309
        49.000          38.000
  21785173.14808  21785179.09844 114481884.46708  89206691.83444      -732.25108
        47.000          35.000
  22046399.96009  22046406.01445 115854605.05409  90276372.45345       976.35309
        49.000          38.000
  21294705.47909  21294711.73245 111904420.76409  87198330.39745      1777.58809
        49.000          38.000
  23599570.13106  23599576.45441 124016530.05106  96636305.76141      5342.05106
        40.000          22.000
  22635117.50208  22635126.90144 118948339.31808  92687083.40144       976.03508
        48.000          34.000
  23470188.15307  23470192.68442 123336642.81207  96106535.42742      4771.54307
        44.000          27.000
  24828576.72506  24828584.35341 130475016.67106 101668902.42841     -2008.38906
        40.000          22.000
  23168907.06207  23168913.55842 121753368.33107  94872832.71442      5296.43607
        43.000          26.000
  23613576.88007  23613584.31142 124090105.89407  96693692.50142     -1604.55607
        42.000          27.000
  23733080.26106  23733087.45642 124718147.37906  97183041.54542     -1063.60406
        40.000          26.000
 11  8  8  1 23  0.0000000  0 11G23G20G31G04G10G25G02G17G13G32G12     .000018744
  21602186.33109  21602190.84445 113520244.23909  88457396.31345      3725.12209
        49.000          37.000
  21789397.10508  21789402.88544 114504082.84008  89223989.22144      -747.93908
        47.000          35.000
  22040884.23009  22040889.42245 115825617.25609  90253784.55545       955.92809
        49.000          38.000
  21284618.75709  21284625.35145 111851414.33009  87157026.68445      1755.94209
        49.000          37.000
  23569095.35305  23569103.04741 123856392.96505  96511523.68841      5333.58405
        38.000          21.000
  22629606.74308  22629615.44644 118919374.52008  92664513.40244       954.80508
        48.000          34.000
  23442977.91807  23442982.73243 123193654.97507  95995116.50543      4760.83507
        44.000          28.000
  24840058.51805  24840064.14341 130535344.02305 101715910.78841     -2013.61805
        37.000          19.000
  23138697.15007  23138703.58142 121594612.90907  94749127.16042      5287.03607
        43.000          26.000
  23622759.15907  23622766.48642 124138359.02407  96731292.33842     -1612.58807
        44.000          27.000
  23739192.20506  23739199.48642 124750265.27106  97208068.44542     -1077.97906
        41.000          26.000
 11  8  8  1 23 30.0000000  0 11G23G20G31G04G10G25G02G17G13G32G12    -.000012934
  21580967.88009  21580971.83545 113408739.68409  88370509.63845      3708.36909
        49.000          38.000
  21793711.08308  21793716.61045 114526750.76408  89241652.49945      -763.50608
        47.000          36.000
  22035483.88709  22035489.61646 115797241.04509  90231673.22346       935.62009
        49.000          39.000
  21274655.95609  21274662.32745 111799058.15409  87116229.65445      1734.25309
        49.000          38.000
  23538670.48706  23538677.91141 123696510.08306  96386939.65741      5325.06906
        40.000          22.000
  22624215.54808  22624224.82244 118891047.00808  92642439.96944       933.62808
        47.000          34.000
  23415830.06607  23415835.12842 123050991.00907  95883949.70742      4749.91707
        42.000          27.000
  24851567.38505          .000   130595836.75105          .000       -2018.76905
        36.000            .000
  23108541.07007  23108546.53142 121436140.21707  94625642.00142      5277.68607
        43.000          25.000
  23631986.48407  23631993.36642 124186847.92007  96769075.82442     -1620.25407
        43.000          27.000
  23745385.86607  23745392.79643 124782809.97907  97233427.93243     -1091.88007
        42.000          28.000
 11  8  8  1 24  0.0000000  0 11G23G20G31G04G10G25G02G17G13G32G12    -.000044611
  21559846.38009  21559850.55645 113297745.83709  88284021.00145      3691.31809
        49.000          37.000
  21798114.35608  21798120.08544 114549890.73908  89259683.65744      -779.13108
        47.000          35.000
  22030201.20608  22030206.83645 115769479.57308  90210040.86745       915.12208
        48.000          38.000
  21264817.07009  21264823.43845 111747356.55809  87075942.66345      1712.51909
        49.000          38.000
  23508296.84206  23508302.98742 123536888.31406  96262559.13242      5316.35706
        41.000          25.000
  22618947.49908  22618956.48644 118863360.17208  92620865.80044       912.31408
        47.000          34.000
  23388744.83107  23388749.56542 122908658.44507  95773041.33042      4738.93507
        42.000          27.000
  24863106.62206  24863112.38742 130656473.50106 101810291.70842     -2023.80406
        41.000          27.000
  23078439.59107  23078445.53242 121277957.06907  94502382.44142      5267.87607
        42.000          25.000
  23641258.16307  23641265.91942 124235575.19007  96807045.12742     -1628.16907
        43.000          27.000
  23751659.88506  23751667.25142 124815783.29106  97259121.36542     -1106.27406
        41.000          27.000
 11  8  8  1 24 30.0000000  0 11G23G20G31G04G10G25G02G17G13G32G12    -.000076284
  21538822.89309  21538826.75745 113187267.12209  88197933.74245      3673.95509
        49.000          38.000
  21802607.50308  21802613.48544 114573502.76708  89278082.60844      -794.91708
        47.000          35.000
  22025035.50509  22025041.52846 115742334.95709  90188889.18646       894.53609
        49.000          39.000
  21255103.56809  21255110.69145 111696312.41309  87036167.98845      1690.48309
        49.000          38.000
  23477971.72006  23477979.37542 123377533.24506  96138386.39042      5307.37806
        41.000          25.000
  22613801.05508  22613810.21344 118836316.05508  92599792.44744       890.72308
        47.000          34.000
  23361723.94807  23361728.47342 122766661.98507  95662394.76742      4727.48507
        42.000          26.000
  24874673.13304  24874682.20341 130717266.41704 101857662.64941     -2028.92104
        33.000          22.000
  23048394.71007  23048400.51142 121120069.13407  94379352.89442      5257.93907
        43.000          27.000
  23650576.42907  23650583.97942 124284541.28107  96845200.48642     -1636.24507
        43.000          26.000
  23758016.59907  23758023.84442 124849185.28207  97285148.80042     -1120.33207
        42.000          27.000
 11  8  8  1 25  0.0000000  0 11G23G20G31G04G10G25G02G17G13G32G12    -.000107951
  21517898.89309  21517903.36245 113077311.53809  88112254.09945      3656.67509
        49.000          38.000
  21807191.29808  21807197.24344 114597591.35708  89296852.85544      -810.59108
        47.000          35.000
  22019988.69109  22019994.33745 115715812.44409  90168222.27645       873.99909
        49.000          38.000
  21245516.45909  21245522.96845 111645931.82109  86996910.38645      1668.43809
        49.000          38.000
  23447699.21906  23447707.23241 123218453.40406  96014428.22141      5298.29106
        39.000          22.000
  22608778.00908  22608786.82344 118809919.85808  92579223.99344       869.30708
        48.000          33.000
  23334768.22306  23334772.95642 122625010.42706  95552016.88342      4716.09906
        40.000          27.000
  24886272.76704  24886281.03741 130778218.50704 101905157.22241     -2034.03804
        34.000          19.000
  23018407.39207  23018413.48042 120962485.10907  94256560.18742      5247.94407
        43.000          25.000
  23659940.78807  23659947.73242 124333750.36807  96883545.19842     -1644.15507
        43.000          27.000
  23764455.38207  23764462.27842 124883018.82507  97311512.46842     -1134.89307
        42.000          26.000
 11  8  8  1 25 30.0000000  0 11G23G20G31G04G10G25G02G17G13G32G12    -.000139620
  21497071.62409  21497076.10845 112967864.82109  88026970.96045      3639.01409
        49.000          38.000
  21811862.72108  21811868.40644 114622138.59108  89315980.55144      -826.56208
        47.000          35.000
  22015056.64509  22015062.43245 115689895.09709  90148026.90745       853.22309
        49.000          38.000
  21236053.27109  21236059.44845 111596199.09409  86958157.59745      1646.28409
        49.000          38.000
  23417477.76406  23417484.69741 123059635.23606  95890673.91141      5288.84306
        41.000          23.000
  22603874.69608  22603883.72044 118784154.77608  92559147.32644       847.61708
        47.000          34.000
  23307876.60107  23307880.36943 122483690.72807  95441897.66343      4704.39407
        42.000          28.000
  24897899.56607          .000   130839310.99407          .000       -2039.49707
        42.000            .000
  22988474.90307  22988480.80042 120805191.51707  94133993.82842      5237.63207
        44.000          26.000
  23669347.24707  23669354.56242 124383184.32807  96922065.09142     -1652.19707
        42.000          26.000
  23770972.28407  23770979.47143 124917265.71107  97338198.24243     -1149.19907
        43.000          28.000
 11  8  8  1 26  0.0000000  0 12G23G20G31G04G10G25G02G17G13G32G29G12 -.000171282
  21476344.73209  21476349.07545 112858943.94809  87942097.55545      3622.21209
        49.000          38.000
  21816623.22908  21816629.18844 114647157.09308  89335475.39344      -841.47908
        48.000          35.000
  22010242.63109  22010248.71545 115664597.12609  90128314.16645       833.30109
        49.000          38.000
  21226715.45309  21226721.78245 111547129.35109  86919921.47845      1624.91209
        49.000          38.000
  23387309.14206  23387315.28341 122901097.24706  95767138.00241      5280.10806
        41.000          23.000
  22599095.48908  22599103.72544 118759034.85508  92539573.35244       826.89508
        47.000          34.000
  23281050.49307  23281054.98843 122342720.35007  95332050.72143      4693.43807
        43.000          29.000
  24909554.78206  24909560.64041 130900556.69206 102000485.24841     -2043.67706
        40.000          20.000
  22958601.94307  22958607.46742 120648206.03207  94011667.49142      5228.06707
        43.000          26.000
  23678799.87707  23678807.14742 124432856.60007  96960770.78742     -1659.29707
        42.000          25.000
  25115093.31604  25115102.25641 131980680.11904 102842147.15641      5196.04504
        35.000          20.000
  23777569.82907  23777577.06142 124951938.87507  97365216.44342     -1162.54907
        42.000          26.000
 11  8  8  1 26 30.0000000  0 12G23G20G31G04G10G25G02G17G13G32G29G12 -.000202946
  21455716.45409  21455720.07345 112750537.62009  87857625.03545      3605.07309
        49.000          38.000
  21821471.50108  21821476.58544 114672631.81208  89355325.80444      -856.66008
        47.000          34.000
  22005543.85209  22005550.05745 115639904.59809  90109073.24945       813.10509
        49.000          38.000
  21217500.87109  21217507.85945 111498709.03809  86882191.35045      1603.24709
        49.000          38.000
  23357191.51307  23357197.09741 122742828.08507  95643811.47741      5271.33307
        42.000          23.000
  22594434.39708  22594443.78944 118734546.08308  92520491.17044       805.87908
        47.000          34.000
  23254289.25607  23254292.90543 122202088.22807  95222467.27143      4682.15807
        43.000          30.000
  24921233.28804  24921241.10541 130961939.86704 102048316.35141     -2048.10504
        35.000          20.000
  22928784.78707  22928791.56842 120491518.22107  93889573.13242      5218.04707
        43.000          27.000
  23688294.88607  23688301.61042 124482751.69807  96999650.07742     -1666.80707
        42.000          25.000
  25085449.42706  25085458.14241 131824903.55606 102720762.82441      5189.26806
        39.000          18.000
  23784245.92406  23784252.96742 124987021.25806  97392553.31042     -1176.14706
        41.000          25.000
 11  8  8  1 27  0.0000000  0 12G23G20G31G04G10G25G02G17G13G32G29G12 -.000234614
  21435184.82009  21435188.82745 112642644.09909  87773552.16545      3587.73409
        49.000          37.000
  21826405.18308  21826410.14544 114698557.02308  89375527.25444      -871.80208
        47.000          35.000
  22000959.11309  22000965.19245 115615812.78509  90090300.39745       792.88109
        49.000          38.000
  21208409.84909  21208416.73345 111450934.86109  86844964.73845      1581.50409
        49.000          38.000
  23327124.18306  23327131.30542 122584826.49206  95520693.39742      5262.00206
        41.000          24.000
  22589894.39308  22589903.24444 118710683.94208  92501897.29544       784.83908
        47.000          34.000
  23227592.38507  23227595.65143 122061793.63807  95113146.81143      4670.64907
        42.000          30.000
  24932937.84504  24932947.02841 131023453.60804 102096249.13741     -2052.70004
        34.000          19.000
  22899025.33907  22899030.99443 120335127.21907  93767710.06743      5207.92507
        44.000          28.000
  23697830.91507  23697838.16242 124532863.94007  97038698.55542     -1674.14107
        43.000          26.000
  25055843.39304  25055852.94041 131669325.18004 102599532.90041      5182.51004
        35.000          18.000
  23790998.47907  23791005.91642 125022506.84007  97420204.10942     -1189.77507
        42.000          26.000
 11  8  8  1 27 30.0000000  0 12G23G20G31G04G10G25G02G17G13G32G29G12 -.000266284
  21414751.92409  21414756.20945 112535269.35109  87689883.57345      3570.48409
        49.000          38.000
  21831424.07308  21831429.55544 114724934.69508  89396081.24444      -886.87508
        47.000          34.000
  21996489.65708  21996495.62645 115592324.87508  90071998.08945       772.84708
        48.000          38.000
  21199442.75709  21199449.48045 111403810.85409  86808244.74745      1559.78509
        49.000          38.000
  23297109.83506  23297116.79142 122427099.60406  95397789.42242      5252.95406
        41.000          24.000
  22585473.45608  22585482.02944 118687451.59208  92483794.12844       763.88208
        47.000          33.000
  23200960.00706  23200964.46743 121921843.21906  95004094.59143      4659.17506
        41.000          30.000
  24944669.40705  24944677.02641 131085099.14805 102144284.49441     -2057.25105
        38.000          20.000
  22869322.16507  22869328.40443 120179039.72607  93646083.44243      5197.78807
        43.000          28.000
  23707409.30607  23707416.12342 124583195.01307  97077917.33442     -1681.33807
        42.000          26.000
  25026277.83405  25026286.44541 131513952.07805 102478463.00841      5175.71305
        38.000          21.000
  23797829.09006  23797835.98442 125058397.39406  97448170.44442     -1203.18406
        41.000          24.000
 11  8  8  1 28  0.0000000  0 12G23G20G31G04G10G25G02G17G13G32G29G12 -.000297950
  21394419.52509  21394423.66845 112428422.28809  87606626.14145      3552.60309
        49.000          38.000
  21836530.95508  21836536.72744 114751770.12908  89416991.97044      -902.31908
        47.000          35.000
  21992136.07509  21992142.32245 115569447.07709  90054171.19545       752.29509
        49.000          38.000
  21190600.12509  21190606.88845 111357344.09309  86772036.90145      1537.80809
        49.000          37.000
  23267149.61306  23267156.38142 122269656.75506  95275106.74142      5243.10106
        40.000          24.000
  22581173.02008  22581182.38744 118664855.29008  92466186.60444       742.45608
        47.000          34.000
  23174395.71406  23174399.89143 121782246.54406  94895318.02543      4647.22706
        41.000          29.000
  24956427.08306  24956433.72041 131146881.44306 102192426.66641     -2061.69906
        40.000          20.000
  22839679.47107  22839685.30042 120023265.47007  93524700.92142      5187.08007
        44.000          27.000
  23717029.98707  23717036.80842 124633750.78807  97117311.21742     -1688.96007
        43.000          26.000
  24996751.81805  24996761.12141 131358794.06505 102357560.66241      5168.04205
        37.000          17.000
  23804736.38206  23804743.87042 125094698.28406  97476456.82342     -1217.00706
        41.000          25.000
 11  8  8  1 28 30.0000000  0 12G23G20G31G04G10G25G02G17G13G32G29G12 -.000329618
  21374186.06709  21374190.33745 112322095.93409  87523774.42345      3535.16609
        49.000          37.000
  21841722.26708  21841728.01844 114779052.53108  89438250.98644      -917.16308
        47.000          34.000
  21987897.14308  21987902.98445 115547169.89308  90036812.33945       732.16308
        48.000          38.000
  21181881.46609  21181887.69045 111311526.00109  86736334.53945      1516.06909
        49.000          38.000
  23237242.12506  23237248.22242 122112492.24906  95152640.97142      5233.83806
        40.000          24.000
  22576992.47708  22577001.31744 118642885.21308  92449067.02544       721.62108
        46.000          34.000
  23147896.95906  23147901.69243 121642997.43906  94786812.23743      4635.48306
        39.000          28.000
  24968206.94905  24968213.42941 131208789.06205 102240666.39241     -2065.95205
        37.000          18.000
  22810095.41007  22810101.16042 119867798.40007  93403557.79542      5176.74307
        43.000          26.000
  23726690.76007  23726697.88542 124684520.72607  97156872.15642     -1696.25007
        43.000          26.000
  24967265.52205  24967274.23241 131203845.28105 102236821.25641      5161.06505
        36.000          18.000
  23811720.97206  23811727.67142 125131397.21906  97505053.33542     -1230.35206
        41.000          26.000
 11  8  8  1 29  0.0000000  0 12G23G20G31G04G10G25G02G17G13G32G29G12 -.000361281
  21354053.97609  21354057.62545 112216299.86109  87441335.91545      3517.82209
        49.000          38.000
  21847000.35708  21847005.97944 114806787.28208  89459862.46244      -931.83108
        47.000          33.000
  21983773.68708  21983779.36445 115525500.00008  90019926.71645       712.41708
        48.000          38.000
  21173287.21709  21173293.93645 111266363.93509  86701143.28945      1494.65309
        49.000          38.000
  23207389.22906  23207396.10242 121955616.64106  95030400.26342      5224.58506
        41.000          24.000
  22572932.16608  22572941.30444 118621548.29308  92432440.82444       700.91308
        47.000          34.000
  23121466.99706  23121472.01443 121504106.28006  94678585.35843      4623.91106
        40.000          28.000
  24980012.11305  24980018.36841 131270925.21105 102288997.55441     -2069.74105
        38.000          18.000
  22780571.05007  22780577.12042 119712649.58607  93282662.61642      5166.52807
        43.000          27.000
  23736393.40407  23736400.74442 124735510.16407  97196604.14342     -1703.04707
        43.000          26.000
  24937822.49604  24937830.26841 131049116.26804 102116253.23141      5154.16004
        35.000          19.000
  23818780.30406  23818787.78442 125168498.88606  97533963.52142     -1243.17906
        40.000          25.000
 11  8  8  1 29 30.0000000  0 11G23G20G31G04G10G25G02G13G32G29G12    -.000392950
  21334020.81609  21334024.95245 112111026.11909  87359304.44145      3500.15609
        49.000          38.000
  21852361.92508  21852367.52844 114834962.56108  89481817.31044      -946.76808
        47.000          35.000
  21979762.91208  21979768.81645 115504426.60008  90003505.90445       692.27508
        48.000          38.000
  21164816.40209  21164822.88045 111221848.19809  86666455.67545      1472.83209
        49.000          38.000
  23177590.77606  23177596.95841 121799022.66406  94908379.01041      5214.81906
        41.000          23.000
  22568990.31408  22568998.98844 118600833.65408  92416299.52544       679.85808
        47.000          34.000
  23095103.63307  23095108.47243 121365565.95907  94570631.89643      4611.82107
        42.000          29.000
  22751106.07407  22751112.69942 119557810.94507  93162009.15642      5155.81007
        43.000          27.000
  23746135.87607  23746143.34642 124786707.71307  97236498.36042     -1710.24407
        42.000          26.000
  24908418.54405  24908427.08841 130894600.23905 101995851.20441      5146.73805
        38.000          17.000
  23825914.89606  23825922.23642 125205991.14306  97563178.04042     -1256.48406
        40.000          25.000
 11  8  8  1 30  0.0000000  0 11G23G20G31G04G10G25G02G13G32G29G12    -.000424616
  21314089.37109  21314093.70145 112006285.96009  87277688.72645      3482.68609
        49.000          38.000
  21857808.82408  21857814.52544 114863585.99408  89504121.30244      -961.35708
        47.000          35.000
  21975868.25208  21975874.07145 115483958.16708  89987556.49045       672.40208
        48.000          38.000
  21156470.16309  21156476.39445 111177988.29409  86632279.13645      1451.33309
        49.000          38.000
  23147847.72206  23147854.68642 121642722.39606  94786586.67742      5205.30806
        41.000          26.000
  22565168.28408  22565177.71044 118580749.86308  92400649.75644       659.12108
        47.000          34.000
  23068809.61307  23068814.35143 121227388.73807  94462961.29443      4599.94107
        42.000          29.000
  22721702.46807  22721709.16942 119403295.48607  93041607.51742      5145.34207
        43.000          27.000
  23755919.98007  23755926.89842 124838120.36607  97276560.04942     -1717.18807
        42.000          26.000
  24879057.54405  24879066.36541 130740309.43805 101875624.57641      5139.41405
        36.000          18.000
  23833125.30306  23833132.92342 125243881.14106  97592702.50242     -1269.39006
        40.000          25.000
 11  8  8  1 30 30.0000000  0 11G23G20G31G04G10G25G02G13G32G29G12    -.000456282
  21294259.02909  21294263.18845 111902076.12709  87196486.23545      3464.61409
        49.000          38.000
  21863339.39108  21863345.02844 114892650.64208  89526769.11444      -976.31808
        47.000          35.000
  21972087.30708  21972092.99145 115464088.86308  89972073.93245       652.09008
        48.000          37.000
  21148247.73709  21148254.49845 111134779.27109  86598609.77845      1429.19909
        49.000          38.000
  23118160.02406  23118167.45042 121486713.56206  94665021.42042      5195.29806
        41.000          26.000
  22561464.98908  22561474.48644 118561291.04808  92385487.01244       637.97408
        47.000          34.000
  23042584.24007  23042588.87643 121089572.26807  94355571.90143      4587.55407
        44.000          31.000
  22692360.48907  22692366.81242 119249101.00707  92921455.97442      5134.16007
        43.000          27.000
  23765742.86906  23765750.68742 124889741.71806  97316784.36142     -1724.45806
        41.000          25.000
  24849739.30704  24849748.90641 130586241.78804 101755571.88041      5131.27404
        35.000          19.000
  23840410.03506  23840417.81742 125282161.54906  97622531.30342     -1282.64706
        39.000          25.000
 11  8  8  1 31  0.0000000  0 11G23G20G31G04G10G25G02G13G32G29G12    -.000487942
  21274531.77809  21274536.06745 111798409.11909  87115706.74345      3446.28909
        49.000          38.000
  21868955.90308  21868961.64544 114922164.62408  89549766.97444      -991.48408
        47.000          34.000
  21968422.29208  21968427.79445 115444828.01708  89957065.51745       631.62608
        48.000          38.000
  21140151.11809  21140157.83745 111092231.36209  86565455.54745      1407.03109
        49.000          38.000
  23088530.22407  23088537.45542 121331009.25407  94543693.45442      5184.76607
        42.000          25.000
  22557883.44308  22557892.50744 118542466.45708  92370818.39544       616.69408
        47.000          34.000
  23016430.02708  23016434.34543 120952129.22908  94248473.43043      4574.88808
        45.000          31.000
  22663082.55807  22663087.90442 119095240.50907  92801564.66642      5122.77807
        43.000          27.000
  23775607.92607  23775615.04042 124941580.27607  97357177.91342     -1731.79207
        42.000          26.000
  24820466.51905  24820475.62941 130432410.65705 101635703.67541      5123.41305
        38.000          20.000
  23847771.48206  23847778.23042 125320839.86606  97652670.14042     -1295.98606
        40.000          26.000
 11  8  8  1 31 30.0000000  0 11G23G20G31G04G10G25G02G13G32G29G12     .000480404
  21554700.84909  21554705.06645 113270706.40309  88262951.38945      3428.31109
        49.000          38.000
  22174449.32308  22174454.42944 116527541.33108  90800709.77644     -1006.07908
        47.000          34.000
  22264664.40808  22264670.29245 117001591.62408  91170128.08045       611.68008
        48.000          38.000
  21431972.22109  21431978.37845 112625762.14409  87760414.60845      1385.17609
        49.000          38.000
  23358752.13907  23358758.82342 122751033.80607  95650206.16642      5174.78007
        42.000          24.000
  22854213.80908  22854222.78844 120099692.12008  93584240.91344       595.77108
        47.000          34.000
  23290139.64007  23290143.99243 122390483.26207  95369268.76943      4562.61207
        44.000          31.000
  22933660.02707  22933666.00343 120517138.05807  93909536.76743      5111.89907
        44.000          28.000
  24085304.70407  24085312.13442 126569048.71907  98625335.11542     -1738.76507
        42.000          26.000
  25091031.82905  25091039.95541 131854240.33105 102743622.91041      5115.95205
        37.000          18.000
  24154997.68106  24155004.73742 126935328.39506  98910713.10442     -1308.78906
        39.000          26.000
 11  8  8  1 32  0.0000000  0 11G23G20G31G04G10G25G02G13G32G29G12     .000448748
  21535178.72609  21535182.42445 113168115.24009  88183010.21245      3410.89409
        49.000          38.000
  22180232.36908  22180238.09344 116557932.97808  90824391.45444     -1020.06808
        46.000          34.000
  22261227.17108  22261233.03845 116983529.90508  91156054.01745       592.32408
        48.000          37.000
  21424124.55409  21424130.80845 112584520.81709  87728278.44945      1364.11109
        49.000          38.000
  23329237.23307  23329243.80442 122595931.65907  95529347.42842      5165.28307
        42.000          25.000
  22850869.57408  22850878.44744 120082118.11408  93570546.85444       575.70308
        47.000          33.000
  23264125.64107  23264130.47543 122253780.53807  95262747.23443      4550.97207
        44.000          31.000
  22904507.54707  22904513.23643 120363938.49207  93790160.45143      5101.38707
        43.000          28.000
  24095248.02207  24095255.58242 126621300.75507  98666050.84842     -1744.93707
        42.000          26.000
  25061847.26904  25061855.83541 131700875.65904 102624117.96941      5108.50604
        35.000          18.000
  24162504.70406  24162512.87442 126974779.37706  98941454.09842     -1321.14306
        40.000          25.000
 11  8  8  1 32 30.0000000  0 11G23G20G31G04G10G25G02G13G32G29G12     .000417088
  21515757.01809  21515761.02345 113066055.77609  88103483.35945      3392.37309
        49.000          38.000
  22186096.90808  22186102.93744 116588751.65808  90848405.99244     -1035.11708
        47.000          34.000
  22257902.47508  22257908.26745 116966057.23308  91142438.93845       571.87508
        48.000          37.000
  21416398.73108  21416405.76645 112543923.83508  87696644.35045      1341.71908
        48.000          38.000
  23299778.29406  23299785.43442 122441125.77606  95408719.51342      5154.34606
        41.000          27.000
  22847642.89908  22847651.67144 120065158.93408  93557331.87144       554.32108
        48.000          34.000
  23238180.79207  23238186.07643 122117442.73507  95156509.99443      4537.68607
        43.000          29.000
  22875416.42707  22875422.28942 120211064.31607  93671037.67142      5089.48207
        43.000          27.000
  24105228.62606  24105235.80942 126673748.07406  98706918.82042     -1752.25606
        41.000          26.000
  25032706.38405  25032715.33741 131547739.60505 102504791.16441      5099.91205
        38.000          19.000
  24170083.27806  24170090.21142 127014603.65306  98972485.93642     -1334.49706
        40.000          25.000
 11  8  8  1 33  0.0000000  0 11G23G20G31G04G10G25G02G13G32G29G12     .000385433
  21496439.61609  21496443.63346 112964542.33509  88024381.95446      3375.23409
        49.000          39.000
  22192044.79408  22192050.75844 116620008.04208  90872761.61244     -1048.45708
        47.000          33.000
  22254692.11008  22254697.54245 116949185.08408  91129291.80345       553.02208
        48.000          37.000
  21408798.79208  21408805.36145 112503983.69608  87665522.17245      1320.98108
        48.000          37.000
  23270379.32807  23270386.36742 122286631.43007  95288334.33742      5145.28807
        43.000          27.000
  22844534.06408  22844543.75044 120048825.80108  93544604.64344       534.63908
        47.000          33.000
  23212309.34007  23212313.98343 121981485.01807  95050568.91243      4526.23507
        43.000          29.000
  22846390.22307  22846396.22743 120058531.47607  93552180.77043      5079.34607
        44.000          28.000
  24115247.95106  24115255.14742 126726401.17606  98747947.26242     -1757.87606
        41.000          26.000
  25003612.06905  25003620.97841 131394848.00005 102385654.80241      5092.92005
        37.000          20.000
  24177733.86806  24177742.04842 127054811.50806  99003816.73442     -1345.96206
        40.000          24.000
 11  8  8  1 33 30.0000000  0 11G23G20G31G04G10G25G02G13G32G29G12     .000353772
  21477224.25409  21477228.51646 112863564.19409  87945697.67646      3357.01709
        49.000          39.000
  22198073.18208  22198078.67044 116651686.88508  90897446.36744     -1063.00308
        47.000          34.000
  22251592.88109  22251598.51945 116932899.83909  91116601.99445       533.06609
        49.000          37.000
  21401320.76908  21401327.73445 112464687.71508  87634901.91345      1299.14108
        48.000          38.000
  23241037.57907  23241044.12542 122132439.00407  95168184.39742      5134.65307
        43.000          27.000
  22841542.69408  22841551.82544 120033105.64608  93532355.18844       513.78908
        48.000          33.000
  23186507.25307  23186513.40943 121845897.68607  94944916.50443      4513.39407
        43.000          29.000
  22817427.80807  22817433.33142 119906330.53607  93433582.61242      5067.78307
        44.000          27.000
  24125303.48006  24125311.56842 126779245.55506  98789124.58242     -1764.57506
        40.000          24.000
  24974562.57805  24974570.28141 131242191.27805 102266701.40641      5084.66305
        38.000          19.000
  24185455.77506  24185463.41442 127095388.00206  99035434.71642     -1358.64306
        40.000          24.000
 11  8  8  1 34  0.0000000  0 11G23G20G31G04G10G25G02G13G32G29G12     .000322113
  21458111.79009  21458115.50745 112763127.09309  87867434.97445      3338.89209
        49.000          38.000
  22204182.51808  22204187.79944 116683790.97408  90922462.55044     -1077.19208
        47.000          33.000
  22248606.11509  22248611.30445 116917204.63409  91104371.95345       513.38409
        49.000          38.000
  21393966.30008  21393973.18045 112426039.61508  87604786.53745      1277.55908
        48.000          38.000
  23211753.79907  23211761.08142 121978555.30407  95048275.04542      5124.24307
        42.000          26.000
  22838668.45108  22838678.01044 120018001.19408  93520585.49644       493.38908
        47.000          33.000
  23160778.02007  23160783.37643 121710688.07607  94839558.37843      4500.69807
        43.000          31.000
  22788528.74108  22788534.80342 119754467.66708  93315247.89742      5056.46508
        45.000          27.000
  24135397.40306  24135404.25341 126832283.73006  98830452.96441     -1771.07406
        40.000          23.000
  24945559.16505  24945567.57341 131089776.25005 102147936.49841      5076.45505
        38.000          21.000
  24193247.50506  24193255.66642 127136334.09806  99067340.67542     -1371.06906
        40.000          25.000
 11  8  8  1 34 30.0000000  0 11G23G20G31G04G10G25G02G13G32G29G12     .000290453
  21439102.91909  21439106.55845 112663233.07409  87789595.46945      3321.13809
        49.000          38.000
  22210372.48508  22210377.89044 116716318.11008  90947808.39444     -1090.95208
        47.000          34.000
  22245731.58009  22245737.04745 116902098.67509  91092601.06545       494.06309
        49.000          37.000
  21386735.25208  21386741.82145 112388039.47908  87575176.04245      1256.23008
        48.000          38.000
  23182530.29507  23182537.13242 121824983.28107  94928608.55642      5114.09707
        42.000          25.000
  22835911.28508  22835920.14244 120003511.56608  93509294.95744       473.08608
        47.000          33.000
  23135121.50608  23135125.96043 121575858.27808  94734496.12343      4488.44708
        45.000          30.000
  22759695.52408  22759701.64043 119602946.27108  93197179.33443      5045.29308
        45.000          29.000
  24145525.76606  24145533.55542 126885513.81306  98871930.85742     -1777.18706
        39.000          24.000
  24916602.52705  24916609.92541 130937605.94105 102029362.21441      5068.50105
        38.000          19.000
  24201109.65906  24201117.07841 127177647.16206  99099532.47241     -1382.93006
        40.000          23.000
 11  8  8  1 35  0.0000000  0 11G23G20G31G04G10G25G02G13G32G29G12     .000258789
  21420195.45909  21420200.13345 112563876.03109  87712174.37045      3302.63709
        49.000          38.000
  22216640.77008  22216645.97744 116749258.50908  90973476.26944     -1105.22508
        47.000          34.000
  22242967.81009  22242973.38545 116887573.06109  91081282.42245       474.16509
        49.000          37.000
  21379625.60109  21379632.15245 112350679.01309  87546063.95445      1234.40909
        49.000          38.000
  23153364.34107  23153371.33542 121671717.81207  94809180.94242      5103.36407
        42.000          26.000
  22833269.38908  22833278.38444 119989627.83708  93498476.60344       452.41708
        47.000          33.000
  23109535.10108  23109539.92443 121441403.19808  94629725.91443      4475.29808
        46.000          30.000
  22730926.02308  22730931.85443 119451760.86308  93079372.55343      5033.60808
        45.000          30.000
  24155690.37006  24155697.73742 126938926.44706  98913551.16442     -1783.75006
        41.000          25.000
  24887689.85205  24887698.68341 130785675.83405 101910975.08841      5059.97105
        37.000          18.000
  24209039.55106  24209047.12342 127219317.42406  99132002.63042     -1395.30806
        40.000          24.000
 11  8  8  1 35 30.0000000  0 11G23G20G31G04G10G25G02G13G32G29G12     .000227130
  21401394.60109  21401398.47545 112465074.84309  87635186.43645      3284.31609
        49.000          38.000
  22222990.45208  22222995.84444 116782626.90808  90999477.61844     -1119.26808
        47.000          34.000
  22240316.37608  22240322.36245 116873643.42908  91070428.15645       454.60908
        48.000          37.000
  21372641.31508  21372647.78945 112313975.15008  87517463.55145      1212.65108
        48.000          38.000
  23124261.58707  23124268.03643 121518778.39807  94690007.31943      5092.65107
        42.000          28.000
  22830745.05908  22830754.40144 119976365.57108  93488142.51544       431.84608
        46.000          33.000
  23084024.59008  23084028.95344 121307342.30208  94525262.75144      4462.27508
        46.000          32.000
  22702224.20207  22702229.92043 119300931.81607  92961843.43543      5021.86507
        44.000          29.000
  24165892.09606  24165899.06941 126992536.25306  98955324.96741     -1789.97106
        40.000          22.000
  24858829.69305  24858836.87241 130634005.72505 101792790.60941      5051.56705
        36.000          20.000
  24217039.47906  24217046.90442 127261359.55306  99164762.92442     -1407.52406
        40.000          24.000
 11  8  8  1 36  0.0000000  0 11G23G20G31G04G10G25G02G13G32G29G12     .000195477
  21382699.50308  21382703.22845 112366831.17308  87558632.91445      3265.53708
        48.000          38.000
  22229420.72708  22229426.51844 116816421.58808  91025811.16144     -1133.53508
        47.000          33.000
  22237778.90108  22237785.03845 116860308.79208  91060037.52145       434.62408
        47.000          38.000
  21365781.33508  21365788.20945 112277927.65408  87489374.63745      1190.64008
        48.000          38.000
  23095220.81407  23095227.40642 121366168.18807  94571090.26542      5081.49407
        42.000          27.000
  22828339.16108  22828348.97644 119963723.63608  93478291.68944       411.11808
        46.000          33.000
  23058589.72708  23058593.88243 121173678.69208  94421109.22643      4448.82808
        45.000          31.000
  22673590.30908  22673596.40543 119150461.70908  92844594.02543      5009.67308
        45.000          29.000
  24176130.85406  24176137.85542 127046342.19906  98997251.79242     -1796.75306
        41.000          25.000
  24830016.69005  24830024.79941 130482598.40705 101674810.94541      5042.69505
        37.000          19.000
  24225109.82506  24225117.30041 127303770.62906  99197810.79141     -1419.76106
        40.000          23.000
 11  8  8  1 36 30.0000000  0 11G23G20G31G04G10G25G02G13G32G29G12     .000163824
  21364108.73309  21364112.86245 112269137.26909  87482507.78945      3247.30509
        49.000          38.000
  22235930.70608  22235936.96944 116850630.99208  91052467.87944     -1147.14408
        47.000          33.000
  22235352.65208  22235358.46945 116847558.36808  91050102.09245       415.27808
        48.000          38.000
  21359044.68508  21359051.51345 112242526.85708  87461789.56245      1169.27708
        48.000          38.000
  23066241.31206  23066248.06242 121213880.63506  94452424.64042      5070.94706
        41.000          27.000
  22826049.85008  22826059.03344 119951691.40308  93468915.88644       390.96708
        46.000          33.000
  23033227.98707  23033232.74943 121040405.33707  94317259.78843      4435.98607
        43.000          31.000
  22645023.93207  22645029.81043 119000343.82207  92727619.07443      4998.06607
        44.000          29.000
  24186404.47906  24186411.37142 127100332.41406  99039322.12942     -1802.73406
        41.000          25.000
  24801253.05205  24801261.56141 130331447.66105 101557031.01441      5034.04805
        37.000          20.000
  24233248.33106  24233255.91141 127346538.01506  99231136.04841     -1431.50906
        40.000          22.000
 11  8  8  1 37  0.0000000  0 11G23G20G31G04G10G25G02G13G32G29G12     .000132170
  21345622.82309  21345627.24746 112171994.07609  87406811.81146      3228.83809
        49.000          39.000
  22242519.69608  22242524.50344 116885251.94908  91079445.20544     -1160.98108
        47.000          33.000
  22233037.52208  22233043.50945 116835390.56208  91040620.66645       395.84508
        48.000          37.000
  21352431.40508  21352437.98545 112207771.42908  87434707.37945      1147.70508
        48.000          38.000
  23037324.09507  23037330.51842 121061917.50007  94334011.81642      5059.90207
        42.000          27.000
  22823875.89308  22823884.89444 119940267.01008  93460013.74644       370.64908
        46.000          33.000
  23007941.58607  23007946.46043 120907524.51707  94213716.28643      4422.70007
        43.000          30.000
  22616525.02008  22616530.40943 118850579.97008  92610919.96143      4986.14208
        45.000          29.000
  24196713.41606  24196720.24042 127154504.77206  99081534.57342     -1808.83806
        40.000          25.000
  24772540.13005  24772548.55941 130180555.79305 101439452.94441      5025.31705
        37.000          20.000
  24241454.09706  24241461.41042 127389658.63706  99264736.48842     -1443.32506
        39.000          24.000
 11  8  8  1 37 30.0000000  0 11G23G20G31G04G10G25G02G13G32G29G12     .000100518
  21327242.75708  21327246.60246 112075406.24108  87331548.52346      3210.02008
        48.000          39.000
  22249186.14908  22249191.42744 116920286.09108  91106744.50744     -1174.91208
        47.000          32.000
  22230832.98008  22230838.84945 116823807.02308  91031594.48345       375.99608
        48.000          37.000
  21345940.92308  21345947.71545 112173664.35608  87408130.42045      1125.67408
        47.000          38.000
  23008469.27707  23008475.87442 120910284.65507  94215856.34542      5048.61807
        42.000          27.000
  22821818.23708  22821827.00244 119929452.58108  93451587.01144       350.02908
        46.000          34.000
  22982730.60707  22982735.75743 120775041.36107  94110482.60743      4409.13107
        43.000          30.000
  22588093.80008  22588100.25443 118701176.09708  92494501.32643      4973.76508
        45.000          29.000
  24207056.05406  24207063.83141 127208860.13806  99123889.50941     -1815.35206
        39.000          22.000
  24743877.05705  24743885.15541 130029928.65305 101322081.21541      5015.96705
        37.000          20.000
  24249726.55206  24249734.05242 127433132.85806  99298612.37242     -1455.26906
        41.000          24.000
 11  8  8  1 38  0.0000000  0 11G23G20G31G04G10G25G02G13G32G29G12     .000068867
  21308968.98209  21308973.10546 111979374.81809  87256718.85646      3191.94309
        49.000          39.000
  22255930.42008  22255936.20844 116955729.77208  91134362.99444     -1188.16408
        46.000          32.000
  22228739.71708  22228745.53945 116812805.93008  91023022.15245       357.16808
        47.000          37.000
  21339573.52208  21339580.38545 112140204.52508  87382057.87445      1104.58008
        48.000          38.000
  22979677.29507  22979684.48542 120758983.58207  94097959.35942      5037.78807
        42.000          27.000
  22819875.65008  22819884.56344 119919245.53508  93443633.47244       330.24908
        45.000          34.000
  22957596.46107  22957601.42843 120642958.35907  94007560.87443      4396.24007
        44.000          31.000
  22559732.30808  22559738.55043 118552134.25308  92378364.84843      4962.10008
        45.000          29.000
  24217434.39106  24217441.74342 127263395.97906  99166385.10042     -1820.76206
        40.000          24.000
  24715263.31705  24715272.48941 129879568.45405 101204917.43741      5007.79805
        37.000          20.000
  24258067.11307  24258073.88542 127476957.18107  99332761.13842     -1466.36207
        42.000          26.000
 11  8  8  1 38 30.0000000  0 11G23G20G31G04G10G25G02G13G32G29G12     .000037214
  21290799.53209  21290803.12146 111883895.76009  87182319.66946      3173.51609
        49.000          39.000
  22262752.06308  22262757.34744 116991575.70208  91162294.86844     -1201.36208
        46.000          33.000
  22226755.52908  22226761.53945 116802380.34108  91014898.31845       338.05208
        46.000          37.000
  21333328.53008  21333335.22745 112107385.60908  87356484.70345      1083.42308
        48.000          38.000
  22950948.48607  22950955.51042 120608012.01907  93980319.17942      5027.11907
        42.000          27.000
  22818047.35608  22818056.71544 119909639.04708  93436147.84444       310.31308
        45.000          33.000
  22932537.31808  22932541.91044 120511272.21008  93904948.32944      4383.06108
        45.000          32.000
  22531439.17408  22531445.33743 118403451.65308  92262508.26843      4950.11708
        45.000          29.000
  24227845.13106  24227852.10942 127318104.45106  99209015.02942     -1826.23106
        41.000          24.000
  24686701.72005  24686709.69141 129729472.37605 101087959.48141      4998.97505
        38.000          20.000
  24266471.33606  24266478.35441 127521123.23806  99367176.03041     -1477.66106
        40.000          23.000
 11  8  8  1 39  0.0000000  0 11G23G20G31G04G10G25G02G13G32G29G12     .000005560
  21272735.56209  21272739.88346 111788971.43709  87108352.66746      3154.75109
        49.000          39.000
  22269649.49408  22269655.09644 117027822.43008  91190538.95344     -1215.07808
        46.000          33.000
  22224880.93208  22224887.01945 116792529.90408  91007222.66845       318.61808
        46.000          37.000
  21327205.43508  21327212.27845 112075208.12808  87331411.27245      1061.74308
        47.000          38.000
  22922282.94707  22922290.24742 120457373.19607  93862938.28442      5015.56207
        42.000          27.000
  22816333.64707  22816343.03844 119900632.84507  93429129.95144       290.15107
        44.000          33.000
  22907554.32308  22907559.24244 120379986.27708  93802647.62744      4369.35108
        45.000          33.000
  22503214.29108  22503220.58843 118255132.03708  92146934.51943      4937.81208
        45.000          29.000
  24238288.30806  24238295.32141 127372985.37506  99251779.49141     -1832.40706
        40.000          22.000
  24658189.79905  24658198.71741 129579644.77005 100971210.78841      4989.70705
        37.000          21.000
  24274940.23007  24274948.13841 127565629.97207  99401856.49841     -1489.34107
        42.000          23.000
 11  8  8  1 39 30.0000000  0 11G23G20G31G04G10G25G02G13G32G29G12    -.000026093
  21254779.83308  21254783.90046 111694609.35408  87034823.76046      3135.79108
        48.000          39.000
  22276623.86808  22276629.59044 117064474.13208  91219098.72244     -1228.64308
        45.000          33.000
  22223116.89408  22223122.89645 116783259.19808  90999998.72145       299.22908
        46.000          37.000
  21321204.99708  21321212.05545 112043677.55008  87306841.97945      1040.05908
        48.000          38.000
  22893682.20207  22893689.07743 120307075.59907  93745823.18043      5004.05707
        42.000          28.000
  22814735.27007  22814743.97144 119892231.66107  93422583.63144       269.88307
        43.000          32.000
  22882649.70208  22882653.91444 120249108.98408  93700665.37144      4355.58108
        45.000          33.000
  22475061.41008  22475067.01043 118107183.98708  92031650.34043      4925.18108
        45.000          30.000
  24248765.16706  24248772.42141 127428042.02706  99294680.70441     -1838.10106
        40.000          23.000
  24629731.76005  24629740.05341 129430093.62605 100854677.37341      4980.19005
        38.000          20.000
  24283475.61707  24283482.94242 127610479.87307  99436804.35042     -1500.86407
        42.000          26.000
 11  8  8  1 40  0.0000000  0 11G23G20G31G04G10G25G02G13G32G29G12    -.000057741
  21236930.79709  21236934.58346 111600812.41709  86961735.25246      3117.14309
        49.000          39.000
  22283675.36908  22283681.30244 117101529.61308  91247973.07344     -1241.89908
        45.000          32.000
  22221463.12508  22221469.18045 116774568.33408  90993226.60545       280.03408
        47.000          38.000
  21315328.20908  21315335.40445 112012794.90808  87282777.60445      1018.61808
        48.000          38.000
  22865147.62406  22865154.12843 120157123.92306  93628977.72543      4992.61206
        41.000          28.000
  22813251.41108  22813260.59544 119884434.96108  93416508.22744       249.78508
        45.000          32.000
  22857822.42308  22857826.86843 120118644.03608  93599004.26743      4341.96808
        45.000          31.000
  22446978.94007  22446984.94643 117959611.41007  91916658.77443      4912.79807
        44.000          30.000
  24259275.76706  24259282.77241 127483274.11706  99337718.58141     -1843.93106
        40.000          23.000
  24601326.92205  24601334.41441 129280823.71105 100738363.15241      4970.98605
        38.000          17.000
  24292075.10706  24292082.87741 127655672.03506  99472018.99141     -1512.09506
        40.000          23.000
 11  8  8  1 40 30.0000000  0 11G23G20G31G04G10G25G02G13G32G29G12    -.000089386
  21219189.59609  21219193.82446 111507583.70609  86889089.59046      3098.43709
        49.000          39.000
  22290803.63508  22290809.25344 117138988.57108  91277161.82144     -1254.99508
        46.000          32.000
  22219919.68908  22219925.57145 116766457.33008  90986906.27645       261.05508
        47.000          37.000
  21309575.33208  21309581.52745 111982560.92708  87259218.70745       997.34408
        47.000          38.000
  22836678.97906  22836685.90442 120007521.69006  93512404.51842      4981.15206
        40.000          27.000
  22811883.00308  22811892.09044 119877242.93808  93410903.97844       230.01008
        46.000          32.000
  22833074.97107  22833079.96443 119988596.15707  93497668.38543      4328.30607
        43.000          30.000
  22418969.18307  22418975.38543 117812418.31707  91801962.86843      4900.46907
        44.000          31.000
  24269820.28906  24269827.26042 127538681.13206  99380892.60442     -1849.55106
        40.000          24.000
  24572975.70605  24572984.42241 129131839.08605 100622271.24041      4961.55805
        38.000          22.000
  24300739.80806  24300747.19541 127701205.13806  99507499.36641     -1523.18806
        41.000          23.000
 11  8  8  1 41  0.0000000  0 11G23G20G31G04G10G25G02G13G32G29G12    -.000121032
  21201555.13509  21201559.59846 111414913.90809  86816879.40946      3079.58509
        49.000          39.000
  22298006.25708  22298011.75344 117176838.00608  91306654.86444     -1268.20808
        45.000          32.000
  22218484.39308  22218490.30545 116758914.31408  90981028.56945       241.86008
        48.000          37.000
  21303943.07309  21303949.84545 111952964.32009  87236156.39745       975.91309
        49.000          37.000
  22808276.09106  22808282.58143 119858261.04106  93396097.44943      4969.59006
        40.000          28.000
  22810627.04008  22810636.58044 119870643.67008  93405761.66744       210.01508
        46.000          32.000
  22808405.23707  22808410.10843 119858956.65507  93396650.69943      4314.40407
        43.000          31.000
  22391029.87307  22391036.09243 117665596.84207  91687556.51643      4887.72007
        43.000          30.000
  24280394.24006  24280401.62641 127594251.18706  99424193.88441     -1855.12706
        39.000          22.000
  24544677.63705  24544686.56341 128983132.43205 100506396.02141      4952.24605
        36.000          21.000
  24309467.18206  24309474.27641 127747065.50006  99543234.59941     -1534.15006
        41.000          22.000
 11  8  8  1 41 30.0000000  0 11G23G20G31G04G10G25G02G13G32G29G12    -.000152675
  21184029.12809  21184033.29846 111322814.92409  86745114.01346      3060.17109
        49.000          39.000
  22305284.58508  22305290.36444 117215085.72808  91336458.23544     -1281.73308
        45.000          32.000
  22217159.13608  22217164.61545 116751948.07108  90975600.35045       222.35408
        47.000          37.000
  21298434.30408  21298441.08345 111924014.88808  87213598.39745       954.02308
        47.000          38.000
  22779940.79906  22779946.43743 119709355.27906  93280066.94643      4957.51006
        40.000          28.000
  22809486.19108  22809495.23844 119864645.87108  93401087.99344       189.62908
        46.000          33.000
  22783815.68407  22783821.14943 119729738.37007  93295961.18743      4300.08307
        43.000          31.000
  22363164.26408  22363170.06343 117519160.50008  91573450.32543      4874.55608
        45.000          30.000
  24291001.23705  24291008.75041 127649992.61205  99467628.75941     -1861.11305
        38.000          21.000
  24516435.16106  24516443.28641 128834716.68806 100390747.47341      4942.00206
        39.000          22.000
  24318256.67006  24318264.83241 127793260.93806  99579231.02441     -1545.58606
        40.000          23.000
 11  8  8  1 42  0.0000000  0 11G23G20G31G04G10G25G02G13G32G29G12    -.000184310
  21166613.05109  21166617.31346 111231291.57109  86673797.17246      3041.27009
        49.000          40.000
  22312638.84008  22312644.50444 117253733.14808  91366573.06244     -1294.79508
        45.000          32.000
  22215943.65808  22215949.03245 116745560.47008  90970623.00145       203.38408
        47.000          37.000
  21293048.85408  21293055.76645 111895715.43608  87191546.86545       932.57808
        47.000          38.000
  22751672.88506  22751679.83643 119560810.31706  93164317.66443      4945.51306
        41.000          29.000
  22808459.37908  22808468.92644 119859251.58608  93396884.66844       169.88808
        47.000          33.000
  22759307.90207  22759312.75343 119600947.42007  93195604.73143      4285.90807
        43.000          31.000
  22335372.89007  22335378.74943 117373115.07707  91459648.77543      4861.76307
        44.000          30.000
  24301641.43106  24301649.10641 127705907.11406  99511198.81141     -1866.56706
        39.000          22.000
  24488248.87905  24488257.22341 128686598.13205 100275330.43841      4932.40205
        38.000          22.000
  24327112.08807  24327119.39341 127839791.78507  99615488.63041     -1556.53807
        42.000          22.000
 11  8  8  1 42 30.0000000  0 11G23G20G31G04G10G25G02G13G32G29G12    -.000215945
  21149304.42509  21149308.91146 111140336.09009  86602922.79446      3022.55409
        49.000          39.000
  22320067.24908  22320073.45344 117292769.12108  91396990.68844     -1307.57808
        46.000          32.000
  22214835.77608  22214841.63545 116739740.89708  90966088.28445       184.66308
        47.000          37.000
  21287785.45109  21287792.15145 111868055.99109  87169994.05445       911.51409
        49.000          38.000
  22723472.70307  22723479.30043 119412619.69807  93048844.52343      4933.98007
        42.000          29.000
  22807545.71208  22807554.91544 119854450.03708  93393143.21044       150.37108
        45.000          33.000
  22734879.79908  22734884.73644 119472577.03608  93095575.87944      4272.13908
        45.000          32.000
  22307654.27007  22307660.02843 117227453.97907  91346146.67343      4849.13607
        44.000          29.000
  24312312.28406  24312319.83442 127761982.79406  99554894.21142     -1871.57206
        40.000          25.000
  24460118.52705  24460126.59841 128538770.85005 100160140.45741      4922.86105
        37.000          22.000
  24336027.91706  24336035.72341 127886646.10906  99651998.04641     -1566.96306
        39.000          22.000
 11  8  8  1 43  0.0000000  0 11G23G20G31G04G10G25G02G13G32G29G12    -.000247581
  21132104.66209  21132108.61246 111049947.78209  86532490.29546      3002.98809
        49.000          39.000
  22327569.20108  22327574.51444 117332189.14208  91427707.51744     -1320.84008
        46.000          32.000
  22213836.47608  22213841.89745 116734485.83808  90961993.45045       165.41508
        47.000          37.000
  21282643.83308  21282650.45445 111841033.97108  87148937.88945       889.64408
        48.000          38.000
  22695340.54507  22695347.69143 119264784.11807  92933648.11843      4921.43607
        43.000          29.000
  22806744.22508  22806752.87644 119850237.59408  93389860.79744       130.20508
        45.000          33.000
  22710532.06108  22710536.22544 119344627.89508  92995875.34544      4257.51908
        45.000          33.000
  22280008.88808  22280014.75043 117082177.67708  91232944.36143      4835.61008
        45.000          31.000
  24323012.71406  24323021.17241 127818215.94306  99598712.21641     -1877.56306
        40.000          22.000
  24432043.31605  24432051.26441 128391235.27805 100045177.75941      4912.55805
        37.000          21.000
  24345005.28406  24345013.29941 127933820.26506  99688757.15441     -1578.21306
        40.000          22.000
 11  8  8  1 43 30.0000000  0 11G23G20G31G04G10G25G02G13G32G29G12    -.000279214
  21115013.19509  21115017.03846 110960132.19709  86462504.13146      2984.57009
        49.000          40.000
  22335145.76608  22335148.49144 117371995.24208  91458725.30844     -1333.11008
        46.000          32.000
  22212944.02008  22212949.48145 116729797.94708  90958340.51445       147.12408
        47.000          36.000
  21277623.36408  21277630.18445 111814652.60708  87128380.95945       868.94508
        48.000          38.000
  22667276.95906  22667284.01743 119117309.78306  92818733.12843      4909.99506
        41.000          29.000
  22806055.21107  22806063.83444 119846616.60007  93387039.20844       111.07907
        44.000          33.000
  22686265.44908  22686269.94044 119217105.66708  92896507.26644      4243.91108
        45.000          33.000
  22252438.04608  22252444.62043 116937292.82108  91120047.08443      4823.31008
        45.000          30.000
  24333744.19806  24333752.25941 127874608.80906  99642654.66541     -1882.27506
        39.000          22.000
  24404025.16205  24404033.36541 128243998.32005  99930447.61641      4902.98805
        37.000          20.000
  24354042.87706  24354050.84041 127981314.51106  99725765.67241     -1588.19306
        40.000          22.000
 11  8  8  1 44  0.0000000  0 11G23G20G31G04G10G25G02G13G32G29G12    -.000310849
  21098029.73909  21098033.51046 110870883.84809  86392959.98146      2965.67909
        49.000          39.000
  22342791.11908  22342795.85944 117412178.25108  91490036.78044     -1345.34208
        45.000          32.000
  22212158.41808  22212163.76145 116725668.88108  90955123.00345       128.60408
        48.000          37.000
  21272723.52408  21272730.37945 111788904.39408  87108317.34945       848.00308
        48.000          38.000
  22639282.04006  22639287.84943 118970192.98206  92704096.77143      4898.19806
        41.000          29.000
  22805477.39508  22805486.09644 119843578.68608  93384671.92944        91.79208
        45.000          33.000
  22662079.21508  22662083.93444 119090006.08808  92797468.25844      4229.93708
        45.000          32.000
  22224940.93308  22224947.20743 116792795.24408  91007451.56843      4810.33208
        45.000          30.000
  24344504.40206  24344512.19241 127931152.90106  99686715.00541     -1887.06506
        40.000          22.000
  24376062.65205  24376071.12241 128097056.01105  99815947.10141      4893.54005
        36.000          21.000
  24363140.40306  24363147.95141 128029119.74806  99763016.55741     -1598.44206
        40.000          21.000
 11  8  8  1 44 30.0000000  0 11G23G20G31G04G10G25G02G13G32G29G12    -.000342487
  21081153.90409  21081158.30746 110782202.37509  86323857.44346      2946.37709
        49.000          39.000
  22350507.64508  22350513.57444 117452734.29208  91521638.96844     -1358.32508
        46.000          32.000
  22211478.04408  22211483.75345 116722095.52908  90952338.53345       109.69208
        47.000          37.000
  21267943.92408  21267950.96545 111763786.90808  87088745.23645       826.55808
        48.000          37.000
  22611354.01106  22611360.88943 118823434.47806  92589739.67043      4885.79106
        41.000          29.000
  22805009.41507  22805018.69044 119841120.61507  93382756.48044        72.12907
        44.000          32.000
  22637973.82307  22637979.00843 118963331.48507  92698760.83543      4215.23007
        44.000          31.000
  22197518.43908  22197524.27443 116648686.61808  90895159.13943      4796.89908
        45.000          31.000
  24355292.40206  24355299.59541 127987844.34506  99730890.11341     -1892.44106
        40.000          22.000
  24348157.53205  24348165.54441 127950409.79405  99701677.45541      4882.87605
        36.000          22.000
  24372295.95906  24372302.97241 128077231.06406  99800505.89341     -1608.98406
        40.000          22.000
 11  8  8  1 45  0.0000000  0 11G23G20G31G04G10G25G02G13G32G29G12    -.000374123
  21064388.42009  21064392.37646 110694097.09509  86255203.84746      2926.92409
        49.000          39.000
  22358297.14208  22358302.99343 117493669.09608  91553536.22643     -1371.07908
        45.000          31.000
  22210905.18308  22210911.09345 116719084.43008  90949992.15245        90.72808
        48.000          37.000
  21263285.98908  21263292.58545 111739307.49908  87069670.39945       805.10308
        48.000          38.000
  22583497.29006  22583504.21343 118677045.04706  92475670.04243      4873.24206
        41.000          28.000
  22804653.48408  22804662.39844 119839248.88408  93381297.94844        52.43708
        45.000          33.000
  22613950.54107  22613955.84143 118837091.56307  92600392.28143      4200.43407
        44.000          31.000
  22170171.47208  22170177.19844 116504977.01708  90783177.65544      4783.34008
        45.000          32.000
  24366109.24906  24366116.97841 128044689.48106  99775185.00641     -1897.71006
        39.000          22.000
  24320309.91605  24320317.69041 127804069.92705  99587646.41141      4872.58805
        37.000          22.000
  24381510.54006  24381517.71341 128125653.62406  99838237.59641     -1619.42406
        39.000          22.000
 11  8  8  1 45 30.0000000  0 11G23G20G31G04G10G25G02G13G32G29G12    -.000405762
  21047730.92609  21047735.10346 110606561.80009  86186994.43446      2907.89109
        49.000          39.000
  22366157.01908  22366162.52943 117534972.78708  91585721.01343     -1383.30608
        45.000          31.000
  22210437.42408  22210443.51645 116716626.05208  90948076.50545        72.28008
        47.000          36.000
  21258747.41608  21258754.01145 111715457.47808  87051085.98945       784.09208
        48.000          38.000
  22555709.10606  22555716.25143 118531019.02406  92361883.56943      4861.08906
        40.000          30.000
  22804406.77508  22804416.14644 119837953.65508  93380288.48644        33.17408
        45.000          32.000
  22590010.13507  22590014.27843 118711280.49307  92502357.75443      4186.17707
        44.000          31.000
  22142899.16508  22142905.10843 116361661.43108  90671503.27843      4770.17608
        45.000          31.000
  24376953.96506  24376962.14541 128101678.72406  99819592.13341     -1902.32906
        39.000          22.000
  24292520.29805  24292527.69241 127658032.35905  99473850.97741      4862.37805
        37.000          22.000
  24390782.59906  24390789.72941 128174377.25906  99876203.99241     -1629.48706
        39.000          22.000
 11  8  8  1 46  0.0000000  0 11G23G20G31G04G10G25G02G13G32G29G12    -.000437397
  21031184.18809  21031188.47046 110519607.25809  86119237.58646      2888.97909
        49.000          40.000
  22374088.25908  22374093.93743 117576652.82508  91618198.99543     -1395.27808
        45.000          31.000
  22210076.54208  22210082.60545 116714728.50308  90946597.88745        54.09708
        46.000          36.000
  21254330.07108  21254336.94945 111692245.35408  87032998.63245       763.37908
        48.000          37.000
  22527993.40806  22527999.89043 118385369.09506  92248390.18643      4848.93506
        40.000          29.000
  22804272.32408  22804281.12944 119837243.15108  93379734.71044        14.16008
        45.000          32.000
  22566152.76108  22566157.56544 118585910.30308  92404666.61444      4171.81608
        45.000          32.000
  22115704.07008  22115709.72243 116218751.41508  90560144.83143      4757.16308
        45.000          31.000
  24387828.42606  24387835.69441 128158819.37406  99864117.25541     -1907.02206
        40.000          22.000
  24264788.97205  24264797.33141 127512309.02405  99360300.36141      4852.34805
        37.000          22.000
  24400112.88206  24400119.91741 128223408.44406  99914409.98541     -1639.14506
        40.000          22.000
 11  8  8  1 46 30.0000000  0 11G23G20G31G04G10G25G02G13G32G29G12    -.000469035
  21014746.50309  21014750.47346 110433226.38709  86051927.81546      2869.59509
        49.000          39.000
  22382089.38207  22382095.07643 117618697.87407  91650961.43743     -1407.75907
        44.000          31.000
  22209819.41208  22209826.06845 116713381.54308  90945548.27245        35.55708
        46.000          37.000
  21250032.72708  21250039.58345 111669662.12608  87015401.32745       742.04108
        48.000          38.000
  22500347.38407  22500354.13243 118240089.33007  92135185.20643      4836.26907
        43.000          30.000
  22804245.92908  22804255.39944 119837107.26408  93379628.79244        -5.23908
        45.000          33.000
  22542378.32708  22542382.95044 118460975.55008  92307314.99344      4156.98708
        47.000          33.000
  22088585.22608  22088591.02444 116076241.71308  90449098.33844      4743.36408
        46.000          32.000
  24398728.29105  24398735.85841 128216101.45005  99908752.62641     -1912.12405
        38.000          21.000
  24237117.42706  24237125.64741 127366894.19506  99246990.19941      4841.78706
        39.000          22.000
  24409499.43306  24409507.13541 128272736.22806  99952847.18841     -1649.63406
        40.000          22.000
 11  8  8  1 47  0.0000000  0 11G23G20G31G04G10G25G02G13G32G29G12    -.000500665
  20998420.86909  20998425.10846 110347435.08309  85985077.42146      2849.95609
        49.000          39.000
  22390161.80807  22390167.93243 117661120.47107  91684017.95343     -1420.23407
        44.000          31.000
  22209671.22908  22209676.89045 116712598.63108  90944938.17745        16.77208
        47.000          36.000
  21245857.45708  21245864.50245 111647721.54108  86998304.79245       720.73708
        48.000          38.000
  22472775.21207  22472781.93443 118095197.15107  92022282.24843      4823.33507
        43.000          28.000
  22804332.10308  22804341.40544 119837558.96608  93379980.72744       -24.70208
        45.000          32.000
  22518690.17508  22518695.06144 118336492.85608  92210315.53844      4141.97808
        47.000          34.000
  22061546.71608  22061552.25243 115934149.77508  90338377.34643      4729.46308
        45.000          31.000
  24409658.21606  24409665.63041 128273537.79906  99953508.20641     -1917.03106
        39.000          21.000
  24209507.84706  24209515.97941 127221805.45106  99133934.00541      4830.92806
        39.000          21.000
  24418944.11506  24418952.88041 128322372.56906  99991524.88041     -1659.59006
        40.000          22.000
 11  8  8  1 47 30.0000000  0 11G23G20G31G04G10G25G02G13G32G29G12     .000467709
  21281999.81109  21282003.82246 111837651.02509  87146284.61946      2830.53209
        49.000          40.000
  22698097.36908  22698103.22643 119279330.96408  92944961.14043     -1432.46608
        45.000          31.000
  22509420.11708  22509426.52145 118287791.68208  92172361.30345        -1.56308
        47.000          37.000
  21541595.43609  21541602.29945 113201837.25509  88209304.03245       699.62409
        49.000          38.000
  22745069.55407  22745076.17043 119526113.67807  93137282.15143      4810.65407
        42.000          30.000
  23104320.62408  23104329.72643 121414010.46708  94608384.54143       -43.97008
        46.000          31.000
  22794880.10408  22794884.92744 119787883.17808  93341269.24344      4126.96808
        46.000          33.000
  22334379.01808  22334385.06643 117367896.36908  91455582.45543      4715.80108
        45.000          31.000
  24720407.67506  24720414.98741 129906537.98406 101225975.68341     -1921.70406
        39.000          22.000
  24481753.17206  24481760.87541 128652464.85906 100248733.59641      4819.94606
        40.000          23.000
  24728239.80407  24728247.25341 129947726.78007 101258034.57041     -1669.49707
        42.000          21.000
 11  8  8  1 48  0.0000000  0 11G23G20G31G04G10G25G02G13G32G29G12     .000436086
  21265896.17809  21265900.55246 111753027.30709  87080344.04546      2811.07409
        49.000          40.000
  22706309.36707  22706315.33843 119322487.30807  92978589.40243     -1444.56507
        44.000          31.000
  22509481.77808  22509488.42045 118288116.35208  92172614.21845       -19.84908
        48.000          36.000
  21537662.13009  21537668.88745 113181164.09209  88193195.02145       678.62809
        49.000          38.000
  22717643.88507  22717650.45143 119381989.38707  93024977.52443      4797.72007
        43.000          30.000
  23104626.55408  23104635.79843 121415617.27408  94609636.66843       -63.05208
        45.000          31.000
  22771362.17708  22771367.19944 119664297.89908  93244969.26944      4112.00208
        45.000          33.000
  22307497.67708  22307503.31543 117226632.22908  91345506.50743      4701.93408
        46.000          31.000
  24731392.84306  24731399.86741 129964261.98106 101270955.34441     -1926.20106
        39.000          21.000
  24454267.59806  24454274.61341 128508022.50406 100136181.20441      4809.35606
        39.000          23.000
  24737798.10306  24737805.42941 129997956.83606 101297174.86641     -1679.16506
        41.000          22.000
 11  8  8  1 48 30.0000000  0 11G23G20G31G04G10G25G02G13G32G29G12     .000404460
  21249902.92809  21249907.22546 111668982.24509  87014854.39646      2791.75809
        49.000          39.000
  22714589.98607  22714595.70543 119366000.51407  93012495.79643     -1456.35707
        44.000          30.000
  22509648.00708  22509653.95845 118288985.76408  92173291.76245       -38.08608
        47.000          36.000
  21533847.15108  21533854.25445 113161116.37908  88177573.40045       657.65108
        48.000          38.000
  22690290.00207  22690296.63543 119238245.86507  92912969.66443      4785.15107
        43.000          30.000
  23105040.04708  23105049.15044 121417791.72108  94611331.07044       -82.01708
        45.000          32.000
  22747929.51308  22747934.43444 119541157.10708  93149015.52044      4097.19708
        46.000          33.000
  22280693.95308  22280699.99744 117085779.08908  91235750.85244      4688.14508
        45.000          32.000
  24742403.31806  24742409.94841 130022119.82306 101316039.25841     -1930.75206
        40.000          21.000
  24426841.13306  24426849.29842 128363900.35206 100023878.30342      4798.58906
        39.000          24.000
  24747410.94206  24747418.93541 130048472.33706 101336537.53841     -1688.68206
        41.000          21.000
 11  8  8  1 49  0.0000000  0 11G23G20G31G04G10G25G02G13G32G29G12     .000372836
  21234021.38009  21234025.19346 111585522.03309  86949820.46346      2772.34909
        49.000          39.000
  22722938.43808  22722944.26143 119409872.73508  93046681.92843     -1468.28608
        45.000          30.000
  22509917.15408  22509923.30345 118290402.69408  92174395.89645       -56.22108
        47.000          36.000
  21530151.77708  21530158.60945 113141697.98408  88162442.19545       636.96308
        48.000          37.000
  22663010.48607  22663016.96943 119094890.34307  92801264.07143      4772.07007
        43.000          29.000
  23105562.82708  23105571.71143 121420536.85808  94613470.17243      -100.84008
        46.000          31.000
  22724582.42408  22724587.62444 119418468.45208  93053414.04644      4082.17808
        45.000          32.000
  22253970.87608  22253975.91544 116945344.21508  91126321.10244      4674.28208
        45.000          33.000
  24753438.63506  24753446.00341 130080114.78706 101361230.08141     -1935.22006
        39.000          21.000
  24399477.57406  24399486.46141 128220106.09606  99911830.92041      4787.71506
        40.000          23.000
  24757077.90006  24757086.36341 130099275.41406 101376124.34941     -1697.99306
        40.000          21.000
 11  8  8  1 49 30.0000000  0 11G23G20G31G04G10G25G02G13G32G29G12     .000341210
  21218249.64409  21218253.78746 111502642.65409  86885239.13146      2752.85109
        49.000          39.000
  22731354.25707  22731359.91243 119454096.76607  93081142.22843     -1480.03907
        44.000          29.000
  22510289.75308  22510295.98545 118292360.01808  92175921.02845       -74.26808
        48.000          36.000
  21526575.42808  21526581.74545 113122902.69608  88147796.51545       616.07908
        48.000          37.000
  22635803.92807  22635810.82843 118951920.58307  92689859.08943      4759.23307
        44.000          30.000
  23106191.55407  23106201.26243 121423845.88707  94616048.66043      -119.78007
        44.000          31.000
  22701321.39708  22701326.14644 119296229.38408  92958162.94444      4067.07008
        46.000          34.000
  22227325.93408  22227331.13043 116805325.18608  91017215.37443      4660.27808
        45.000          31.000
  24764499.39606  24764507.26741 130138239.77306 101406522.27941     -1939.71206
        39.000          19.000
  24372176.87805  24372184.97741 128076637.48305  99800037.17541      4776.84105
        37.000          22.000
  24766799.80807  24766807.46641 130150358.09307 101415928.90741     -1707.53907
        42.000          21.000
 11  8  8  1 50  0.0000000  0 11G23G20G31G04G10G25G02G13G32G29G12     .000309588
  21202590.34409  21202594.48446 111420353.34609  86821117.61046      2732.92009
        49.000          40.000
  22739837.38907  22739843.15643 119498678.15507  93115880.99543     -1492.16307
        44.000          30.000
  22510766.24808  22510772.43745 118294864.68708  92177872.74445       -92.82708
        48.000          36.000
  21523118.57208  21523125.14645 113104737.64208  88133641.95845       594.81008
        48.000          38.000
  22608673.53007  22608679.94643 118809347.28207  92578763.03243      4745.68807
        42.000          31.000
  23106929.97607  23106939.72443 121427725.09007  94619071.42743      -138.99907
        44.000          31.000
  22678147.87808  22678152.28644 119174450.00008  92863269.98844      4051.50908
        46.000          33.000
  22200761.69907  22200767.83144 116665732.67807  90908442.04144      4645.79107
        44.000          32.000
  24775585.92905  24775594.11041 130196500.97205 101451920.49341     -1944.32105
        38.000          20.000
  24344940.16506  24344947.87942 127933505.61106  99688505.84642      4765.24906
        40.000          24.000
  24776573.81506  24776581.96641 130201726.13406 101455955.91541     -1717.19206
        40.000          22.000
 11  8  8  1 50 30.0000000  0 11G23G20G31G04G10G25G02G13G32G29G12     .000277968
  21187042.98909  21187047.37546 111338652.07809  86757454.28246      2713.48609
        49.000          40.000
  22748388.13307  22748394.04943 119543611.66007  93150894.03843     -1503.65207
        44.000          30.000
  22511346.04708  22511352.09645 118297911.76508  92180247.09645      -110.57108
        47.000          37.000
  21519781.25008  21519787.67445 113087198.73108  88119975.23945       574.21408
        48.000          37.000
  22581617.50107  22581624.66143 118667169.69507  92467975.31843      4732.67107
        43.000          31.000
  23107776.28707  23107785.38443 121432169.61507  94622534.79843      -157.58807
        43.000          31.000
  22655061.29808  22655065.71644 119053130.10608  92768735.06544      4036.24008
        46.000          33.000
  22174278.68508  22174285.59544 116526565.87808  90800000.38744      4631.70908
        45.000          32.000
  24786698.41206  24786705.68041 130254893.27906 101497420.81441     -1948.75006
        40.000          21.000
  24317767.46006  24317774.27541 127790710.47406  99577237.15541      4754.06306
        40.000          22.000
  24786402.67206  24786410.16541 130253373.08706 101496200.22941     -1726.20606
        39.000          20.000
 11  8  8  1 51  0.0000000  0 11G23G20G31G04G10G25G02G13G32G29G12     .000246351
  21171608.92409  21171613.22346 111257543.24309  86694252.56746      2693.24709
        49.000          40.000
  22757006.18107  22757011.76243 119588898.07707  93186182.12643     -1515.93807
        43.000          29.000
  22512029.57808  22512035.49845 118301502.39508  92183044.96845      -129.21908
        48.000          36.000
  21516562.82908  21516569.86145 113070287.87708  88106797.96145       552.80308
        48.000          37.000
  22554638.62307  22554645.54743 118525393.42607  92357500.30743      4718.64307
        42.000          31.000
  23108729.75807  23108739.35444 121437180.27707  94626439.18744      -176.94307
        44.000          32.000
  22632062.79908  22632067.76944 118932274.72408  92674562.06944      4020.30808
        47.000          33.000
  22147878.65007  22147884.39444 116387830.33807  90691894.76744      4616.81607
        44.000          32.000
  24797835.04406  24797842.95541 130313418.34006 101543024.72541     -1953.64706
        39.000          21.000
  24290658.31906  24290666.38942 127648257.68806  99466235.23442      4742.15806
        39.000          24.000
  24796282.99505  24796291.42841 130305299.87405 101536662.63841     -1736.00605
        38.000          21.000
 11  8  8  1 51 30.0000000  0 11G23G20G31G04G10G25G02G13G32G29G12     .000214740
  21156287.75109  21156291.53946 111177029.08409  86631514.26746      2674.06709
        49.000          39.000
  22765690.97407  22765696.36543 119634536.18607  93221744.19243     -1526.92407
        44.000          30.000
  22512816.71808  22512822.21845 118305636.42008  92186266.25545      -146.63108
        46.000          36.000
  21513464.49308  21513471.57645 113054005.31908  88094110.22645       532.50508
        48.000          37.000
  22527737.02906  22527743.59143 118384022.81306  92247341.38143      4705.81506
        41.000          30.000
  23109790.80107  23109800.29644 121442756.54807  94630784.24344      -195.02007
        43.000          33.000
  22609154.01508  22609158.92644 118811887.46208  92580753.80944      4005.25908
        46.000          34.000
  22121561.00707  22121566.71544 116249530.27907  90584128.44044      4602.88107
        44.000          33.000
  24808997.42306  24809004.83141 130372075.24106 101588731.33241     -1957.19706
        39.000          21.000
  24263616.46005  24263624.49241 127506150.76305  99355502.60641      4731.27905
        38.000          22.000
  24806218.76906  24806226.06341 130357504.69406 101577341.74241     -1744.55106
        40.000          22.000
 11  8  8  1 52  0.0000000  0 11G23G20G31G04G10G25G02G13G32G29G12     .000183123
  21141077.02109  21141080.90046 111097096.01409  86569228.74646      2654.86309
        49.000          40.000
  22774439.43407  22774444.99343 119680509.71007  93257567.72743     -1537.91507
        43.000          30.000
  22513703.43008  22513709.16745 118310297.32008  92189898.09045      -164.00908
        48.000          36.000
  21510482.51508  21510489.68945 113038335.29208  88081899.77145       512.26108
        48.000          38.000
  22500909.88407  22500916.29943 118243045.63107  92137489.01943      4692.73907
        44.000          30.000
  23110956.67908  23110966.02343 121448882.09508  94635557.28743      -213.12008
        45.000          31.000
  22586331.70008  22586336.77244 118691956.38808  92487301.04844      3990.23408
        46.000          33.000
  22095324.50608  22095330.44844 116111653.85808  90476692.25444      4588.92608
        45.000          33.000
  24820180.94806  24820189.05941 130430847.57806 101634527.88141     -1960.80606
        39.000          19.000
  24236638.58805  24236646.09341 127364378.23305  99245030.51541      4720.35205
        37.000          23.000
  24816202.56006  24816209.39441 130409969.48706 101618223.34141     -1752.93506
        41.000          21.000
 11  8  8  1 52 30.0000000  0 11G23G20G31G04G10G25G02G13G32G29G12     .000151505
  21125977.62109  21125982.33546 111017750.59209  86507401.09346      2634.97609
        49.000          40.000
  22783251.81807  22783257.55943 119726821.43807  93293654.82743     -1549.29707
        43.000          30.000
  22514691.13808  22514697.08645 118315488.68008  92193943.24945      -181.98208
        46.000          36.000
  21507618.30308  21507625.11145 113023282.24308  88070170.11245       491.41108
        48.000          38.000
  22474159.11906  22474165.90343 118102469.91406  92027949.52643      4678.96006
        41.000          30.000
  23112227.54207  23112236.81044 121455560.38707  94640760.96544      -231.69907
        43.000          32.000
  22563597.95108  22563603.09244 118572489.12608  92394209.69444      3974.42408
        46.000          34.000
  22069169.85107  22069175.58544 115974208.57907  90369591.94044      4574.31107
        44.000          33.000
  24831387.84906  24831395.67441 130489739.25106 101680417.53541     -1965.05406
        39.000          20.000
  24209725.42805  24209732.55242 127222948.44705  99134825.51942      4708.46705
        38.000          24.000
  24826234.53405  24826242.90441 130462697.63505 101659310.23241     -1761.84605
        37.000          20.000
 11  8  8  1 53  0.0000000  0 11G23G20G31G04G10G25G02G13G32G29G12     .000119895
  21110993.46209  21110997.97046 110939007.06709  86446042.49246      2615.11709
        49.000          39.000
  22792131.43907  22792137.16443 119773481.99207  93330013.69143     -1560.72807
        44.000          30.000
  22515782.25508  22515787.80445 118321221.82808  92198410.64345      -199.74108
        47.000          36.000
  21504872.92108  21504879.83545 113008858.04708  88058930.47245       470.75708
        48.000          37.000
  22447488.17406  22447494.00043 117962310.97106  91918734.75743      4665.36606
        41.000          30.000
  23113605.30707  23113615.02044 121462803.06607  94646404.70244      -250.46407
        44.000          32.000
  22540955.43808  22540960.07444 118453500.94008  92301491.63544      3958.59908
        46.000          34.000
  22043099.18307  22043105.34944 115837210.10907  90262839.79044      4559.48707
        44.000          33.000
  24842620.12706  24842627.26441 130548760.79206 101726408.23641     -1968.99906
        39.000          19.000
  24182879.85405  24182887.46942 127081877.41905  99024900.09542      4696.77705
        38.000          25.000
  24836321.42405  24836329.44341 130515699.37505 101700610.24041     -1770.87405
        38.000          20.000
 11  8  8  1 53 30.0000000  0 11G23G20G31G04G10G25G02G13G32G29G12     .000088284
  21096121.35609  21096125.26046 110860852.73409  86385142.99646      2595.35109
        49.000          40.000
  22801074.28407  22801080.02043 119820475.73207  93366632.16043     -1571.92407
        43.000          30.000
  22516973.63108  22516978.95944 118327481.75808  92203288.53044      -217.31908
        48.000          35.000
  21502245.35208  21502251.86245 112995048.07908  88048169.42945       450.16108
        48.000          37.000
  22420892.79607  22420899.67143 117822558.27407  91809836.58543      4651.65507
        43.000          30.000
  23115088.19907  23115097.71043 121470594.42507  94652476.00843      -268.86207
        44.000          31.000
  22518401.28208  22518406.49444 118334981.16408  92209138.65744      3942.88608
        47.000          35.000
  22017112.52208  22017118.87344 115700647.74608  90156427.52144      4544.83408
        46.000          33.000
  24853872.52805  24853881.26541 130607897.60605 101772488.80741     -1973.00805
        38.000          20.000
  24156100.54705  24156108.63341 126941154.53905  98915245.89941      4684.96605
        38.000          23.000
  24846455.93105  24846463.69941 130568958.24605 101742110.59441     -1779.54105
        38.000          19.000
 11  8  8  1 54  0.0000000  0 11G23G20G31G04G10G25G02G13G32G29G12     .000056673
  21081361.57709  21081365.58346 110783291.06609  86324705.32646      2575.15609
        49.000          40.000
  22810079.80607  22810085.98943 119867802.52907  93403510.13143     -1583.40307
        43.000          29.000
  22518265.04508  22518270.48945 118334268.31208  92208576.72245      -235.32708
        47.000          36.000
  21499734.34108  21499741.33345 112981853.33308  88037887.82145       429.24308
        48.000          37.000
  22394377.81006  22394384.62143 117683216.49806  91701258.56643      4637.35406
        41.000          31.000
  23116675.40807  23116684.08643 121478934.35207  94658974.71443      -287.49007
        44.000          31.000
  22495937.95608  22495942.61844 118216933.55808  92117153.51144      3926.61608
        47.000          35.000
  21991209.38708  21991215.27244 115564526.13208  90050358.79244      4529.63908
        46.000          33.000
  24865148.65405  24865155.94541 130667149.48705 101818658.96841     -1977.35805
        38.000          20.000
  24129389.45605  24129397.32341 126800784.64105  98805866.79041      4672.76905
        38.000          22.000
  24856639.92206  24856647.71241 130622473.84106 101783810.95541     -1788.62806
        39.000          22.000
 11  8  8  1 54 30.0000000  0 11G23G20G31G04G10G25G02G13G32G29G12     .000025064
  21066715.81609  21066720.34746 110706326.78909  86264733.14646      2555.51309
        49.000          39.000
  22819150.27807  22819155.39943 119915463.86207  93440648.83543     -1594.11607
        43.000          29.000
  22519657.14208  22519662.39244 118341583.87608  92214277.17644      -252.61208
        47.000          35.000
  21497341.02208  21497347.84845 112969276.33608  88028087.55945       408.94008
        48.000          37.000
  22367941.14407  22367948.60744 117544291.98307  91593005.71544      4623.80407
        44.000          32.000
  23118367.07807  23118376.06043 121487824.25007  94665901.68743      -305.52207
        44.000          31.000
  22473565.30808  22473570.13844 118099364.55008  92025541.22344      3910.99108
        47.000          35.000
  21965391.14508  21965397.05444 115428851.55308  89944638.38844      4515.05908
        46.000          33.000
  24876445.88205  24876453.75641 130726518.38905 101864920.29141     -1980.83505
        38.000          20.000
  24102746.59706  24102754.16541 126660774.13506  98696767.76141      4661.04006
        39.000          22.000
  24866872.17806  24866880.75341 130676247.46006 101825712.50841     -1796.62606
        39.000          19.000
 11  8  8  1 55  0.0000000  0 11G23G20G31G04G10G25G02G13G32G29G12    -.000006542
  21052183.84309  21052188.01846 110629960.72509  86205227.13646      2535.34709
        49.000          40.000
  22828282.66407  22828288.47343 119963457.19207  93478046.18643     -1605.49307
        43.000          29.000
  22521149.49508  22521155.12944 118349426.29308  92220388.17744      -270.37608
        46.000          35.000
  21495065.31308  21495071.61345 112957316.07208  88018767.89845       388.19308
        48.000          37.000
  22341584.32407  22341591.19144 117405787.15207  91485079.89544      4609.54607
        42.000          32.000
  23120162.51107  23120172.31443 121497263.12307  94673256.71243      -324.04807
        42.000          31.000
  22451284.12608  22451289.02644 117982276.45508  91934303.79644      3894.70708
        48.000          34.000
  21939658.58008  21939664.59744 115293626.21108  89839268.02144      4499.81408
        46.000          33.000
  24887766.27906  24887773.62141 130786002.86606 101911271.70741     -1984.99006
        39.000          19.000
  24076173.33205  24076179.77542 126521125.89605  98587951.00242      4648.64305
        38.000          24.000
  24877153.50605  24877161.63641 130730275.85005 101867812.64741     -1805.42505
        38.000          20.000
 11  8  8  1 55 30.0000000  0 11G23G20G31G04G10G25G02G13G32G29G12    -.000038149
  21037764.50109  21037768.73846 110554186.85109  86146182.59346      2516.08409
        49.000          40.000
  22837476.60007  22837482.48343 120011773.17107  93515694.89943     -1615.76207
        43.000          30.000
  22522740.03108  22522746.42245 118357786.66608  92226902.78245      -287.10408
        47.000          36.000
  21492904.87608  21492911.39945 112945963.88808  88009922.05045       368.48608
        48.000          37.000
  22315307.30207  22315313.86843 117267697.19707  91377477.34643      4596.17207
        42.000          31.000
  23122061.91308  23122071.84243 121507241.18108  94681031.79243      -341.36708
        45.000          31.000
  22429093.74208  22429098.39144 117865664.08108  91843437.04344      3879.27708
        47.000          35.000
  21914010.62008  21914017.21744 115158845.23908  89734243.85044      4485.43008
        46.000          33.000
  24899105.01006  24899113.70441 130845593.30506 101957705.64841     -1987.97906
        39.000          20.000
  24049665.85506  24049673.48741 126381835.47306  98479412.92641      4637.21206
        39.000          22.000
  24887482.96106  24887489.51141 130784549.11306 101910103.53741     -1813.04206
        39.000          20.000
 11  8  8  1 56  0.0000000  0 11G23G20G31G04G10G25G02G13G32G29G12    -.000069749
  21023460.80909  21023464.74046 110479020.13009  86087611.13946      2495.53209
        49.000          40.000
  22846734.41507  22846741.15543 120060424.31307  93553604.89243     -1627.21207
        42.000          29.000
  22524432.01708  22524438.14745 118366677.36008  92233830.60445      -305.04908
        47.000          36.000
  21490863.17009  21490869.21945 112935232.88609  88001560.24245       347.48509
        49.000          37.000
  22289111.21406  22289118.49443 117130039.19306  91270211.39643      4581.49406
        41.000          31.000
  23124065.74308  23124075.39043 121517770.71608  94689236.53543      -360.06308
        45.000          30.000
  22406996.79308  22407001.12244 117749544.47508  91752954.22544      3862.51508
        47.000          34.000
  21888450.75108  21888456.84944 115024526.13608  89629579.59144      4469.68708
        45.000          33.000
  24910468.43405  24910475.66641 130905302.57305 102004232.12241     -1992.21705
        38.000          19.000
  24023232.35906  24023238.95042 126242920.14406  98371167.12342      4624.38006
        40.000          25.000
  24897859.22306  24897865.48641 130839078.50406 101952593.92841     -1821.74306
        40.000          21.000
