     2.10           OBSERVATION DATA    G (GPS)             RINEX VERSION / TYPE
teqc  2000Feb29     CORS/NGS/NOAA       20000715 00:45:53UTCPGM / RUN BY / DATE
HP-UX 10.20|PA-RISC|cc A.10.32.03|=+|=|                     COMMENT
BIT 2 OF LLI FLAGS DATA COLLECTED UNDER A/S CONDITION       COMMENT
ppt1                                                        MARKER NAME
xxx                                                         MARKER NUMBER
CORS/NGS/NOAA       U.S. Coast Guard                        OBSERVER / AGENCY
05402               ASHTECH   Z-XII3    RD00                REC # / TYPE / VERS
11092               ASH700829.3                             ANT # / TYPE
 -2725252.3748 -4295978.5284  3833958.9631                  APPROX POSITION XYZ 
        0.0000        0.0000        0.0000                  ANTENNA: DELTA H/E/N
     1     1                                                WAVELENGTH FACT L1/2
     7    C1    L1    L2    P1    P2    D1    D2            # / TYPES OF OBSERV
    30.0000                                                 INTERVAL
 SNR is mapped to RINEX snr flag value [1-9]                COMMENT
  L1: 1 -> 1;  90 -> 5; 210 -> 9                            COMMENT
  L2: 1 -> 1; 150 -> 5; 250 -> 9                            COMMENT
teqc windowed: delta = 86400.000 sec                        COMMENT
  2000     7    14     0     0   30.0000000     GPS         TIME OF FIRST OBS
                                                            END OF HEADER
 00  7 14  0  0 30.0000000  0  7G21G20G11G25G 1G15G29
  23269177.5274  -37106994.38747 -28281474.45645  23269175.4844   23269185.5944
     -1477.1984      -1151.0604
  22999357.4484  -18949666.95148 -14472833.72446  22999354.1914   22999361.5744
      3725.5964       2903.0564
  20931189.0854  -34319332.19749 -26408485.09847  20931186.7454   20931193.0444
       815.8134        635.6994
  20968031.8004  -29194927.44549 -22426656.42647  20968029.7484   20968035.7654
      1471.3064       1146.4724
  24493829.6064   -8807271.33547  -6559867.75945  24493827.6704   24493843.0464
      3656.0804       2848.8814
  22835026.4254  -33689044.69747 -25958512.09945  22835023.8004   22835034.1594
     -2683.1714      -2090.7774
  23347718.7594  -28889098.62148 -22166751.00846  23347716.5564   23347724.0784
     -1637.3194      -1275.8324
 00  7 14  0  1  0.0000000  0  7G21G20G11G25G 1G15G29
  23277678.4864  -37062322.34147 -28246665.20145  23277675.8164   23277685.7874
     -1490.4464      -1161.3784
  22978138.5624  -19061167.64948 -14559717.25646  22978136.2564   22978144.3274
      3718.2284       2897.3154
  20926630.3654  -34343285.70449 -26427150.17347  20926628.3374   20926634.9244
       791.5144        616.7644
  20959726.7434  -29238570.28949 -22460663.81247  20959724.9104   20959730.6204
      1448.6724       1128.8354
  24473016.0044   -8916648.38547  -6645096.27346  24473014.3754   24473028.5284
      3646.2084       2841.1864
  22850407.8884  -33608215.19847 -25895528.20245  22850405.3844   22850415.6254
     -2695.0064      -2100.0054
  23357112.8804  -28839733.62548 -22128284.85046  23357110.2584   23357117.6244
     -1643.1884      -1280.4054
 00  7 14  0  1 30.0000000  0  7G21G20G11G25G 1G15G29
  23286238.2784  -37017350.93847 -28211622.69945  23286235.2634   23286243.3734
     -1503.3754      -1171.4534
  22956944.7004  -19172543.19748 -14646503.26846  22956942.0264   22956950.0394
      3711.1024       2891.7644
  20922192.9304  -34366605.89349 -26445321.75447  20922190.7734   20922197.2414
       767.4704        598.0284
  20951532.9274  -29281630.38349 -22494217.10347  20951530.8334   20951536.5264
      1426.3434       1111.4364
  24452241.2544   -9025825.75847  -6730169.22446  24452238.5464   24452251.9884
      3636.6404       2833.7354
  22865837.8084  -33527127.75647 -25832343.30645  22865835.3014   22865846.2024
     -2706.4984      -2108.9594
  23366521.5544  -28790288.09048 -22089755.92846  23366519.2124   23366526.6774
     -1648.8414      -1284.8074
 00  7 14  0  2  0.0000000  0  7G21G20G11G25G 1G15G29
  23294823.7094  -36972233.75247 -28176466.59145  23294821.1984   23294828.7904
     -1507.5394      -1174.7014
  22935746.2604  -19283945.69548 -14733310.29446  22935743.6554   22935750.8594
      3712.6744       2892.9894
  20917847.0104  -34389446.30949 -26463119.49047  20917844.5404   20917850.7114
       752.1444        586.0874
  20943420.3554  -29324261.41849 -22527436.06447  20943418.5614   20943424.2184
      1412.7024       1100.8064
  24431474.7844   -9134956.47648  -6815205.81446  24431472.2184   24431485.4764
      3635.7274       2833.0244
  22881287.8134  -33445938.19047 -25769078.84145  22881285.2544   22881296.3914
     -2709.2014      -2111.0564
  23375917.0844  -28740916.07148 -22051284.30546  23375914.4864   23375922.1244
     -1645.6964      -1282.3574
 00  7 14  0  2 30.0000000  0  7G21G20G11G25G 1G15G29
  23303469.1344  -36926794.89447 -28141059.81845  23303466.5244   23303475.7504
     -1517.4154      -1182.3954
  22914575.4374  -19395196.91348 -14819999.44146  22914572.6954   22914580.2654
      3708.3884       2889.6474
  20913625.1604  -34411630.30049 -26480405.72547  20913622.9694   20913629.0514
       731.0054        569.6154
  20935423.5214  -29366285.96449 -22560182.43847  20935421.3844   20935427.0444
      1393.2494       1085.6494
  24410750.0584   -9243863.61248  -6900068.19346  24410747.7324   24410760.4094
      3629.0104       2827.7924
  22896789.5234  -33364472.48047 -25705599.21545  22896787.2214   22896799.3124
     -2717.5424      -2117.5604
  23385331.7244  -28691441.78648 -22012733.00146  23385329.7344   23385336.8294
     -1648.3214      -1284.4074
 00  7 14  0  3  0.0000000  0  7G21G20G11G25G 1G15G29
  23312166.4164  -36881092.42647 -28105447.65945  23312164.1104   23312173.2484
     -1527.9044      -1190.5674
  22893422.3614  -19506353.71448 -14906615.01646  22893419.9494   22893427.6044
      3703.5434       2885.8764
  20909517.8994  -34433216.15949 -26497225.87947  20909515.4654   20909521.5534
       709.4594        552.8244
  20927530.5274  -29407761.78349 -22592501.23147  20927528.6034   20927534.4074
      1373.3074       1070.1074
  24390055.8534   -9352605.07948  -6984801.47446  24390053.2714   24390067.5414
      3621.9214       2822.2654
  22912333.0764  -33282791.45147 -25641951.80845  22912330.9814   22912342.7924
     -2726.3264      -2124.4064
  23394755.3864  -28641924.39648 -21974148.10546  23394752.6984   23394760.0504
     -1651.4034      -1286.8044
 00  7 14  0  3 30.0000000  0  7G21G20G11G25G 1G15G29
  23320891.8434  -36835240.75447 -28069719.25445  23320889.6034   23320898.9054
     -1535.5014      -1196.4904
  22872266.6194  -19617528.81848 -14993244.86146  22872264.0104   22872271.4874
      3701.4484       2884.2424
  20905502.1554  -34454318.34849 -26513669.14547  20905499.7464   20905505.8504
       690.5944        538.1254
  20919720.8094  -29448803.12449 -22624481.47347  20919718.7804   20919724.4624
      1356.1454       1056.7354
  24369371.6904   -9461294.55147  -7069494.24146  24369369.7754   24369384.5044
      3617.4044       2818.7464
  22927895.6544  -33201011.88247 -25578227.61745  22927893.1594   22927904.8044
     -2732.2604      -2129.0324
  23404163.7384  -28592478.54048 -21935618.95046  23404161.4324   23404169.6274
     -1651.7264      -1287.0554
 00  7 14  0  4  0.0000000  0  7G21G20G11G25G 1G15G29
  23329687.8714  -36789016.35947 -28033700.39945  23329685.4784   23329696.0304
     -1547.5884      -1205.9074
  22851149.5244  -19728496.52748 -15079713.11246  22851147.3004   22851154.8014
      3694.8594       2879.1064
  20901621.1574  -34474712.72249 -26529560.87047  20901618.7454   20901625.0144
       667.4314        520.0764
  20912036.3754  -29489185.80149 -22655948.46647  20912034.3534   20912039.7454
      1334.5394       1039.9004
  24348742.0504   -9569707.25047  -7153971.37546  24348740.0564   24348753.2684
      3608.5864       2811.8774
  22943518.5614  -33118912.22047 -25514254.01945  22943516.4754   22943529.0354
     -2742.5354      -2137.0324
  23413601.1254  -28542880.76448 -21896971.41446  23413599.8054   23413607.7164
     -1656.3954      -1290.6974
 00  7 14  0  4 30.0000000  0  7G21G20G11G25G 1G15G29
  23338503.9464  -36742684.08647 -27997597.47045  23338501.9224   23338512.5584
     -1547.9684      -1206.1994
  22830023.0724  -19839520.83848 -15166225.45146  22830020.2704   22830027.7074
      3699.9564       2883.0784
  20897824.4324  -34494664.65949 -26545107.84147  20897822.0764   20897828.4344
       655.8654        511.0644
  20904426.2784  -29529174.62349 -22687108.56047  20904424.4764   20904430.3744
      1324.6514       1032.1954
  24328114.4404   -9678108.33247  -7238439.43446  24328111.7514   24328124.9934
      3611.4054       2814.0714
  22959152.2984  -33036760.22247 -25450239.63945  22959150.1664   22959162.0124
     -2741.0404      -2135.8664
  23423018.4014  -28493397.03348 -21858412.73246  23423016.2594   23423023.7354
     -1649.3454      -1285.2004
 00  7 14  0  5  0.0000000  0  7G21G20G11G25G 1G15G29
  23347381.0214  -36696037.33847 -27961249.54745  23347378.8164   23347388.9794
     -1559.4334      -1215.1324
  22808924.8894  -19950393.17248 -15252619.36746  22808921.7634   22808929.2004
      3693.9344       2878.3864
  20894151.4184  -34513967.36049 -26560148.90547  20894148.9414   20894155.4074
       633.3144        493.4924
  20896930.6104  -29568562.56549 -22717800.43647  20896928.6784   20896934.8814
      1303.6654       1015.8424
  24307527.4164   -9786290.20547  -7322736.69546  24307525.5394   24307538.4684
      3603.1744       2807.6594
  22974834.7444  -32954351.24547 -25386025.00945  22974832.0124   22974843.7664
     -2750.4984      -2143.2434
  23432452.8654  -28443821.12448 -21819782.23646  23432450.3904   23432457.9454
     -1653.3544      -1288.3264
 00  7 14  0  5 30.0000000  0  7G21G20G11G25G 1G15G29
  23356291.1454  -36649217.92447 -27924767.04945  23356288.4454   23356298.4764
     -1565.6374      -1219.9754
  22787828.1344  -20061253.58948 -15339004.00846  22787825.6364   22787832.7914
      3693.0314       2877.6854
  20890574.4844  -34532762.50349 -26574794.47347  20890572.1914   20890578.7034
       615.9224        479.9404
  20889522.8514  -29607490.87949 -22748134.15547  20889521.1144   20889526.7024
      1287.8504       1003.5184
  24286956.0554   -9894393.99147  -7406973.11646  24286953.4844   24286966.3354
      3600.0294       2805.2084
  22990538.4074  -32871829.73947 -25321722.69745  22990535.9224   22990546.8404
     -2754.6544      -2146.4784
  23441876.7024  -28394295.21648 -21781190.70046  23441874.9424   23441882.6364
     -1652.1234      -1287.3654
 00  7 14  0  6  0.0000000  0  7G21G20G11G25G 1G15G29
  23365256.3934  -36602106.04747 -27888056.66845  23365253.9924   23365263.3874
     -1575.2654      -1227.4694
  22766756.7174  -20171980.54648 -15425284.65946  22766754.3634   22766761.9964
      3688.6804       2874.2934
  20887116.9184  -34550930.24949 -26588951.16047  20887114.7444   20887121.5354
       595.1354        463.7404
  20882225.9774  -29645839.51649 -22778016.18247  20882223.9314   20882229.3614
      1268.6444        988.5514
  24266421.7094  -10002299.26147  -7491054.84646  24266419.2834   24266432.0794
      3593.5644       2800.1754
  23006286.3634  -32789078.09647 -25257241.05945  23006283.4604   23006294.0924
     -2762.1734      -2152.3364
  23451314.8764  -28344700.10148 -21742545.23646  23451312.5034   23451320.1204
     -1654.3334      -1289.0884
 00  7 14  0  6 30.0000000  0  7G21G20G11G25G 1G15G29
  23374270.6794  -36554734.30347 -27851143.78445  23374268.3404   23374277.8544
     -1587.9444      -1237.3514
  22745706.0474  -20282604.86748 -15511485.34246  22745703.4894   22745710.9474
      3681.2324       2868.4894
  20883773.4944  -34568503.15049 -26602644.33747  20883771.2424   20883777.4864
       571.3364        445.1974
  20875032.2324  -29683640.53749 -22807471.49247  20875030.3124   20875036.1334
      1246.4004        971.2204
  24245918.8564  -10110037.95447  -7575006.76545  24245916.8494   24245930.0734
      3583.9534       2792.6824
  23022070.5314  -32706131.12747 -25192607.20645  23022067.1364   23022078.2774
     -2772.6444      -2160.4984
  23460758.8584  -28295068.62348 -21703871.44846  23460757.2204   23460765.1064
     -1659.5154      -1293.1254
 00  7 14  0  7  0.0000000  0  7G21G20G11G25G 1G15G29
  23383340.2814  -36507078.70347 -27814009.72245  23383337.8564   23383346.8004
     -1594.3064      -1242.3094
  22724679.5554  -20393100.73648 -15597585.92746  22724676.6194   22724684.1184
      3679.9724       2867.5074
  20880547.2574  -34585457.41849 -26615855.46247  20880544.8604   20880551.2394
       553.7254        431.4744
  20867948.3834  -29720869.54949 -22836481.08647  20867946.2114   20867951.5424
      1230.3884        958.7424
  24225454.5674  -10217585.39447  -7658809.69446  24225452.3204   24225463.9954
      3580.6644       2790.1194
  23037895.6734  -32622967.49047 -25127804.53045  23037892.8094   23037903.2234
     -2776.7534      -2163.6984
  23470214.8714  -28245377.24248 -21665150.98946  23470212.9944   23470220.7854
     -1658.4164      -1292.2694
 00  7 14  0  7 30.0000000  0  7G21G20G11G25G 1G15G29
  23392452.1364  -36459193.78447 -27776696.97545  23392449.9384   23392460.2974
     -1599.9724      -1246.7254
  22703666.8634  -20503521.06948 -15683627.65146  22703664.1144   22703671.6794
      3679.4354       2867.0894
  20877427.9394  -34601847.48649 -26628626.95347  20877425.8354   20877432.1694
       536.9394        418.3944
  20860962.3954  -29757580.88249 -22865087.29247  20860960.4584   20860965.6434
      1215.1364        946.8594
  24205015.1004  -10324995.24048  -7742505.41046  24205012.6274   24205024.5794
      3578.0714       2788.0984
  23053751.0494  -32539643.89747 -25062877.21345  23053749.3644   23053760.4084
     -2780.0304      -2166.2514
  23479672.2424  -28195680.78948 -21626426.57546  23479669.6834   23479678.2934
     -1656.5864      -1290.8424
 00  7 14  0  8  0.0000000  0  7G21G20G11G25G 1G15G29
  23401607.1844  -36411080.21047 -27739206.06845  23401604.6324   23401615.6884
     -1606.1464      -1251.5374
  22682669.5334  -20613865.17148 -15769609.98446  22682666.9594   22682673.6724
      3678.2614       2866.1754
  20874416.3944  -34617674.50849 -26640959.70747  20874414.0744   20874420.3194
       519.5534        404.8474
  20854074.5804  -29793775.29549 -22893290.69847  20854072.5334   20854077.9704
      1199.2834        934.5054
  24184601.1104  -10432268.22648  -7826094.49646  24184598.4954   24184610.8204
      3574.8944       2785.6204
  23069637.1594  -32456163.89347 -24997828.01845  23069634.8504   23069645.9034
     -2783.8504      -2169.2294
  23489129.5974  -28145980.80448 -21587699.40946  23489127.9314   23489136.0904
     -1655.3314      -1289.8654
 00  7 14  0  8 30.0000000  0  7G21G20G11G25G 1G15G29
  23410808.7104  -36362730.54447 -27701531.18845  23410806.5464   23410816.1354
     -1618.0064      -1260.7874
  22661688.1144  -20724123.09748 -15855525.16546  22661685.5944   22661692.6164
      3671.3434       2860.7844
  20871513.2984  -34632930.80449 -26652847.74547  20871510.9154   20871517.0564
       496.5504        386.9234
  20847286.3744  -29829444.72849 -22921085.03247  20847284.5314   20847290.0724
      1177.8014        917.7654
  24164215.6084  -10539395.72548  -7909570.19146  24164213.0444   24164224.6734
      3566.0494       2778.7324
  23085553.4524  -32372521.82847 -24932652.54345  23085551.7414   23085562.8514
     -2793.1924      -2176.5044
  23498589.7084  -28096269.71848 -21548963.58546  23498587.6844   23498595.5474
     -1659.6704      -1293.2474
 00  7 14  0  9  0.0000000  0  7G21G20G11G25G 1G15G29
  23420061.2714  -36314105.45147 -27663641.71045  23420059.2244   23420068.9414
     -1620.8654      -1263.0034
  22640731.0154  -20834254.11148 -15941341.45346  22640728.3654   22640735.3384
      3673.4314       2862.4124
  20868725.8374  -34647577.34149 -26664260.64047  20868723.5544   20868729.6184
       482.5774        376.0344
  20840606.7494  -29864549.76149 -22948439.58147  20840604.5414   20840609.9154
      1165.3324        908.0504
  24143864.4134  -10646338.13448  -7992901.67446  24143862.4834   24143874.1744
      3566.1644       2778.8184
  23101509.2684  -32288681.17947 -24867322.33645  23101506.9754   23101517.5394
     -2793.4794      -2176.7294
  23508058.7084  -28046508.94648 -21510189.04946  23508056.6554   23508064.5014
     -1654.9984      -1289.6054
 00  7 14  0  9 30.0000000  0  7G21G20G11G25G 1G15G29
  23429359.1774  -36265248.96047 -27625571.89545  23429356.8144   23429366.9544
     -1632.0454      -1271.7224
  22619789.1074  -20944300.27848 -16027091.62146  22619786.6104   22619794.1274
      3667.1394       2857.5104
  20866046.0014  -34661657.89249 -26675232.50347  20866043.9334   20866050.4444
       460.2514        358.6384
  20834024.8794  -29899134.54849 -22975388.74447  20834022.9464   20834028.8254
      1144.5364        891.8464
  24123540.5084  -10753138.62648  -8076122.56346  24123537.8504   24123550.7644
      3558.0094       2772.4654
  23117493.5844  -32204687.95247 -24801873.23745  23117490.1394   23117500.9694
     -2801.9204      -2183.3084
  23517529.6724  -27996742.73548 -21471410.27146  23517527.3094   23517534.6474
     -1658.6294      -1292.4334
 00  7 14  0 10  0.0000000  0  7G21G20G11G25G 1G15G29
  23438696.5064  -36216174.32147 -27587332.06945  23438694.6034   23438706.3114
     -1638.2194      -1276.5304
  22598862.4814  -21054273.10548 -16112784.63846  22598859.6204   22598867.2224
      3665.7694       2856.4384
  20863471.8864  -34675186.04949 -26685773.93447  20863469.7564   20863476.3694
       442.9584        345.1624
  20827540.6794  -29933211.33849 -23001942.06747  20827538.7814   20827544.3574
      1128.6664        879.4794
  24103242.1264  -10859809.92448  -8159242.75846  24103239.4994   24103251.7374
      3554.7954       2769.9594
  23133501.7354  -32120557.59447 -24736317.28645  23133499.4854   23133510.5344
     -2805.3254      -2185.9634
  23526998.4434  -27946984.40648 -21432637.63646  23526996.0884   23527003.6164
     -1657.2504      -1291.3624
 00  7 14  0 10 30.0000000  0  7G21G20G11G25G 1G15G29
  23448099.0024  -36166772.20747 -27548837.11245  23448095.7674   23448106.7974
     -1649.6624      -1285.4484
  22577970.3294  -21164061.29248 -16198333.77846  22577967.3634   22577975.5494
      3659.0624       2851.2134
  20861023.8984  -34688052.92749 -26695800.08947  20861021.4564   20861027.6384
       420.4214        327.6014
  20821174.0964  -29966670.53249 -23028014.14547  20821171.9484   20821177.3154
      1107.6194        863.0804
  24082988.0274  -10966242.08848  -8242176.62846  24082985.3664   24082997.8954
      3546.3244       2763.3594
  23149557.9514  -32036183.12147 -24670571.12745  23149555.3504   23149566.1004
     -2813.9244      -2192.6674
  23536486.1684  -27897125.43548 -21393786.58246  23536483.6744   23536491.6744
     -1661.0834      -1294.3474
 00  7 14  0 11  0.0000000  0  7G21G20G11G25G 1G15G29
  23457526.5714  -36117225.96547 -27510229.85145  23457524.9804   23457534.9134
     -1658.9474      -1292.6834
  22557078.5894  -21273845.95248 -16283880.17046  22557076.2654   22557084.1754
      3654.3584       2847.5484
  20858666.0764  -34700441.54649 -26705453.57447  20858663.8634   20858670.1474
       399.9054        311.6154
  20814889.3194  -29999695.42349 -23053747.80947  20814887.2654   20814892.7554
      1088.5454        848.2164
  24062744.9834  -11072617.62448  -8325066.39646  24062742.4214   24062755.2944
      3539.8774       2758.3394
  23165625.7704  -31951749.94447 -24604779.21345  23165623.3624   23165633.1534
     -2820.4334      -2197.7314
  23545958.1264  -27847348.89648 -21354999.76046  23545955.6844   23545963.9314
     -1662.8984      -1295.7624
 00  7 14  0 11 30.0000000  0  7G21G20G11G25G 1G15G29
  23467000.0544  -36067448.01947 -27471442.04345  23466997.5054   23467007.6904
     -1664.1314      -1296.7244
  22536204.2234  -21383537.90148 -16369354.33946  22536202.1204   22536210.1054
      3653.8144       2847.1254
  20856416.8574  -34712264.26449 -26714666.09747  20856414.3194   20856420.7144
       383.6144        298.9214
  20808704.0014  -30032198.43149 -23079074.81047  20808702.1084   20808707.4684
      1073.7184        836.6634
  24042530.2444  -11178848.20248  -8407843.20246  24042527.6314   24042540.3134
      3537.5744       2756.5434
  23181720.4834  -31867172.94947 -24538875.22245  23181717.9324   23181728.2524
     -2822.6094      -2199.4264
  23555431.2664  -27797567.42848 -21316209.09546  23555429.0754   23555437.2444
     -1660.5074      -1293.8964
 00  7 14  0 12  0.0000000  0  7G21G20G11G25G 1G15G29
  23476537.0894  -36017330.61947 -27432389.71545  23476534.5594   23476545.3584
     -1671.7164      -1302.6244
  22515370.5914  -21493027.89848 -16454671.11746  22515367.5064   22515374.8264
      3650.7954       2844.7704
  20854294.2124  -34723414.40449 -26723354.53247  20854292.1444   20854298.9524
       364.9514        284.3774
  20802638.4204  -30064071.88449 -23103911.24347  20802636.7044   20802642.1834
      1056.4784        823.2284
  24022362.8864  -11284826.00348  -8490423.02046  24022360.3314   24022373.4994
      3532.9074       2752.9024
  23197861.5174  -31782347.06447 -24472777.28745  23197859.1244   23197870.1634
     -2827.1514      -2202.9724
  23564925.5644  -27747674.33648 -21277331.45546  23564923.5904   23564931.9154
     -1660.4934      -1293.8894
 00  7 14  0 12 30.0000000  0  7G21G20G11G25G 1G15G29
  23486116.9074  -35966988.87847 -27393162.59345  23486115.1504   23486124.7874
     -1682.8284      -1311.2904
  22494552.3324  -21602428.66948 -16539918.37346  22494549.4844   22494555.7454
      3644.0874       2839.5454
  20852279.2914  -34734006.63849 -26731608.24047  20852277.0664   20852283.0044
       342.6664        267.0134
  20796671.7414  -30095430.19349 -23128346.26847  20796669.5924   20796675.0084
      1035.5964        806.9574
  24002223.0534  -11390664.89248  -8572894.59046  24002220.4044   24002232.6944
      3524.5334       2746.3824
  23214028.6774  -31697389.30047 -24406576.59345  23214026.2374   23214037.4714
     -2835.1654      -2209.2104
  23574419.3914  -27697784.24648 -21238456.15846  23574417.1314   23574425.5814
     -1664.0624      -1296.6704
 00  7 14  0 13  0.0000000  0  7G21G20G11G25G 1G15G29
  23495725.6304  -35916499.62047 -27353820.50845  23495722.7424   23495732.1054
     -1687.3874      -1314.8394
  22473736.1874  -21711814.24148 -16625153.79146  22473733.2974   22473739.7774
      3643.9074       2839.4064
  20850355.1704  -34744117.47249 -26739486.82947  20850352.9434   20850358.7214
       326.9904        254.7984
  20790787.8234  -30126349.42949 -23152439.15847  20790785.8574   20790791.2114
      1021.3664        795.8704
  23982093.7694  -11496440.36448  -8655316.77146  23982091.3184   23982103.3264
      3522.8294       2745.0544
  23230205.6074  -31612378.14547 -24340334.29845  23230203.2744   23230214.4884
     -2836.5144      -2210.2634
  23583897.3454  -27647973.72048 -21199642.84746  23583895.6254   23583904.6024
     -1660.9584      -1294.2554
 00  7 14  0 13 30.0000000  0  7G21G20G11G25G 1G15G29
  23505388.4634  -35865717.51747 -27314250.21945  23505386.3284   23505396.0204
     -1703.6044      -1327.4814
  22452951.3364  -21821038.57848 -16710263.57446  22452948.7594   22452955.0384
      3632.1564       2830.2504
  20848550.3794  -34753602.65649 -26746877.90147  20848548.0244   20848553.8264
       299.7594        233.5804
  20785015.1974  -30156685.09649 -23176077.32047  20785013.3284   20785018.6224
       995.5114        775.7224
  23962004.4114  -11602007.48648  -8737576.58946  23962002.3754   23962014.8524
      3509.4714       2734.6444
  23246418.5824  -31527171.38047 -24273939.58745  23246416.8864   23246429.1244
     -2849.4194      -2220.3214
  23593389.3134  -27598098.57548 -21160779.17646  23593386.9974   23593395.1814
     -1669.5494      -1300.9534
 00  7 14  0 14  0.0000000  0  7G21G20G11G25G 1G15G29
  23515103.9654  -35814659.29847 -27274464.74345  23515102.1884   23515112.1984
     -1703.4134      -1327.3314
  22432194.2154  -21930116.17948 -16795259.00946  22432191.6394   22432198.6804
      3636.5684       2833.6844
  20846861.0304  -34762479.51449 -26753794.95247  20846858.7274   20846864.3884
       288.8304        225.0634
  20779350.6424  -30186453.71949 -23199273.62547  20779348.3664   20779353.8584
       985.9464        768.2694
  23941951.4994  -11707382.41448  -8819686.65346  23941949.2444   23941961.5384
      3512.3904       2736.9184
  23262666.8484  -31441788.07147 -24207407.32545  23262664.8174   23262677.2964
     -2845.9184      -2217.5894
  23602889.3094  -27548175.81248 -21121878.39846  23602887.4084   23602895.6284
     -1661.8164      -1294.9184
 00  7 14  0 14 30.0000000  0  7G21G20G11G25G 1G15G29
  23524859.7924  -35763393.71647 -27234517.69845  23524858.7594   23524868.6474
     -1711.0114      -1333.2604
  22411452.6424  -22039113.74148 -16880192.07846  22411450.2884   22411457.1924
      3633.1894       2831.0564
  20845274.4604  -34770816.46249 -26760291.29347  20845272.2284   20845278.2244
       270.1554        210.5104
  20773780.4984  -30215723.73549 -23222081.40647  20773778.4014   20773783.8514
       968.6494        754.7914
  23921923.4244  -11812632.73448  -8901699.62146  23921921.1734   23921932.9314
      3507.5524       2733.1494
  23278935.0464  -31356298.75747 -24140792.45145  23278932.6064   23278945.2534
     -2850.0854      -2220.8394
  23612385.2604  -27498273.98048 -21082993.92346  23612383.3784   23612391.5514
     -1661.7554      -1294.8734
 00  7 14  0 15  0.0000000  0  7G21G20G11G25G 1G15G29
  23534650.7704  -35711948.23547 -27194430.49845  23534648.0704   23534658.3974
     -1718.8674      -1339.3684
  22390720.5994  -22148057.01948 -16965082.86146  22390718.3884   22390725.6164
      3629.4144       2828.1124
  20843785.6664  -34778641.80949 -26766388.99147  20843783.2584   20843789.1894
       251.2264        195.7614
  20768300.4754  -30244522.58949 -23244522.05147  20768298.1094   20768303.5704
       951.0304        741.0624
  23901913.2904  -11917785.59548  -8983636.66146  23901911.1484   23901922.5834
      3502.3904       2729.1254
  23295218.2554  -31270733.53847 -24074118.44845  23295215.6424   23295227.5324
     -2854.4884      -2224.2744
  23621873.3774  -27448421.08747 -21044147.58746  23621870.6644   23621878.2114
     -1662.0424      -1295.0984
 00  7 14  0 15 30.0000000  0  7G21G20G11G25G 1G15G29
  23544479.0384  -35660302.18547 -27154187.00745  23544476.7874   23544486.3384
     -1725.5934      -1344.6144
  22370004.9934  -22256922.26448 -17049912.82846  22370001.9824   22370009.2654
      3626.8144       2826.0854
  20842397.9244  -34785934.35849 -26772071.51747  20842395.5954   20842401.4274
       233.5094        181.9554
  20762913.2674  -30272828.73049 -23266578.75847  20762911.4964   20762917.1954
       934.6484        728.2974
  23881926.1714  -12022818.92748  -9065480.55446  23881923.9064   23881935.3584
      3498.4584       2726.0624
  23311519.0974  -31185073.28047 -24007370.38645  23311516.8074   23311528.5954
     -2857.6314      -2226.7194
  23631353.7654  -27398595.84447 -21005322.80846  23631351.3904   23631359.7234
     -1661.0914      -1294.3504
 00  7 14  0 16  0.0000000  0  7G21G20G11G25G 1G15G29
  23554372.4344  -35608308.83147 -27113672.87145  23554370.5224   23554380.8644
     -1737.6844      -1354.0424
  22349331.1694  -22365561.15048 -17134566.42346  22349328.8174   22349336.0734
      3618.6974       2819.7614
  20841139.1734  -34792547.88249 -26777224.93447  20841136.9674   20841142.9964
       210.3174        163.8844
  20757648.9454  -30300495.65249 -23288137.37547  20757647.0104   20757652.3864
       912.8054        711.2764
  23861989.1844  -12127585.61748  -9147116.69746  23861987.0024   23861998.0774
      3488.9804       2718.6754
  23327866.0834  -31099173.65347 -23940435.79945  23327863.8404   23327874.9314
     -2866.0814      -2233.3044
  23640858.0264  -27348651.81748 -20966405.46446  23640855.7454   23640864.1524
     -1665.5824      -1297.8504
 00  7 14  0 16 30.0000000  0  7G21G20G11G25G 1G15G29
  23564313.2184  -35556066.94047 -27072965.06345  23564311.9044   23564321.7864
     -1744.8964      -1359.6594
  22328682.7004  -22474070.64848 -17219119.19546  22328680.0464   22328687.0104
      3615.4384       2817.2224
  20839991.2944  -34798581.79749 -26781926.71347  20839989.0114   20839994.8864
       192.0934        149.6844
  20752486.7014  -30327622.78849 -23309275.37847  20752484.6774   20752490.0564
       895.8694        698.0794
  23842085.2224  -12232184.02648  -9228621.69746  23842082.4804   23842093.6084
      3484.4564       2715.1524
  23344239.6754  -31013135.99247 -23873393.63745  23344237.0934   23344247.2044
     -2869.5554      -2236.0074
  23650365.9554  -27298688.15947 -20927472.81946  23650363.5084   23650371.4394
     -1665.1324      -1297.5044
 00  7 14  0 17  0.0000000  0  7G21G20G11G25G 1G15G29
  23574289.6464  -35503652.25647 -27032122.61345  23574287.0204   23574297.2244
     -1748.0624      -1362.1194
  22308044.8164  -22582524.26348 -17303628.41646  22308042.1394   22308049.3794
      3616.0954       2817.7354
  20838939.0484  -34804112.04249 -26786236.02647  20838936.8284   20838942.3574
       177.8394        138.5764
  20747413.0984  -30354285.17649 -23330051.24447  20747410.8064   20747416.3284
       882.9394        688.0054
  23822197.9374  -12336689.22748  -9310054.08146  23822195.5124   23822206.6224
      3483.8794       2714.7004
  23360624.2944  -30927037.95147 -23806304.43745  23360620.7704   23360631.6264
     -2868.9754      -2235.5594
  23659863.3234  -27248780.83548 -20888584.06646  23659860.8084   23659869.2094
     -1660.6914      -1294.0454
 00  7 14  0 17 29.9990000  0  7G21G20G11G25G 1G15G29
  23584301.8284  -35451026.01047 -26991115.31445  23584300.9524   23584311.6104
     -1760.7674      -1372.0174
  22287426.3254  -22690875.65648 -17388057.99946  22287423.5414   22287430.3154
      3607.2084       2810.8094
  20837989.5174  -34809098.33049 -26790121.46647  20837987.4554   20837993.5454
       154.1624        120.1284
  20742435.4744  -30380441.11749 -23350432.47947  20742433.5074   20742438.9714
       860.5354        670.5464
  23802337.5524  -12441056.22448  -9391378.76746  23802334.8574   23802346.1514
      3473.8254       2706.8674
  23377025.8014  -30840843.76747 -23739140.32245  23377022.4934   23377033.7564
     -2877.8024      -2242.4344
  23669357.0424  -27198890.84748 -20849708.81646  23669354.7474   23669362.4674
     -1665.7404      -1297.9764
 00  7 14  0 17 59.9990000  0  7G21G20G11G25G 1G15G29
  23594382.9374  -35398057.03047 -26949840.94745  23594379.5604   23594391.2554
     -1770.4234      -1379.5524
  22266850.7834  -22799001.86048 -17472312.11446  22266847.9524   22266854.2994
      3601.2184       2806.1424
  20837169.3564  -34813413.02949 -26793483.59747  20837166.9734   20837172.6064
       133.4544        103.9924
  20737578.6454  -30405964.58049 -23370320.87447  20737576.7174   20737582.1364
       841.0544        655.3664
  23782525.9684  -12545163.28948  -9472500.93346  23782523.4664   23782535.5204
      3466.6754       2701.3034
  23393471.3614  -30754422.13747 -23671798.99045  23393468.6924   23393479.9354
     -2883.5644      -2246.9214
  23678871.8424  -27148886.85248 -20810744.73746  23678869.8264   23678877.9604
     -1667.7984      -1299.5794
 00  7 14  0 18 29.9990000  0  7G21G20G11G25G 1G15G29
  23604484.0124  -35344977.19447 -26908480.20445  23604481.9674   23604491.9564
     -1768.4804      -1378.0394
  22246274.9834  -22907127.81548 -17556566.03046  22246272.2784   22246278.5404
      3606.8484       2810.5294
  20836432.0314  -34817287.39249 -26796502.60847  20836429.6364   20836435.3404
       124.4824         97.0004
  20732798.4484  -30431085.17849 -23389895.34447  20732796.3984   20732801.7654
       833.3564        649.3694
  23762721.0424  -12649236.83448  -9553596.96846  23762718.8794   23762731.3014
      3471.2624       2704.8724
  23409916.1134  -30668008.83847 -23604464.14145  23409912.8404   23409924.4544
     -2877.5904      -2242.2734
  23688365.0664  -27099001.24848 -20771872.91446  23688362.7204   23688370.8164
     -1658.2364      -1292.1274
 00  7 14  0 18 59.9990000  0  7G21G20G11G25G 1G15G29
  23614634.7894  -35291639.79147 -26866918.72945  23614632.1074   23614642.5104
     -1784.0174      -1390.1384
  22225727.6044  -23015104.96548 -17640703.98946  22225724.6064   22225730.9744
      3594.9484       2801.2574
  20835806.2064  -34820575.25149 -26799064.59947  20835803.8784   20835809.6344
        97.9944         76.3594
  20728122.6254  -30455656.41049 -23409041.74047  20728120.4414   20728125.9824
       808.1084        629.6944
  23742951.2374  -12753129.34648  -9634551.95746  23742948.8834   23742961.2604
      3458.2454       2694.7304
  23426385.1764  -30581459.27147 -23537023.12645  23426381.9974   23426394.8554
     -2889.0734      -2251.2174
  23697863.2834  -27049087.55548 -20732979.21946  23697860.9884   23697869.1114
     -1666.0684      -1298.2324
 00  7 14  0 19 29.9990000  0  7G21G20G11G25G 1G15G29
  23624837.1474  -35238015.38347 -26825133.64945  23624834.8464   23624846.2004
     -1789.1444      -1394.1344
  22205214.3674  -23122901.64848 -17724701.33846  22205211.5384   22205217.6764
      3593.2464       2799.9294
  20835297.7284  -34823247.40849 -26801146.82747  20835295.3644   20835301.4224
        81.8724         63.7974
  20723557.1644  -30479648.71449 -23427737.02447  20723555.1924   20723560.3814
       793.1744        618.0574
  23723221.5734  -12856810.99248  -9715342.65846  23723219.0734   23723230.1394
      3455.6314       2692.6984
  23442886.6044  -30494746.11147 -23469454.63045  23442884.0304   23442895.1894
     -2890.0284      -2251.9634
  23707372.4224  -26999116.39348 -20694040.74846  23707370.4034   23707378.6704
     -1663.6064      -1296.3134
 00  7 14  0 19 59.9990000  0  7G21G20G11G25G 1G15G29
  23635069.9114  -35184250.74147 -26783239.29545  23635066.7434   23635077.4724
     -1796.0574      -1399.5314
  22184707.7664  -23230661.57648 -17808670.04646  22184705.1364   22184711.9234
      3589.7814       2797.2314
  20834878.4584  -34825450.63249 -26802863.64847  20834876.1504   20834882.2844
        64.0584         49.9164
  20719073.8574  -30503208.29349 -23446095.11847  20719071.7124   20719076.8454
       776.5444        605.0984
  23703503.6774  -12960427.13448  -9796082.31246  23703501.1434   23703512.7884
      3451.2244       2689.2594
  23459390.3384  -30408017.61847 -23401874.19045  23459388.2444   23459399.8924
     -2892.7354      -2254.0694
  23716864.5524  -26949233.76948 -20655171.27746  23716863.0794   23716871.1174
     -1662.8354      -1295.7154
 00  7 14  0 20 29.9990000  0  7G21G20G11G25G 1G15G29
  23645355.3144  -35130198.53647 -26741120.85645  23645352.6054   23645364.0844
     -1807.6474      -1408.5544
  22164237.0744  -23338235.29748 -17892493.65746  22164234.5164   22164241.2404
      3581.5664       2790.8304
  20834576.2774  -34827037.88049 -26804100.49047  20834574.0414   20834580.0184
        41.5124         32.3484
  20714701.0674  -30526187.43449 -23464000.92747  20714698.9564   20714704.2724
       755.2134        588.4784
  23683826.9234  -13063829.62448  -9876655.46746  23683824.3194   23683835.1984
      3442.1014       2682.1524
  23475924.9554  -30321128.44747 -23334168.55745  23475922.5074   23475934.3174
     -2900.0744      -2259.7914
  23726367.8864  -26899292.25247 -20616255.90045  23726366.3324   23726374.7364
     -1666.8174      -1298.8234
 00  7 14  0 20 59.9990000  0  7G21G20G11G25G 1G15G29
  23655700.3334  -35075834.50247 -26698759.42545  23655698.2044   23655708.9814
     -1815.0534      -1414.3144
  22143807.3314  -23445597.32948 -17976152.31246  22143804.4414   22143811.1734
      3577.4504       2787.6204
  20834396.1334  -34827986.09449 -26804839.38047  20834393.6744   20834399.8414
        23.2044         18.0824
  20710443.3644  -30548563.49049 -23481436.79747  20710441.2334   20710446.6754
       738.0584        575.1104
  23664194.4704  -13166994.48248  -9957043.47346  23664192.5124   23664203.9054
      3437.1474       2678.2904
  23492492.7344  -30234057.38447 -23266321.18345  23492490.7994   23492504.3344
     -2903.0824      -2262.1374
  23735889.1864  -26849268.51247 -20577276.45145  23735885.7764   23735894.1064
     -1666.5804      -1298.6314
 00  7 14  0 21 29.9990000  0  7G21G20G11G25G 1G15G29
  23666082.7264  -35021272.83047 -26656244.01445  23666080.0784   23666091.9824
     -1825.5794      -1422.5304
  22123396.0974  -23552858.97748 -18059732.74846  22123393.1434   22123400.0054
      3570.0514       2781.8554
  20834315.1864  -34828409.62249 -26805169.42647  20834312.8634   20834319.2914
         1.7304          1.3494
  20706277.7554  -30570450.16749 -23498491.33547  20706275.8024   20706281.3034
       717.8034        559.3274
  23644587.0104  -13270034.80448 -10037334.43246  23644584.5564   23644595.4514
      3428.9614       2671.9104
  23509075.3474  -30146920.58847 -23198422.60845  23509072.7484   23509086.1214
     -2909.2724      -2266.9604
  23745401.1824  -26799276.37647 -20538321.64245  23745398.8694   23745407.1174
     -1669.4974      -1300.9024
 00  7 14  0 21 59.9990000  0  7G21G20G11G25G 1G15G29
  23676504.5754  -34966507.72047 -26613570.04545  23676503.2054   23676513.9614
     -1831.5294      -1427.1604
  22103004.7214  -23660012.43148 -18143228.86846  22103002.0864   22103009.1574
      3567.2984       2779.7094
  20834335.6444  -34828303.44149 -26805086.71647  20834333.2484   20834339.4284
       -15.0414        -11.7204
  20702207.3574  -30591841.08249 -23515159.55947  20702205.4034   20702210.7964
       702.1244        547.1104
  23625003.9444  -13372943.87548 -10117523.11746  23625001.4274   23625011.9834
      3425.4514       2669.1764
  23525670.9464  -30059714.19047 -23130469.77645  23525668.1974   23525681.1604
     -2910.6564      -2268.0414
  23754909.9364  -26749310.01347 -20499386.90645  23754907.4514   23754916.1574
     -1667.7774      -1299.5654
 00  7 14  0 22 29.9990000  0  7G21G20G11G25G 1G15G29
  23686978.2984  -34911477.50247 -26570689.50145  23686975.4384   23686985.6654
     -1836.3294      -1430.9094
  22082647.1604  -23766993.26748 -18226590.48846  22082644.6024   22082651.4174
      3565.5194       2778.3264
  20834468.3974  -34827606.04949 -26804543.32247  20834466.0104   20834472.1454
       -30.7324        -23.9464
  20698242.8904  -30612674.72249 -23531393.54847  20698240.9344   20698246.4744
       687.5624        535.7634
  23605457.6204  -13475658.86248 -10197560.58646  23605454.9104   23605466.1774
      3422.9844       2667.2534
  23542290.9834  -29972378.15147 -23062415.93345  23542287.6484   23542300.2024
     -2910.8924      -2268.2254
  23764425.4664  -26699307.09247 -20460423.67845  23764422.8284   23764431.1734
     -1664.9934      -1297.3944
 00  7 14  0 22 59.9990000  0  7G21G20G11G25G 1G15G29
  23697485.1164  -34856258.38747 -26527661.74445  23697482.7524   23697493.9214
     -1842.6744      -1435.8454
  22062308.0374  -23873875.62348 -18309875.37546  22062305.4984   22062312.0704
      3562.1984       2775.7384
  20834699.2424  -34826394.07949 -26803598.96047  20834696.7774   20834703.2534
       -47.8514        -37.2864
  20694370.0894  -30633027.36149 -23547252.73447  20694368.0894   20694373.6234
       671.5914        523.3174
  23585933.6714  -13578255.37948 -10277505.73246  23585931.2784   23585942.6864
      3419.0324       2664.1744
  23558919.9094  -29884990.69247 -22994322.03045  23558917.0244   23558930.0854
     -2912.6084      -2269.5624
  23773933.0564  -26649344.00747 -20421491.51745  23773930.5924   23773938.9904
     -1663.6414      -1296.3404
 00  7 14  0 23 29.9990000  0  7G21G20G11G25G 1G15G29
  23708028.0554  -34800852.28547 -26484488.31945  23708025.7964   23708036.4674
     -1852.8474      -1443.7704
  22041988.1624  -23980659.06448 -18393083.19446  22041985.5144   22041991.5044
      3554.8644       2770.0204
  20835027.1194  -34824670.10049 -26802255.62947  20835024.7844   20835031.3974
       -68.9044        -53.6914
  20690588.2594  -30652901.39549 -23562738.97647  20690586.0824   20690591.7374
       651.5874        507.7294
  23566433.2704  -13680734.96948 -10357359.75946  23566430.4944   23566441.6754
      3411.1124       2658.0034
  23575558.6734  -29797556.09047 -22926191.39345  23575555.5624   23575567.8994
     -2918.1954      -2273.9114
  23783432.2504  -26599422.69847 -20382591.91145  23783430.1184   23783439.5224
     -1666.2554      -1298.3774
 00  7 14  0 23 59.9990000  0  7G21G20G11G25G 1G15G29
  23718618.4014  -34745196.53047 -26441120.32845  23718615.3314   23718627.5764
     -1861.5784      -1450.5684
  22021699.0264  -24087278.51848 -18476163.22746  22021696.3354   22021702.7404
      3548.9244       2765.3924
  20835464.2034  -34822372.05849 -26800464.97747  20835461.9044   20835468.3904
       -88.4904        -68.9524
  20686909.0334  -30672233.82749 -23577803.19547  20686907.0414   20686912.5114
       633.1034        493.3264
  23546966.3994  -13783033.95648 -10437073.04846  23546963.6764   23546973.8744
      3404.6884       2652.9964
  23592216.8574  -29710013.49147 -22857976.60045  23592214.4414   23592226.8204
     -2922.1374      -2276.9734
  23792936.0174  -26549480.08647 -20343675.69845  23792933.8774   23792943.0414
     -1667.4044      -1299.2774
 00  7 14  0 24 29.9990000  0  7G21G20G11G25G 1G15G29
  23729253.6544  -34689305.27447 -26397568.83645  23729252.5934   23729265.0184
     -1863.4494      -1452.0434
  22001438.9954  -24193745.79348 -18559124.67546  22001436.3124   22001442.2374
      3549.7814       2766.0604
  20836007.8864  -34819514.46149 -26798238.30347  20836005.5804   20836012.3354
      -101.1574        -78.8214
  20683330.9774  -30691038.45849 -23592456.13947  20683328.8694   20683333.9774
       621.4874        484.2764
  23527530.2954  -13885165.57048 -10516655.92246  23527528.0854   23527538.2794
      3405.0424       2653.2714
  23608893.6324  -29622379.27147 -22789690.42445  23608890.9544   23608902.6944
     -2919.2154      -2274.7074
  23802440.3464  -26499530.23847 -20304753.86145  23802439.1274   23802447.9094
     -1661.6754      -1294.8104
 00  7 14  0 24 59.9990000  0  7G21G20G11G25G 1G15G29
  23739937.4804  -34633165.26047 -26353823.42745  23739935.2074   23739947.7484
     -1874.6204      -1460.7374
  21981210.9324  -24300045.43948 -18641955.50246  21981208.0484   21981214.3014
      3541.3944       2759.5254
  20836660.9624  -34816084.89749 -26795565.94847  20836658.6854   20836665.4424
      -122.9474        -95.8024
  20679855.2794  -30709302.84049 -23606688.10747  20679853.2914   20679858.5744
       600.7154        468.0894
  23508129.7544  -13987116.08248 -10596097.70746  23508127.6884   23508137.2794
      3396.2204       2646.4004
  23625589.9944  -29534642.39047 -22721324.25545  23625587.2894   23625599.2534
     -2925.3634      -2279.4974
  23811949.9674  -26449560.02347 -20265816.12545  23811947.9444   23811957.0174
     -1665.1064      -1297.4854
 00  7 14  0 25 29.9990000  0  7G21G20G11G25G 1G15G29
  23750647.1204  -34576897.07547 -26309978.18445  23750644.2034   23750654.7914
     -1879.9414      -1464.8854
  21960992.2464  -24406295.26048 -18724747.49746  21960989.3864   21960995.7024
      3538.5304       2757.2954
  20837399.5724  -34812204.14549 -26792542.02147  20837397.0884   20837403.8664
      -139.1894       -108.4584
  20676459.6474  -30727146.98849 -23620592.62147  20676457.5234   20676463.0564
       585.5344        456.2604
  23488740.9964  -14089004.89748 -10675491.41446  23488738.2864   23488749.4744
      3392.9994       2643.8914
  23642281.5304  -29446924.95147 -22652973.22045  23642279.1924   23642291.1224
     -2925.8044      -2279.8454
  23821440.4724  -26399689.34447 -20226955.96345  23821438.9414   23821446.7314
     -1663.0074      -1295.8444
 00  7 14  0 25 59.9990000  0  7G21G20G11G25G 1G15G29
  23761409.6334  -34520339.14847 -26265907.16845  23761407.4084   23761417.7154
     -1891.6784      -1474.0394
  21940813.6914  -24512331.98048 -18807373.44746  21940811.1704   21940817.3784
      3529.3294       2750.1244
  20838254.0274  -34807711.76749 -26789041.50647  20838251.8064   20838258.4594
      -161.6014       -125.9214
  20673174.0054  -30744410.00249 -23634044.30747  20673172.2724   20673177.7814
       564.1204        439.5734
  23469394.5684  -14190670.31848 -10754711.02446  23469392.1144   23469403.3234
      3383.4764       2636.4694
  23659000.6554  -29359068.14747 -22584513.59945  23658998.0274   23659010.4184
     -2932.5084      -2285.0664
  23830942.1594  -26349757.14247 -20188047.87745  23830940.3794   23830948.7524
     -1667.1024      -1299.0364
 00  7 14  0 26 29.9990000  0  7G21G20G11G25G 1G15G29
  23772207.5794  -34463591.15047 -26221688.03745  23772205.4904   23772215.7814
     -1897.1224      -1478.2674
  21920657.9064  -24618252.59348 -18889908.92146  21920655.0864   21920661.8094
      3526.3994       2747.8414
  20839205.9684  -34802708.03849 -26785142.52347  20839203.7674   20839210.6234
      -177.6684       -138.4404
  20669980.6264  -30761191.62949 -23647120.88947  20669978.7174   20669984.2724
       549.0394        427.8254
  23450071.2404  -14292211.06848 -10833833.50446  23450068.7954   23450080.4904
      3380.2664       2633.9674
  23675726.5794  -29271173.19547 -22516024.25145  23675723.4294   23675735.9514
     -2932.7434      -2285.2494
  23840437.1954  -26299862.61947 -20149169.15645  23840435.2354   23840443.2884
     -1664.8334      -1297.2684
 00  7 14  0 26 59.9990000  0  7G21G20G11G25G 1G15G29
  23783044.7884  -34406641.18847 -26177311.57845  23783041.9364   23783053.8404
     -1903.0174      -1482.8614
  21900526.5664  -24724042.94848 -18972342.88646  21900523.4874   21900530.8004
      3522.8264       2745.0564
  20840257.7004  -34797181.65749 -26780836.28347  20840255.5364   20840262.2224
      -194.2824       -151.3884
  20666881.8404  -30777480.35649 -23659813.39147  20666879.5994   20666884.9494
       533.4214        415.6514
  23430775.0824  -14393614.51448 -10912849.00846  23430772.3944   23430783.5624
      3376.4904       2631.0254
  23692461.8254  -29183230.17347 -22447497.45145  23692458.7054   23692471.5994
     -2933.4864      -2285.8264
  23849927.3294  -26249993.68147 -20110310.37045  23849925.3274   23849933.7614
     -1663.2144      -1296.0074
 00  7 14  0 27 29.9990000  0  7G21G20G11G25G 1G15G29
  23793952.0174  -34349329.91947 -26132653.55345  23793948.6574   23793958.8634
     -1912.4434      -1490.2234
  21880450.3294  -24829540.88148 -19054549.00346  21880447.7854   21880454.6784
      3515.6164       2739.4394
  20841439.0314  -34790973.88549 -26775999.09647  20841436.8614   20841443.5544
      -214.3744       -167.0444
  20663906.2834  -30793116.84249 -23671997.65247  20663904.1134   20663909.4654
       514.2654        400.7274
  23411536.1754  -14494720.35348 -10991632.62346  23411533.4744   23411543.6744
      3369.1864       2625.3354
  23709235.1704  -29095081.66047 -22378810.55045  23709232.2294   23709246.0404
     -2937.7924      -2289.1904
  23859443.3534  -26199990.59547 -20071347.04945  23859440.5284   23859448.6794
     -1665.1084      -1297.4844
 00  7 14  0 27 59.9990000  0  7G21G20G11G25G 1G15G29
  23804873.7324  -34291923.87647 -26087921.69245  23804871.0864   23804884.1534
     -1920.2164      -1496.2624
  21860380.1874  -24935010.29548 -19136732.89146  21860377.5114   21860384.4744
      3510.0294       2735.0874
  20842699.4744  -34784351.55449 -26770838.87647  20842697.2124   20842703.4254
      -232.8104       -181.4094
  20661004.0684  -30808366.91049 -23683880.81047  20661001.9794   20661007.3894
       496.7674        387.0904
  23392301.4604  -14595793.96348 -11070391.10546  23392299.1344   23392309.9144
      3363.4754       2620.8854
  23725996.9754  -29006995.64347 -22310172.35045  23725994.0604   23726007.6634
     -2940.2464      -2291.0934
  23868932.9604  -26150119.22347 -20032486.34545  23868930.6344   23868939.6564
     -1665.2614      -1297.6034
 00  7 14  0 28 29.9990000  0  7G21G20G11G25G 1G15G29
  23815841.0214  -34234294.93747 -26043016.15545  23815838.2454   23815851.0374
     -1924.8484      -1499.8654
  21840340.8754  -25040320.71148 -19218792.88546  21840338.1294   21840344.3494
      3507.6524       2733.2344
  20844062.9874  -34777187.43349 -26765256.48347  20844060.7694   20844066.9464
      -247.8744       -193.1484
  20658199.3004  -30823103.31849 -23695363.71547  20658197.7364   20658203.0104
       482.6274        376.0744
  23373097.5184  -14696706.73048 -11149024.24446  23373095.2584   23373106.3554
      3361.0544       2618.9974
  23742772.3474  -28918846.36247 -22241484.83545  23742770.2774   23742782.1524
     -2939.3384      -2290.3874
  23878422.9244  -26100251.56947 -19993628.53045  23878420.8784   23878428.9234
     -1662.2514      -1295.2564
 00  7 14  0 28 59.9990000  0  7G21G20G11G25G 1G15G29
  23826846.1004  -34176467.68947 -25997956.12745  23826845.1194   23826855.6734
     -1932.5864      -1505.9074
  21820326.7714  -25145494.59648 -19300746.49846  21820323.8984   21820330.0704
      3501.8174       2728.6864
  20845524.6964  -34769507.06449 -26759271.81647  20845522.3674   20845528.5504
      -266.3104       -207.5134
  20655488.4584  -30837351.26049 -23706465.99447  20655486.2714   20655491.7814
       465.1234        362.4344
  23353921.3204  -14797482.55148 -11227550.68446  23353918.6084   23353929.5474
      3355.2024       2614.4364
  23759553.4704  -28830660.67547 -22172768.94745  23759550.6434   23759563.9624
     -2941.8544      -2292.3424
  23887906.4144  -26050412.17047 -19954792.74945  23887904.2734   23887913.0694
     -1662.5344      -1295.4794
 00  7 14  0 29 29.9990000  0  7G21G20G11G25G 1G15G29
  23837899.8064  -34118383.02747 -25952695.51345  23837897.1484   23837907.8594
     -1940.2294      -1511.8694
  21800350.1814  -25250469.74248 -19382545.24646  21800347.6974   21800354.0094
      3496.0554       2724.1964
  20847095.7384  -34761251.36749 -26752838.84647  20847093.3914   20847099.8694
      -284.5544       -221.7304
  20652881.3494  -30851051.17449 -23717141.23947  20652879.4224   20652884.7474
       447.7654        348.9084
  23334781.9314  -14898061.19748 -11305923.49246  23334779.4644   23334789.6804
      3349.5584       2610.0374
  23776351.2144  -28742380.69447 -22103979.59045  23776350.0494   23776364.3054
     -2944.0554      -2294.0634
  23897396.2974  -26000540.90447 -19915932.13045  23897394.7434   23897403.8444
     -1662.6304      -1295.5554
 00  7 14  0 29 59.9990000  0  7G21G20G11G25G 1G15G29
  23848996.9404  -34060070.21847 -25907257.13545  23848993.1194   23849005.3564
     -1942.7394      -1513.8204
  21780406.8754  -25355273.51848 -19464210.44946  21780404.3704   21780410.3274
      3495.4854       2723.7524
  20848770.2604  -34752451.26349 -26745981.65947  20848767.9414   20848774.5054
      -297.5534       -231.8584
  20650372.9054  -30864232.81449 -23727412.63747  20650370.9634   20650376.4334
       435.6694        339.4814
  23315672.8534  -14998471.72848 -11384165.30346  23315670.8114   23315682.0264
      3349.1124       2609.6914
  23793162.9094  -28654038.26747 -22035141.57445  23793161.1474   23793175.6494
     -2940.8524      -2291.5664
  23906887.0124  -25950667.36847 -19877069.73845  23906885.3664   23906894.0394
     -1657.5804      -1291.6114
 00  7 14  0 30 29.9990000  0  8G21G20G11G25G 1G15G16G29
  23860123.6994  -34001587.27947 -25861686.16545  23860122.1754   23860135.2004
     -1955.6344      -1523.8734
  21760485.5394  -25459961.09248 -19545785.11646  21760482.6294   21760488.7314
      3484.2474       2714.9944
  20850537.3504  -34743164.77149 -26738745.45947  20850535.0184   20850541.4944
      -321.0494       -250.1664
  20647952.3024  -30876953.86749 -23737325.13447  20647950.2444   20647955.5514
       412.9854        321.8064
  23296587.4904  -15098770.63548 -11462320.12646  23296585.1284   23296595.6974
      3338.0614       2601.0794
  23809975.5914  -28565692.74047 -21966301.14745  23809972.7234   23809986.3144
     -2948.3084      -2297.3744
  24421081.0634   -6353768.16057  -4649376.15745  24421078.2114   24421090.2024
      4072.2074       3173.1434
  23916366.2464  -25900848.99947 -19838250.33045  23916365.3474   23916374.2134
     -1663.0114      -1295.8444
 00  7 14  0 30 59.9990000  0  8G21G20G11G25G 1G15G16G29
  23871305.7964  -33942836.04247 -25815906.13845  23871302.0784   23871313.7894
     -1961.4414      -1528.3964
  21740604.8604  -25564431.90448 -19627190.86946  21740602.4484   21740608.1644
      3480.1484       2711.8024
  20852415.4124  -34733294.82849 -26731054.62947  20852413.0724   20852419.7534
      -337.3104       -262.8384
  20645638.0484  -30889116.79549 -23746802.73147  20645635.8734   20645641.1004
       397.5954        309.8154
  23277540.6124  -15198859.25448 -11540311.10046  23277538.3214   23277548.7974
      3334.2184       2598.0894
  23826805.4074  -28477248.19447 -21897383.57745  23826802.6284   23826818.1064
     -2948.2444      -2297.3214
  24397827.0774   -6475973.32447  -4744600.80145  24397823.5594   24397835.1624
      4074.4464       3174.8804
  23925855.7584  -25850987.55847 -19799397.35045  23925853.9794   23925861.9514
     -1661.3224      -1294.5294
 00  7 14  0 31 29.9990000  0  8G21G20G11G25G 1G15G16G29
  23882528.7784  -33883854.29247 -25769946.47845  23882527.0654   23882537.7754
     -1970.5904      -1535.5154
  21720759.7124  -25668720.76148 -19708454.84146  21720756.7844   21720762.9684
      3472.5274       2705.8634
  20854397.6574  -34722879.72449 -26722939.00147  20854395.3394   20854401.7004
      -356.9864       -278.1694
  20643422.4724  -30900759.11749 -23755874.65847  20643420.3654   20643425.8414
       378.7084        295.0974
  23258527.7384  -15298774.28948 -11618166.81646  23258525.3364   23258535.5754
      3326.8774       2592.3644
  23843646.5944  -28388743.96947 -21828419.47845  23843644.7134   23843660.0184
     -2951.7834      -2300.0744
  24374569.4894   -6598185.22347  -4839830.71145  24374566.6694   24374577.9514
      4073.1274       3173.8584
  23935344.8924  -25801120.16347 -19760539.71745  23935343.0374   23935352.2984
     -1663.0804      -1295.9034
 00  7 14  0 31 59.9990000  0  8G21G20G11G25G 1G15G16G29
  23893786.4764  -33824692.43147 -25723846.48145  23893783.7734   23893796.7754
     -1976.3844      -1540.0334
  21700939.5184  -25772875.68748 -19789614.45947  21700936.8704   21700943.1144
      3468.2284       2702.5134
  20856474.0224  -34711970.66749 -26714438.47347  20856471.4884   20856477.5444
      -373.2344       -290.8294
  20641296.4044  -30911932.07049 -23764580.84547  20641294.2244   20641299.5864
       363.2644        283.0624
  23239538.2654  -15398565.54248 -11695926.06346  23239535.3324   23239546.0024
      3322.9584       2589.3104
  23860489.8484  -28300232.75447 -21759449.97545  23860488.6314   23860503.0834
     -2951.8174      -2300.1094
  24351301.7504   -6720452.47847  -4935103.74945  24351299.0174   24351311.5844
      4075.1484       3175.4334
  23944826.9724  -25751296.75747 -19721716.36945  23944824.8854   23944833.8564
     -1661.3194      -1294.5274
 00  7 14  0 32 29.9990000  0  8G21G20G11G25G 1G15G16G29
  23905090.3744  -33765294.49647 -25677562.54045  23905088.1774   23905098.1584
     -1979.2294      -1542.2484
  21681155.6364  -25876838.66648 -19870624.49947  21681153.1424   21681160.0124
      3466.8424       2701.4304
  20858653.8394  -34700513.04049 -26705510.48547  20858651.5824   20858657.8094
      -386.4444       -301.1244
  20639270.1704  -30922580.20149 -23772878.07747  20639267.9424   20639273.1474
       350.8564        273.3944
  23220582.6754  -15498176.70148 -11773544.97846  23220580.2754   23220589.9294
      3322.0014       2588.5674
  23877345.6824  -28211660.62947 -21690432.99145  23877343.7674   23877357.7424
     -2948.7114      -2297.6904
  24328035.7944   -6842717.65647  -5030375.17745  24328033.0344   24328045.1264
      4080.0934       3179.2874
  23954310.0314  -25701461.55447 -19682883.85745  23954308.1734   23954317.4044
     -1656.7334      -1290.9574
 00  7 14  0 32 59.9990000  0  8G21G20G11G25G 1G15G16G29
  23916423.5574  -33705738.49847 -25631155.41045  23916420.9834   23916434.2584
     -1993.4374      -1553.3254
  21661394.6484  -25980684.61648 -19951543.35447  21661391.7774   21661399.0224
      3454.0094       2691.4344
  20860923.6154  -34688585.46849 -26696216.30247  20860921.2784   20860927.7124
      -410.9814       -320.2444
  20637328.4934  -30932781.27749 -23780826.95247  20637326.4774   20637332.1044
       327.0754        254.8644
  23201647.4404  -15597684.35348 -11851083.25246  23201645.0524   23201654.7284
      3309.6204       2578.9194
  23894197.6174  -28123106.87647 -21621430.32045  23894195.7674   23894208.1934
     -2956.9764      -2304.1294
  24304755.2704   -6965056.48647  -5125703.97545  24304753.1354   24304765.4534
      4073.6544       3174.2664
  23963781.4574  -25651691.71647 -19644102.28845  23963779.1944   23963788.1624
     -1663.4584      -1296.1944
 00  7 14  0 33 29.9990000  0  8G21G20G11G25G 1G15G16G29
  23927807.9164  -33645916.87847 -25584541.33945  23927804.3854   23927815.6504
     -1997.8884      -1556.7974
  21641676.0294  -26084303.33648 -20032285.15747  21641673.7534   21641680.9314
      3450.7034       2688.8574
  20863303.7364  -34676080.89549 -26686472.50447  20863301.2864   20863307.4474
      -425.8934       -331.8644
  20635492.5784  -30942428.22249 -23788344.04047  20635490.4644   20635496.3054
       312.9174        243.8304
  23182751.6294  -15696980.10648 -11928456.40146  23182748.8844   23182759.2104
      3306.8684       2576.7744
  23911064.4474  -28034465.84047 -21552359.64345  23911062.7984   23911076.7824
     -2955.5604      -2303.0194
  24281481.6374   -7087359.59347  -5221004.92345  24281479.3294   24281491.1514
      4076.7204       3176.6534
  23973259.2854  -25601879.27047 -19605287.49945  23973258.3814   23973266.4024
     -1660.5944      -1293.9704
 00  7 14  0 33 59.9990000  0  8G21G20G11G25G 1G15G16G29
  23939229.2964  -33585892.57846 -25537769.32445  23939227.8024   23939238.8994
     -2003.5254      -1561.1974
  21621989.9084  -26187755.48048 -20112897.14747  21621987.4124   21621994.6574
      3446.1924       2685.3424
  20865780.3174  -34663063.31449 -26676328.96947  20865777.9734   20865784.4734
      -441.9074       -344.3434
  20633750.5064  -30951584.56149 -23795478.84047  20633748.5764   20633753.7904
       297.6234        231.9134
  23163884.4224  -15796126.34648 -12005713.04546  23163881.9154   23163892.5704
      3302.9764       2573.7404
  23927937.8574  -27945803.00947 -21483271.97245  23927936.7044   23927947.9344
     -2955.2184      -2302.7594
  24258202.9204   -7209688.31547  -5316325.85745  24258200.1804   24258212.3304
      4078.6154       3178.1424
  23982735.0394  -25552087.21547 -19566488.61545  23982733.4744   23982742.1674
     -1658.8274      -1292.5834
 00  7 14  0 34 29.9990000  0  8G21G20G11G25G 1G15G16G29
  23950687.0264  -33525678.44846 -25490849.40944  23950685.7524   23950698.2344
     -2009.1024      -1565.5304
  21602334.3324  -26291050.64148 -20193386.82847  21602331.3924   21602338.0704
      3441.7624       2681.8904
  20868352.8094  -34649545.97249 -26665796.01447  20868350.3684   20868356.4904
      -457.7214       -356.6644
  20632099.1204  -30960262.41149 -23802240.78547  20632097.0344   20632102.3894
       282.5454        220.1654
  23145043.4824  -15895134.42748 -12082862.05246  23145041.2494   23145051.6164
      3299.1894       2570.7944
  23944812.3724  -27857132.06347 -21414178.00145  23944810.2184   23944822.5364
     -2954.5664      -2302.2464
  24234918.2904   -7332052.94647  -5411674.74245  24234915.9274   24234927.1194
      4080.6864       3179.7424
  23992204.3464  -25502327.10347 -19527714.60945  23992202.2954   23992211.4624
     -1656.9284      -1291.1134
 00  7 14  0 34 59.9990000  0  8G21G20G11G25G 1G15G16G29
  23962189.9454  -33465235.05346 -25443750.83945  23962187.9114   23962201.1784
     -2022.1964      -1575.7214
  21582715.2184  -26394146.63148 -20273721.31047  21582712.4024   21582719.4514
      3429.6014       2672.4144
  20871027.6254  -34635490.16749 -26654843.47547  20871025.1414   20871031.2784
      -481.1084       -374.8894
  20630546.3494  -30968423.08149 -23808599.73247  20630544.1384   20630549.5574
       259.8454        202.4764
  23126237.0194  -15993964.23648 -12159872.14046  23126234.7064   23126244.1664
      3287.7494       2561.8784
  23961694.8324  -27768415.24747 -21345048.28645  23961692.7274   23961705.9724
     -2961.5624      -2307.7074
  24211633.5464   -7454412.16247  -5507019.40645  24211630.5144   24211642.5054
      4074.9874       3175.3124
  24001675.4534  -25452559.20647 -19488934.51345  24001673.0504   24001682.1794
     -1662.6574      -1295.5724
 00  7 14  0 35 29.9990000  0  8G21G20G11G25G 1G15G16G29
  23973734.7394  -33404571.67046 -25396480.85545  23973732.2754   23973743.5694
     -2024.7234      -1577.6974
  21563133.3454  -26497050.59948 -20353906.16247  21563130.7694   21563136.9154
      3427.9834       2671.1544
  20873802.7504  -34620906.65949 -26643479.74147  20873800.3444   20873806.7374
      -493.8604       -384.8264
  20629089.8914  -30976076.09749 -23814563.11147  20629087.7764   20629093.3254
       247.7124        193.0234
  23107462.6744  -16092624.48648 -12236750.10046  23107460.0454   23107470.3554
      3286.8784       2561.1984
  23978583.4764  -27679664.07946 -21275891.78445  23978581.4274   23978593.4674
     -2957.8044      -2304.7884
  24188347.9294   -7576773.67547  -5602365.84645  24188346.0264   24188358.0294
      4079.7974       3179.0544
  24011146.0244  -25402792.63847 -19450155.47345  24011143.3384   24011152.1174
     -1657.8264      -1291.8084
 00  7 14  0 35 59.9990000  0  8G21G20G11G25G 1G15G16G29
  23985315.9184  -33343709.45446 -25349055.93645  23985312.9394   23985325.6184
     -2030.2844      -1582.0384
  21543584.0684  -26599780.69248 -20433955.53247  21543581.6354   21543588.0834
      3423.1854       2667.4154
  20876673.7804  -34605817.28549 -26631721.82847  20876671.6224   20876678.4604
      -509.6604       -397.1384
  20627725.4754  -30983242.60349 -23820147.39247  20627723.7974   20627729.3154
       232.5654        181.2184
  23088716.0584  -16191135.41248 -12313511.70446  23088713.5894   23088723.6304
      3282.9634       2558.1464
  23995475.8034  -27590901.54447 -21206726.43445  23995472.7364   23995484.1274
     -2957.1674      -2304.2704
  24165060.2174   -7699156.30247  -5697728.77045  24165057.5094   24165069.5254
      4081.5044       3180.3874
  24020611.9344  -25353047.85547 -19411393.40945  24020609.7374   24020619.3564
     -1655.9984      -1290.3724
 00  7 14  0 36 29.9990000  0  8G21G20G11G25G 1G15G16G29
  23996926.6814  -33282698.29846 -25301514.96545  23996923.1844   23996934.8174
     -2037.5284      -1587.6654
  21524059.3494  -26702384.30048 -20513906.34347  21524056.7504   21524063.0614
      3416.6384       2662.3144
  20879632.1264  -34590272.80249 -26619609.28247  20879629.6764   20879636.1994
      -527.1214       -410.7424
  20626444.6314  -30989973.60349 -23825392.31047  20626442.8294   20626448.5244
       215.7654        168.1284
  23069988.9774  -16289546.25748 -12390195.34246  23069986.6434   23069995.9904
      3277.3084       2553.7434
  24012358.5004  -27502179.40046 -21137592.57745  24012356.7074   24012370.2064
     -2958.0834      -2304.9864
  24141757.4754   -7821608.25547  -5793145.72245  24141755.4044   24141766.2194
      4081.5484       3180.4144
  24030063.5734  -25303374.49547 -19372687.02145  24030061.2694   24030071.8254
     -1655.9024      -1290.3144
 00  7 14  0 36 59.9990000  0  8G21G20G11G25G 1G15G16G29
  24008582.9684  -33221440.83746 -25253782.03845  24008580.3644   24008592.9664
     -2046.5044      -1594.6604
  21504577.6734  -26804761.01848 -20593680.35647  21504575.0734   21504581.0624
      3408.2564       2655.7824
  20882695.0914  -34574176.44149 -26607066.69647  20882692.7404   20882699.3504
      -546.2624       -425.6574
  20625266.2794  -30996171.37749 -23830221.73447  20625263.9224   20625269.2544
       197.2294        153.6844
  23051298.9874  -16387758.38448 -12466724.12746  23051296.7004   23051307.2154
      3269.9564       2548.0114
  24029253.1734  -27413401.65446 -21068415.37745  24029249.3844   24029262.0614
     -2960.6704      -2307.0094
  24118462.6144   -7944029.80947  -5888538.97145  24118459.1264   24118470.4854
      4079.7384       3179.0044
  24039522.8674  -25253674.14447 -19333959.56845  24039520.1794   24039529.1544
     -1657.6544      -1291.6764
 00  7 14  0 37 29.9990000  0  8G21G20G11G25G 1G15G16G29
  24020287.0804  -33159940.40847 -25205859.79745  24020284.1654   24020296.8914
     -2049.2494      -1596.7984
  21485138.5594  -26906911.34848 -20673277.95447  21485136.0454   21485142.5454
      3406.0004       2654.0244
  20885862.4684  -34557532.67349 -26594097.56947  20885859.9124   20885866.7904
      -559.1214       -435.6764
  20624187.7294  -31001839.81549 -23834638.68547  20624185.4664   20624190.6244
       184.9594        144.1234
  23032648.0324  -16485774.37348 -12543100.06846  23032645.6984   23032655.5384
      3268.7404       2547.0634
  24046155.6244  -27324573.53347 -20999198.95045  24046154.2134   24046166.6294
     -2956.9924      -2304.1494
  24095172.0344   -8066422.75247  -5983909.94345  24095169.0204   24095180.1364
      4084.0374       3182.3614
  24048983.9584  -25203949.94747 -19295213.54145  24048982.4824   24048991.5034
     -1653.1144      -1288.1354
 00  7 14  0 37 59.9990000  0  8G21G20G11G25G 1G15G16G29
  24032033.3964  -33098214.01547 -25157761.49945  24032030.1364   24032041.7914
     -2063.5264      -1607.9424
  21465740.8044  -27008849.79848 -20752710.45847  21465738.1054   21465744.0994
      3392.1984       2643.2704
  20889130.0784  -34540359.51649 -26580715.94047  20889127.6624   20889134.8974
      -583.5054       -454.6774
  20623205.4284  -31006996.65349 -23838656.99147  20623203.5924   20623209.0764
       161.1624        125.5804
  23014030.2644  -16583610.45048 -12619335.83746  23014027.6064   23014037.8434
      3255.9884       2537.1284
  24063064.9954  -27235713.83347 -20929957.91645  24063062.8314   24063076.3054
     -2964.6914      -2310.1574
  24071882.8774   -8188801.50347  -6079269.85445  24071880.6524   24071892.3384
      4076.8534       3176.7654
  24058447.7734  -25154218.45647 -19256461.84145  24058445.7544   24058455.6104
     -1660.1334      -1293.6094
 00  7 14  0 38 29.9990000  0  8G21G20G11G25G 1G15G16G29
  24043811.8704  -33036324.40347 -25109536.00945  24043808.7414   24043821.8874
     -2066.6624      -1610.3914
  21446371.1184  -27110636.28948 -20832024.54747  21446368.4424   21446375.1454
      3389.3514       2641.0514
  20892486.6194  -34522720.60549 -26566971.38847  20892484.2694   20892491.6254
      -596.7284       -464.9814
  20622309.9124  -31011704.33549 -23842325.30247  20622307.6924   20622313.0134
       148.4784        115.6964
  22995434.8604  -16681328.25348 -12695479.43546  22995432.4764   22995442.2384
      3254.3374       2535.8404
  24079969.2044  -27146886.70247 -20860742.28345  24079965.7934   24079979.8064
     -2961.3064      -2307.4914
  24048586.0414   -8311226.96647  -6174666.15845  24048583.0584   24048595.4784
      4080.6974       3179.7504
  24067901.4454  -25104541.49047 -19217752.63845  24067898.9294   24067908.3184
     -1655.8584      -1290.2784
 00  7 14  0 38 59.9990000  0  7G20G11G25G 1G15G16G29
  21427039.1664  -27212227.51548 -20911186.48247  21427036.6474   21427042.7024
      3382.0614       2635.3704
  20895938.8674  -34504576.52349 -26552833.18947  20895936.9354   20895944.1614
      -614.2844       -478.6614
  20621506.8674  -31015923.27649 -23845612.77547  20621504.7644   20621510.3664
       131.4804        102.4514
  22976870.5154  -16778886.64248 -12771498.82346  22976867.7644   22976877.6214
      3248.2534       2531.1024
  24096872.5774  -27058053.62646 -20791521.98444  24096869.1014   24096885.3684
     -2962.2724      -2308.2664
  24025288.9384   -8433656.46847  -6270065.61145  24025286.7474   24025296.4624
      4080.0044       3179.2164
  24077352.1124  -25054878.31647 -19179054.16645  24077349.6084   24077359.3014
     -1656.2744      -1290.5984
 00  7 14  0 39 29.9990000  0  7G20G11G25G 1G15G16G29
  21407757.5124  -27313553.49848 -20990141.73547  21407754.8664   21407761.2824
      3375.4474       2630.2164
  20899500.9614  -34485860.75549 -26538249.53247  20899498.6084   20899505.5004
      -631.0744       -491.7434
  20620809.9614  -31019586.00949 -23848466.83847  20620808.0614   20620813.1744
       115.1464         89.7234
  22958348.4024  -16876217.40348 -12847340.84846  22958346.0224   22958356.5754
      3242.9224       2526.9484
  24113791.5544  -26969148.85846 -20722245.86744  24113788.4934   24113802.4974
     -2962.3184      -2308.2884
  24002003.7674   -8556020.63247  -6365414.16945  24002000.3624   24002011.3474
      4080.1214       3179.3154
  24086812.1794  -25005161.01947 -19140313.48945  24086810.5144   24086820.2264
     -1655.7954      -1290.2244
 00  7 14  0 39 59.9990000  0  7G20G11G25G 1G15G16G29
  21388518.2934  -27414658.78348 -21068925.00847  21388515.3264   21388521.9184
      3371.1194       2626.8444
  20903162.0024  -34466621.87249 -26523258.25647  20903159.8144   20903166.5314
      -645.3404       -502.8594
  20620209.3394  -31022740.30449 -23850924.71947  20620207.3394   20620212.7534
       101.3744         78.9924
  22939861.2044  -16973367.02348 -12923041.72346  22939858.8714   22939869.4094
      3239.9764       2524.6534
  24130713.8184  -26880221.48646 -20652952.13644  24130713.6404   24130726.9514
     -2959.8694      -2306.3954
  23978721.7794   -8678365.12447  -6460747.37945  23978719.6324   23978729.9914
      4082.4744       3181.1474
  24096274.4924  -24955436.29447 -19101567.03845  24096272.5334   24096282.2964
     -1652.9514      -1288.0164
 00  7 14  0 40 29.9990000  0  7G20G11G25G 1G15G16G29
  21369310.0744  -27515598.77948 -21147579.49547  21369307.2874   21369313.4844
      3358.4944       2617.0084
  20906911.4524  -34446919.02449 -26507905.44847  20906909.3154   20906915.7464
      -667.8924       -520.4334
  20619694.9174  -31025445.57949 -23853032.71847  20619692.9534   20619698.0394
        79.3084         61.8004
  22921397.8684  -17070392.70748 -12998646.03446  22921395.4294   22921405.6294
      3228.7514       2515.9024
  24147630.4094  -26791331.87146 -20583687.79445  24147626.8684   24147642.0284
     -2965.7214      -2310.9324
  23955433.6104   -8800745.78947  -6556108.81945  23955431.3504   23955440.4024
      4076.5724       3176.5504
  24105727.9124  -24905761.93547 -19062859.84145  24105725.9524   24105735.1654
     -1658.3624      -1292.2224
 00  7 14  0 40 59.9990000  0  7G20G11G25G 1G15G16G29
  21350144.5374  -27616310.32248 -21226055.97247  21350141.9994   21350148.7254
      3355.3364       2614.5464
  20910760.4874  -34426692.94349 -26492144.92347  20910758.2264   20910765.0664
      -680.8084       -530.4984
  20619277.1424  -31027641.21449 -23854743.59147  20619275.1464   20619280.2334
        66.8624         52.1014
  22902969.4544  -17167233.49848 -13074106.25446  22902967.3144   22902976.8984
      3227.1064       2514.6234
  24164548.9644  -26702421.02146 -20514406.92444  24164546.0324   24164560.7654
     -2961.8754      -2307.9524
  23932150.6294   -8923100.08747  -6651449.68145  23932148.0804   23932157.0774
      4080.1544       3179.3354
  24115183.3004  -24856077.24247 -19024144.58145  24115181.1734   24115190.7854
     -1654.2054      -1288.9864
 00  7 14  0 41 29.9990000  0  7G20G11G25G 1G15G16G29
  21331015.4284  -27716833.33548 -21304385.54247  21331013.0014   21331019.2314
      3345.1664       2606.6214
  20914701.1504  -34405987.16149 -26476010.61147  20914698.7584   20914705.3444
      -700.6374       -545.9494
  20618947.9814  -31029370.43949 -23856091.03447  20618946.1354   20618951.3764
        47.4264         36.9544
  22884568.6724  -17263931.12448 -13149454.94446  22884566.3474   22884575.9534
      3218.4424       2507.8724
  24181464.8474  -26613533.14146 -20445143.96644  24181462.2534   24181475.9824
     -2965.0684      -2310.4384
  23908864.7224   -9045468.76947  -6746801.73545  23908861.5154   23908871.5984
      4076.7294       3176.6644
  24124631.6374  -24806423.75247 -18985453.64345  24124629.5184   24124639.0894
     -1657.0164      -1291.1844
 00  7 14  0 41 59.9990000  0  7G20G11G25G 1G15G16G29
  21311927.0304  -27817143.31048 -21382549.11947  21311924.5584   21311930.6824
      3340.1824       2602.7394
  20918736.4514  -34384781.33649 -26459486.65547  20918734.0344   20918740.4884
      -715.1244       -557.2394
  20618711.7514  -31030612.34049 -23857058.74547  20618709.7054   20618715.1184
        33.3704         26.0024
  22866199.0924  -17360463.07348 -13224674.53546  22866196.6674   22866206.6824
      3215.0524       2505.2304
  24198379.6834  -26524648.70646 -20375883.70444  24198376.1264   24198389.4524
     -2962.7144      -2308.5934
  23885579.6224   -9167827.80947  -6842146.30545  23885577.2494   23885588.4274
      4078.5714       3178.0964
  24134078.1544  -24756779.44147 -18946769.87445  24134076.5604   24134086.3914
     -1654.6444      -1289.3294
 00  7 14  0 42 29.9990000  0  7G20G11G25G 1G15G16G29
  21292860.7694  -27917338.30148 -21460623.09647  21292858.2724   21292864.3074
      3334.8484       2598.5814
  20922846.9034  -34363177.20449 -26442652.32747  20922844.8754   20922851.2944
      -729.8304       -568.6974
  20618548.8394  -31031468.27049 -23857725.70247  20618546.7764   20618552.1504
        19.0804         14.8674
  22847841.5734  -17456929.26548 -13299842.88346  22847839.5644   22847849.8484
      3211.3834       2502.3714
  24215274.3834  -26435869.86246 -20306705.75044  24215270.0834   24215282.1124
     -2960.5994      -2306.9424
  23862277.7544   -9290276.16947  -6937560.47745  23862274.9174   23862287.5154
      4080.0834       3179.2894
  24143504.4034  -24707244.82147 -18908171.58245  24143502.3944   24143512.3264
     -1652.3914      -1287.5764
 00  7 14  0 42 59.9990000  0  7G20G11G25G 1G15G16G29
  21273831.7224  -28017337.72048 -21538544.67947  21273828.9274   21273835.1224
      3328.7774       2593.8514
  20927048.7224  -34341098.18749 -26425447.94347  20927046.5794   20927052.9834
      -745.1434       -580.6294
  20618474.4764  -31031860.44849 -23858031.29147  20618472.2674   20618477.3824
         4.1194          3.2094
  22829513.0194  -17553251.01448 -13374898.66446  22829510.6064   22829519.9644
      3207.0924       2499.0264
  24232161.7234  -26347120.60746 -20237550.84044  24232158.3544   24232173.0864
     -2959.0364      -2305.7424
  23838976.0714   -9412733.89447  -7032981.93145  23838973.0574   23838984.1704
      4080.8304       3179.8584
  24152925.8624  -24657741.03447 -18869597.28745  24152923.2494   24152932.7304
     -1650.8764      -1286.3964
 00  7 14  0 43 29.9990000  0  7G20G11G25G 1G15G16G29
  21254854.8624  -28117060.28548 -21616250.52947  21254852.0274   21254858.5564
      3319.9134       2586.9454
  20931355.1664  -34318467.03349 -26407813.32847  20931352.9824   20931359.7134
      -763.1284       -594.6434
  20618502.7224  -31031711.42449 -23857915.16947  20618500.6404   20618505.8744
       -13.5074        -10.5254
  22811225.9244  -17649349.18748 -13449780.25646  22811223.5604   22811232.3054
      3200.0294       2493.5274
  24249057.5664  -26258324.39146 -20168359.34244  24249053.6674   24249070.9194
     -2960.1444      -2306.5824
  23815686.7044   -9535120.08347  -7128347.67345  23815683.6964   23815694.9324
      4078.7584       3178.2494
  24162355.3074  -24608189.18147 -18830985.55245  24162352.9244   24162362.0754
     -1652.0784      -1287.3374
 00  7 14  0 43 59.9990000  0  8G22G20G11G25G 1G15G16G29
  23877875.4164    -422796.07746   -301036.89844  23877871.3514   23877885.0644
      4187.3574       3262.8534
  21235930.6164  -28216506.67148 -21693741.18947  21235928.1894   21235934.6044
      3311.1654       2580.1274
  20935765.9264  -34295288.33649 -26389752.06547  20935763.6584   20935770.5724
      -780.8024       -608.4154
  20618632.6484  -31031025.23249 -23857380.47947  20618630.8994   20618636.5434
       -30.8764        -24.0594
  22792981.0654  -17745226.23448 -13524489.55146  22792978.6634   22792987.6794
      3193.1514       2488.1704
  24265963.3654  -26169486.14246 -20099135.11944  24265960.8974   24265974.5714
     -2961.0674      -2307.3154
  23792409.7604   -9657436.63047  -7223659.15045  23792407.3984   23792418.5064
      4076.9324       3176.8334
  24171792.9014  -24558592.32647 -18792338.77145  24171790.8474   24171800.6084
     -1653.0314      -1288.0714
 00  7 14  0 44 29.9980000  0  7G22G20G11G25G 1G16G29
  23853950.4864    -548526.22546   -399008.17945  23853947.6454   23853962.5514
      4190.1964       3265.0794
  21217028.2854  -28315840.06148 -21771143.79347  21217025.4824   21217031.8144
      3306.7374       2576.6774
  20940248.7094  -34271733.37949 -26371397.60847  20940246.3884   20940252.7684
      -794.1304       -618.8004
  20618833.5844  -31029971.41749 -23856559.33147  20618831.6964   20618837.1324
       -43.8684        -34.1824
  22774746.5194  -17841047.66748 -13599155.47546  22774744.3484   22774753.8914
      3190.6584       2486.2234
  23769116.0514   -9779846.01847  -7319042.98045  23769113.7234   23769124.1104
      4079.4084       3178.7584
  24181206.0354  -24509120.64647 -18753789.53745  24181204.4934   24181214.3524
     -1649.6984      -1285.4774
 00  7 14  0 44 59.9980000  0  7G22G20G11G25G 1G16G29
  23830042.4124    -674163.65446   -496907.25944  23830039.2554   23830052.0754
      4187.3124       3262.8294
  21198185.2534  -28414857.54648 -21848300.23647  21198182.9104   21198189.4124
      3296.3914       2568.6164
  20944842.1574  -34247594.98049 -26352588.51347  20944839.8464   20944845.5294
      -813.1594       -633.6294
  20619143.5064  -31028343.89249 -23855291.13147  20619141.4594   20619146.6204
       -62.6494        -48.8174
  22756560.6164  -17936612.11948 -13673621.14746  22756558.4714   22756568.1204
      3182.3734       2479.7684
  23745843.1154   -9902147.65747  -7414342.78045  23745840.6834   23745850.3814
      4075.9814       3176.0884
  24190637.7564  -24459563.38747 -18715173.62345  24190635.2944   24190644.1334
     -1652.1974      -1287.4254
 00  7 14  0 45 29.9980000  0  7G22G20G11G25G 1G16G29
  23806133.8854    -799799.64046   -594805.18145  23806131.8404   23806145.4414
      4191.5174       3266.1184
  21179385.6014  -28513652.40548 -21925283.20347  21179382.9224   21179389.4354
      3293.2344       2566.1574
  20949526.9194  -34222974.98949 -26333404.14347  20949524.6464   20949530.8074
      -824.8734       -642.7564
  20619543.3894  -31026242.75749 -23853653.87947  20619541.2734   20619546.3854
       -74.0644        -57.7124
  22738405.6064  -18032015.33548 -13747961.18846  22738403.4274   22738412.8014
      3181.2554       2478.8974
  23722573.0844  -10024435.06647  -7509631.49245  23722570.1394   23722579.5114
      4079.8094       3179.0654
  24200065.5824  -24410021.34547 -18676569.54145  24200063.2074   24200072.5394
     -1647.3194      -1283.6194
 00  7 14  0 45 59.9980000  0  7G22G20G11G25G 1G16G29
  23782232.7834    -925398.68846   -692674.32645  23782229.1734   23782244.7054
      4188.9944       3264.1454
  21160634.8844  -28612190.32248 -22002065.95647  21160632.1014   21160638.3534
      3283.3904       2558.4844
  20954309.4404  -34197842.84249 -26313820.69447  20954307.1454   20954313.6044
      -843.1844       -657.0254
  20620039.1584  -31023637.28749 -23851623.63947  20620037.1364   20620042.1484
       -92.1424        -71.8004
  22720287.7464  -18127225.02848 -13822150.41546  22720285.6084   22720295.1464
      3173.5454       2472.8884
  23699309.8174  -10146674.87147  -7604883.13345  23699307.9764   23699318.4614
      4076.9754       3176.8574
  24209495.6754  -24360462.40747 -18637952.30445  24209493.9594   24209503.0304
     -1649.1254      -1285.0244
 00  7 14  0 46 29.9980000  0  7G22G20G11G25G 1G16G29
  23758324.6754   -1051040.67046   -790576.92845  23758320.9124   23758334.8764
      4187.4054       3262.8954
  21141916.6824  -28710552.51648 -22078711.77947  21141914.3144   21141920.4544
      3274.5134       2551.5684
  20959173.3154  -34172283.78349 -26293904.57347  20959170.9984   20959177.2984
      -860.3724       -670.4194
  20620614.5254  -31020611.86649 -23849266.16447  20620612.7614   20620617.9724
      -109.0934        -85.0084
  22702191.0084  -18222324.00748 -13896253.36646  22702189.0444   22702198.4304
      3166.7914       2467.6274
  23676042.3724  -10268947.96247  -7700160.65745  23676039.8194   23676050.4664
      4075.0484       3175.3574
  24218914.3064  -24310969.60347 -18599386.60545  24218911.8884   24218921.4424
     -1649.9604      -1285.6744
 00  7 14  0 46 59.9980000  0  7G22G20G11G25G 1G16G29
  23734420.5384   -1176641.41546   -888447.39045  23734419.9714   23734432.4664
      4185.9714       3261.7874
  21123248.8914  -28808655.25848 -22155155.42847  21123245.9984   21123251.7644
      3265.7154       2544.7114
  20964133.2404  -34146218.50649 -26273594.01047  20964130.9834   20964137.5764
      -877.3224       -683.6264
  20621285.9594  -31017086.33449 -23846518.98947  20621283.9864   20621288.9234
      -125.8714        -98.0824
  22684131.0734  -18317230.85848 -13970206.61146  22684128.7354   22684138.2154
      3160.3544       2462.6094
  23652784.7904  -10391172.02347  -7795400.00945  23652781.6264   23652791.3464
      4073.2934       3173.9894
  24228334.6514  -24261461.90147 -18560809.27945  24228332.7644   24228342.5414
     -1650.5224      -1286.1184
 00  7 14  0 47 29.9980000  0  6G22G20G11G25G 1G16
  23710534.9464   -1302169.07947   -986260.89445  23710532.3524   23710546.4974
      4187.2934       3262.8184
  21104634.7754  -28906468.05448 -22231373.14947  21104632.2134   21104638.6764
      3259.9024       2540.1824
  20969195.0244  -34119620.28549 -26252868.16747  20969192.7244   20969199.2794
      -891.1844       -694.4274
  20622057.1324  -31013033.92149 -23843361.26147  20622054.9604   20622059.8644
      -139.5174       -108.7154
  22666112.8944  -18411916.92048 -14043987.81746  22666110.3964   22666119.8764
      3156.8804       2459.9024
  23629540.9564  -10513316.82747  -7890577.63745  23629537.7784   23629548.0234
      4074.4704       3174.9094
 00  7 14  0 47 59.9980000  0  6G22G20G11G25G 1G16
  23686635.2154   -1427769.04247  -1084130.75645  23686631.7804   23686644.4664
      4183.7454       3260.0544
  21086048.8624  -29004137.72648 -22307479.34547  21086046.3814   21086052.8464
      3249.1444       2531.8004
  20974329.2464  -34092640.31149 -26231844.85447  20974326.9304   20974333.2654
      -909.7834       -708.9214
  20622899.5444  -31008604.75849 -23839909.95547  20622897.7974   20622902.6934
      -157.9834       -123.1024
  22648107.5084  -18506531.18148 -14117713.07346  22648105.4574   22648115.7354
      3148.5354       2453.4014
  23606284.1284  -10635529.93647  -7985808.40045  23606281.2034   23606290.4564
      4070.8124       3172.0524
 00  7 14  0 48 29.9980000  0  6G22G20G11G25G 1G16
  23662735.3054   -1553365.34547  -1181997.75745  23662732.5684   23662745.2814
      4179.3714       3256.6474
  21067504.6224  -29101589.44448 -22383415.69947  21067502.0654   21067508.4604
      3237.7354       2522.9094
  20979549.8374  -34065207.79649 -26210468.90747  20979547.3144   20979553.3434
      -928.9624       -723.8674
  20623828.1954  -31003727.60849 -23836109.56547  20623826.0374   20623830.6774
      -177.0344       -137.9484
  22630130.5384  -18601000.95948 -14191325.74446  22630128.4234   22630138.2574
      3139.5684       2446.4124
  23583028.9004  -10757737.03347  -8081034.48445  23583026.8604   23583036.1134
      4066.4324       3168.6364
 00  7 14  0 48 59.9980000  0  6G22G20G11G25G 1G16
  23638852.1924   -1678867.19147  -1279791.14845  23638850.0514   23638862.0034
      4186.5584       3262.2434
  21049018.9044  -29198733.29648 -22459112.15847  21049016.4624   21049022.6374
      3237.7714       2522.9364
  20984872.0394  -34037237.26149 -26188673.71747  20984869.8174   20984875.9654
      -936.4974       -729.7374
  20624857.5774  -30998315.93049 -23831892.66447  20624855.5334   20624860.6794
      -184.4634       -143.7384
  22612198.5644  -18695238.34048 -14264757.32246  22612195.9924   22612205.5014
      3142.1684       2448.4364
  23559791.2714  -10879849.20847  -8176186.65745  23559788.7324   23559798.4554
      4073.6224       3174.2474
 00  7 14  0 49 29.9980000  0  6G22G20G11G25G 1G16
  23614973.8184   -1804349.50647  -1377569.32645  23614970.8644   23614983.4884
      4186.1644       3261.9374
  21030577.8044  -29295644.98148 -22534627.70747  21030575.0234   21030580.5244
      3230.3264       2517.1354
  20990282.1674  -34008808.47449 -26166521.45147  20990279.8444   20990286.3534
      -951.4644       -741.3994
  20625973.9264  -30992448.91849 -23827320.96247  20625971.8004   20625977.4264
      -199.2754       -155.2794
  22594295.0734  -18789321.00048 -14338068.34746  22594292.7164   22594302.0074
      3137.3624       2444.6934
  23536557.7724  -11001942.28947  -8271323.94945  23536554.9794   23536564.5744
      4073.2784       3173.9794
 00  7 14  0 49 59.9980000  0  6G22G20G11G25G 1G16
  23591094.6724   -1929826.29047  -1475343.20645  23591092.8644   23591104.5234
      4178.4004       3255.8874
  21012177.1264  -29392339.84748 -22609974.30147  21012174.3404   21012179.8764
      3215.5254       2505.6024
  20995775.4494  -33979940.83849 -26144027.22347  20995773.1764   20995779.7864
      -973.5564       -758.6134
  20627173.0244  -30986145.61949 -23822409.29647  20627171.2204   20627176.5294
      -221.3524       -172.4824
  22576417.3114  -18883266.37348 -14411272.38346  22576415.0044   22576424.1704
      3125.2354       2435.2434
  23513323.2824  -11124032.54147  -8366459.06445  23513321.0724   23513332.0044
      4065.6354       3168.0204
 00  7 14  0 50 29.9980000  0  6G22G20G11G25G 1G16
  23567229.7914   -2055246.46547  -1573072.97945  23567225.8534   23567239.1704
      4181.7954       3258.5324
  20993827.1844  -29488768.16948 -22685113.19947  20993824.5514   20993830.3364
      3211.9714       2502.8344
  21001360.7484  -33950589.29749 -26121155.93147  21001358.5054   21001365.1124
      -984.3324       -767.0114
  20628464.5624  -30979359.86549 -23817121.68747  20628462.5444   20628467.9174
      -232.0584       -180.8254
  22558574.8174  -18977026.94148 -14484332.42146  22558572.5724   22558581.3704
      3124.4264       2434.6144
  23490102.1814  -11246070.64047  -8461553.51245  23490098.9804   23490109.1444
      4069.2134       3170.8074
 00  7 14  0 50 59.9980000  0  6G22G20G11G25G 1G16
  23543361.9694   -2180660.87847  -1670798.26045  23543359.0314   23543374.7274
      4178.1504       3255.6904
  20975517.8124  -29584982.07848 -22760085.01347  20975515.1444   20975521.2834
      3201.4974       2494.6704
  21007027.7254  -33920810.33149 -26097951.58147  21007025.3234   21007031.9024
     -1001.8014       -780.6234
  20629837.1704  -30972147.59549 -23811501.72947  20629835.2514   20629840.5054
      -249.5274       -194.4374
  22540758.7504  -19070656.89648 -14557290.68546  22540756.0314   22540764.5714
      3116.7704       2428.6484
  23466878.2054  -11368109.99147  -8556648.94045  23466875.4684   23466885.6604
      4065.9304       3168.2514
 00  7 14  0 51 29.9980000  0  6G22G20G11G25G 1G16
  23519515.4334   -2305969.88647  -1768441.40045  23519512.5224   23519528.0814
      4175.8474       3253.8964
  20957268.6274  -29680882.64148 -22834812.65647  20957266.1764   20957272.3234
      3192.0874       2487.3354
  21012793.6844  -33890509.02449 -26074340.21047  21012791.4174   21012798.1134
     -1018.1024       -793.3264
  20631309.1174  -30964413.36049 -23805475.04847  20631307.0054   20631312.1004
      -265.8354       -207.1454
  22522984.0864  -19164059.50348 -14630071.80546  22522981.6764   22522990.7294
      3110.2794       2423.5884
  23443672.9444  -11490051.56847  -8651668.21145  23443670.4694   23443680.7884
      4063.7134       3166.5254
 00  7 14  0 51 59.9980000  0  6G22G20G11G25G 1G16
  23495666.3364   -2431297.98347  -1866099.44045  23495664.2384   23495678.3704
      4175.2014       3253.4034
  20939055.2804  -29776595.33948 -22909393.91447  20939052.5084   20939058.4924
      3184.6294       2481.5274
  21018634.3494  -33859815.14349 -26050422.94047  21018632.1334   21018639.0014
     -1032.2874       -804.3794
  20632855.7994  -30956286.12849 -23799142.13747  20632853.6234   20632858.7014
      -280.0334       -218.2094
  22505229.0384  -19257362.02348 -14702774.93346  22505226.6754   22505236.0264
      3105.7844       2420.0854
  23420462.5324  -11612021.55847  -8746709.63345  23420459.5944   23420469.6464
      4063.5004       3166.3604
 00  7 14  0 52 29.9980000  0  6G22G20G11G25G 1G16
  23471822.2134   -2556606.12947  -1963741.91545  23471818.8104   23471831.0664
      4171.2444       3250.2934
  20920884.3684  -29872082.40648 -22983799.35847  20920882.0054   20920887.7204
      3173.5884       2472.9244
  21024556.8514  -33828695.42949 -26026173.85947  21024554.2264   21024561.0374
     -1049.9474       -818.1404
  20634483.2124  -30947732.67449 -23792477.10947  20634481.0914   20634486.4914
      -297.7514       -232.0134
  22487500.1584  -19350529.04148 -14775372.47646  22487497.8554   22487506.2954
      3097.8154       2413.8774
  23397253.6994  -11733983.01047  -8841744.41245  23397250.9524   23397260.9904
      4059.7254       3163.4224
 00  7 14  0 52 59.9980000  0  6G22G20G11G25G 1G16
  23447999.5464   -2681803.97447  -2061298.44845  23447995.3314   23448007.9894
      4175.8474       3253.9004
  20902773.8574  -29967255.00448 -23057959.76447  20902771.3904   20902776.9524
      3171.6274       2471.3964
  21030575.5894  -33797065.27849 -26001527.03347  21030573.3414   21030580.1264
     -1058.3624       -824.6964
  20636207.7904  -30938667.06349 -23785412.99747  20636206.1904   20636211.5014
      -306.2024       -238.5994
  22469813.2664  -19443473.86048 -14847796.88446  22469810.5684   22469819.7724
      3098.9594       2414.7684
  23374064.7474  -11855847.52047  -8936703.66545  23374061.6164   23374071.0084
      4065.0304       3167.5574
 00  7 14  0 53 29.9980000  0  6G22G20G11G25G 1G16
  23424155.7224   -2807105.39147  -2158935.69945  23424152.3404   23424162.7254
      4175.3444       3253.5064
  20884681.6864  -30062328.30448 -23132042.79747  20884679.2694   20884684.8264
      3164.3244       2465.7054
  21036650.0324  -33765144.03449 -25976653.39147  21036647.6724   21036654.4714
     -1072.0014       -835.3234
  20637989.4504  -30929307.92049 -23778120.15947  20637987.4354   20637992.7154
      -319.9334       -249.2984
  22452126.8614  -19536413.46948 -14920217.24346  22452124.5594   22452133.4914
      3094.8244       2411.5504
  23350851.5564  -11977830.76947  -9031755.42445  23350849.2204   23350858.4844
      4065.0044       3167.5334
 00  7 14  0 53 59.9980000  0  6G22G20G11G25G 1G16
  23400349.1514   -2932204.71847  -2256415.47445  23400346.7684   23400357.0554
      4170.6214       3249.8244
  20866666.7554  -30156997.05548 -23205810.59547  20866664.2994   20866669.6754
      3152.9104       2456.8114
  21042836.9124  -33732631.42149 -25951318.93947  21042834.7954   21042841.2764
     -1089.5534       -849.0004
  20639883.3684  -30919353.95949 -23770363.82047  20639881.4874   20639886.9054
      -337.6214       -263.0804
  22434499.4834  -19629045.19648 -14992397.69646  22434497.5354   22434506.2274
      3086.6914       2405.2104
  23327674.7114  -12099628.22647  -9126662.40645  23327672.1184   23327681.2704
      4060.8644       3164.3044
 00  7 14  0 54 29.9980000  0  6G22G20G11G25G 1G16
  23376563.8064   -3057190.79747  -2353806.97845  23376560.5484   23376572.3354
      4164.6284       3245.1534
  20848712.2964  -30251350.99648 -23279333.08347  20848709.3734   20848714.7964
      3140.2054       2446.9114
  21049118.9384  -33699621.41149 -25925596.90847  21049116.4954   21049122.9454
     -1108.2994       -863.6094
  20641872.9914  -30908899.08549 -23762217.15847  20641871.0774   20641876.3574
      -356.4914       -277.7864
  22416913.6544  -19721460.90248 -15064409.81946  22416911.4424   22416920.4024
      3077.2304       2397.8404
  23304515.1144  -12221330.33247  -9221495.08145  23304511.9084   23304522.2604
      4055.4484       3160.0854
 00  7 14  0 54 59.9980000  0  6G22G20G11G25G 1G16
  23352783.2734   -3182159.30947  -2451184.83545  23352779.8034   23352793.0834
      4161.1444       3242.4544
  20830798.0114  -30345487.83848 -23352686.40647  20830795.7164   20830801.4204
      3130.1534       2439.0784
  21055475.3294  -33666215.72549 -25899566.55947  21055473.0614   21055480.1874
     -1124.2124       -876.0084
  20643938.8214  -30898043.83549 -23753758.52347  20643936.7094   20643942.0264
      -372.5734       -290.3174
  22399350.2234  -19813760.08348 -15136331.14746  22399347.5214   22399356.7414
      3070.6014       2392.6714
  23281354.8494  -12343035.07547  -9316329.82145  23281352.1804   23281362.2614
      4052.7804       3158.0034
 00  7 14  0 55 29.9980000  0  6G22G20G11G25G 1G16
  23329019.2664   -3307036.78147  -2548491.75545  23329016.1604   23329028.9354
      4162.3694       3243.4054
  20812940.0964  -30439335.33749 -23425814.27147  20812937.2554   20812942.7084
      3124.8554       2434.9494
  21061920.1434  -33632346.82249 -25873175.26447  21061918.0374   21061925.1994
     -1135.2414       -884.6014
  20646093.2774  -30886720.33649 -23744935.01847  20646091.2604   20646096.8124
      -383.7844       -299.0524
  22381821.5924  -19905872.60948 -15208107.04546  22381819.0754   22381827.6004
      3068.7794       2391.2544
  23258208.8234  -12464670.62347  -9411110.63245  23258205.6084   23258215.6624
      4054.7794       3159.5624
 00  7 14  0 55 59.9980000  0  6G22G20G11G25G 1G16
  23305262.4984   -3431879.27047  -2645771.42145  23305260.0314   23305272.2564
      4160.4364       3241.8944
  20795125.0764  -30532950.59849 -23498761.17547  20795122.6044   20795128.0814
      3116.2484       2428.2434
  21068441.9224  -33598076.31249 -25846471.03147  21068439.7854   21068446.4364
     -1149.4034       -895.6374
  20648325.8184  -30874989.44949 -23735794.06847  20648323.7944   20648329.1154
      -398.1304       -310.2314
  22364316.6144  -19997857.83648 -15279783.76146  22364314.4794   22364322.9174
      3063.7094       2387.3034
  23235063.1474  -12586294.67547  -9505882.47145  23235061.0824   23235071.1954
      4053.5734       3158.6234
 00  7 14  0 56 29.9980000  0  6G22G20G11G25G 1G16
  23281527.0304   -3556612.46447  -2742965.91745  23281524.5694   23281536.1964
      4158.1394       3240.1034
  20777369.0414  -30626259.85849 -23571469.63647  20777366.5154   20777371.8804
      3107.5274       2421.4474
  21075053.3184  -33563334.90749 -25819399.86947  21075050.8774   21075057.5834
     -1163.5594       -906.6674
  20650649.2524  -30862781.28249 -23726281.21047  20650647.1814   20650652.2324
      -412.5304       -321.4524
  22346850.5784  -20089644.34948 -15351305.63246  22346848.2824   22346856.4334
      3058.5824       2383.3104
  23211935.2614  -12707834.40047  -9600588.62145  23211933.1904   23211943.0354
      4052.2324       3157.5754
 00  7 14  0 56 59.9980000  0  6G22G20G11G25G 1G16
  23257804.7344   -3681268.78847  -2840100.50145  23257802.6084   23257813.1554
      4154.7334       3237.4434
  20759664.7824  -30719296.60149 -23643965.74747  20759662.2034   20759667.6324
      3097.6024       2413.7154
  21081746.4294  -33528160.72049 -25791991.46447  21081744.2544   21081751.1664
     -1178.7464       -918.5014
  20653055.4894  -30850132.85749 -23716425.29347  20653053.7584   20653059.3214
      -427.9964       -333.5044
  22329415.3994  -20181267.79948 -15422700.43846  22329412.9224   22329421.0864
      3052.3294       2378.4354
  23188817.2114  -12829323.70447  -9695255.47745  23188814.5274   23188824.6434
      4049.7274       3155.6224
 00  7 14  0 57 29.9980000  0  6G22G20G11G25G 1G16
  23234103.6994   -3805819.99747  -2937153.18345  23234100.9454   23234113.5814
      4153.3504       3236.3764
  20742017.0884  -30812034.34249 -23716228.87047  20742014.5704   20742020.2984
      3089.7594       2407.6024
  21088526.4684  -33492531.71249 -25764228.65847  21088524.2934   21088531.0944
     -1191.7074       -928.6024
  20655551.0624  -30837021.37249 -23706208.55947  20655548.8124   20655554.4104
      -441.2114       -343.8014
  22312015.6694  -20272703.60348 -15493949.02246  22312013.2144   22312021.1964
      3048.2474       2375.2544
  23165712.9574  -12950736.51747  -9789862.73945  23165710.1414   23165720.6324
      4049.3574       3155.3364
 00  7 14  0 57 59.9980000  0  6G22G20G11G25G 1G16
  23210408.4964   -3930335.59347  -3034178.12945  23210406.1424   23210418.4744
      4150.3534       3234.0324
  20724413.2334  -30904543.94649 -23788314.23447  20724410.6934   20724416.3734
      3080.3714       2400.2884
  21095379.0374  -33456522.93349 -25736169.92447  21095376.8194   21095383.3314
     -1206.0464       -939.7734
  20658119.4764  -30823521.45249 -23695689.14647  20658117.7174   20658122.8774
      -455.8514       -355.2074
  22294637.7424  -20364024.73048 -15565108.25346  22294635.2654   22294643.5964
      3042.6934       2370.9274
  23142609.1354  -13072144.02747  -9884465.82945  23142606.3164   23142616.6074
      4047.4304       3153.8374
 00  7 14  0 58 29.9980000  0  6G22G20G11G25G 1G16
  23186734.3664   -4054750.01647  -3131124.23745  23186730.6774   23186742.7144
      4148.6364       3232.6964
  20706864.6864  -30996760.79449 -23860171.48247  20706862.2384   20706867.9834
      3072.2194       2393.9364
  21102314.8764  -33420074.66149 -25707768.73047  21102312.8004   21102319.3304
     -1219.0414       -949.9004
  20660773.9274  -30809572.79049 -23684820.05747  20660771.9624   20660777.4954
      -469.1824       -365.5964
  22277293.0054  -20455168.76148 -15636129.49046  22277290.5054   22277299.3144
      3038.4134       2367.5944
  23119518.8174  -13193482.20747  -9979014.87445  23119516.6514   23119527.0314
      4046.6464       3153.2314
 00  7 14  0 58 59.9980000  0  6G22G20G11G25G 1G16
  23163068.2234   -4179113.16247  -3228030.38245  23163066.5934   23163076.8464
      4141.1034       3226.8294
  20689362.6644  -31088735.43149 -23931839.98947  20689360.2374   20689366.2044
      3058.4104       2383.1754
  21109324.4404  -33383241.93949 -25679067.96847  21109321.8814   21109328.2374
     -1237.5154       -964.2954
  20663503.0944  -30795229.55049 -23673643.51247  20663501.3954   20663507.1664
      -488.0094       -380.2664
  22259972.6614  -20546188.48748 -15707053.85746  22259970.3184   22259979.2154
      3028.5684       2359.9194
  23096432.6754  -13314802.32947 -10073549.88245  23096429.9994   23096440.1164
      4040.3104       3148.2904
 00  7 14  0 59 29.9980000  0  6G22G20G11G25G 1G16
  23139424.7704   -4303355.12247  -3324842.10045  23139423.0474   23139433.5024
      4142.3554       3227.8044
  20671919.4014  -31180399.24449 -24003266.30147  20671916.8384   20671923.0494
      3053.3774       2379.2554
  21116418.5714  -33345960.92949 -25650017.89347  21116416.0844   21116422.5464
     -1247.0524       -971.7264
  20666320.3664  -30780427.04049 -23662109.09947  20666318.3504   20666323.6604
      -497.9254       -387.9944
  22242687.9814  -20637017.59748 -15777829.67246  22242685.7704   22242695.2904
      3027.5734       2359.1444
  23073361.8594  -13436036.55147 -10168017.94745  23073359.9984   23073369.6664
      4042.8044       3150.2384
 00  7 14  0 59 59.9980000  0  6G22G20G11G25G 1G16
  23115785.9904   -4427583.12247  -3421642.92745  23115783.3084   23115793.9574
      4135.5464       3222.4964
  20654514.8194  -31271861.15149 -24074535.28047  20654512.3214   20654518.2854
      3040.2304       2369.0104
  21123576.4704  -33308344.89349 -25620706.75147  21123574.3004   21123580.9514
     -1264.5714       -985.3774
  20669202.9914  -30765278.19049 -23650304.80547  20669201.0684   20669206.2994
      -515.8284       -401.9434
  22225419.1504  -20727767.16448 -15848543.51146  22225416.8924   22225426.0814
      3018.5474       2352.1104
  23050288.1504  -13557293.74347 -10262503.94745  23050285.2144   23050295.6234
      4037.1484       3145.8234
 00  7 14  1  6 29.9980000  0  3G25G 1G16
  20714265.0964  -30528475.54049 -23465783.40347  20714263.3184   20714268.4314
      -697.4764       -543.4884
  22004034.8894  -21891144.19148 -16755069.62146  22004032.3524   22004040.6774
      2946.8914       2296.2774
  22751801.4534  -15125846.87348 -11484751.39946  22751799.0074   22751807.2364
      4004.4624       3120.3504
 00  7 14  1  6 59.9980000  0  6G22G20G11G25G 1G16
  22787434.4244   -6153073.85447  -4766178.32645  22787431.5274   22787440.5684
      4077.5534       3177.3044
  20417090.3404  -32519532.94449 -25046746.52747  20417087.7994   20417093.5144
      2898.8844       2258.8694
  21232193.0004  -32737565.04948 -25175943.96947  21232190.5444   21232197.6854
     -1450.5384      -1130.2884
  20718274.2104  -30507407.62849 -23449366.86047  20718272.2844   20718277.3824
      -709.9704       -553.2224
  21987215.6404  -21979528.38148 -16823940.32846  21987213.2044   21987221.8344
      2942.4704       2292.8324
  22728936.9704  -15245996.53348 -11578374.35146  22728934.5134   22728943.8434
      4002.5764       3118.8884
 00  7 14  1  7 29.9980000  0  6G22G20G11G25G 1G16
  22764173.6214   -6275305.32747  -4861423.45045  22764172.0074   22764180.8034
      4073.3154       3174.0084
  20400575.2914  -32606318.52149 -25114371.61147  20400572.9194   20400578.7674
      2889.0744       2251.2244
  21240513.7424  -32693838.37148 -25141871.28647  21240511.4514   21240518.7404
     -1462.3854      -1139.5194
  20722369.8474  -30485885.08649 -23432596.05547  20722367.9344   20722373.1404
      -722.5654       -563.0384
  21970437.2514  -22067698.76848 -16892644.43646  21970434.7714   21970443.2014
      2937.8494       2289.2294
  22706100.0634  -15366008.83948 -11671890.34246  22706097.3874   22706105.9214
      4000.4964       3117.2664
 00  7 14  1  7 59.9980000  0  6G22G20G11G25G 1G16
  22740941.1064   -6397390.84747  -4956554.84845  22740939.0234   22740948.8704
      4066.8844       3168.9974
  20384120.9044  -32692789.51949 -25181751.56647  20384118.3274   20384124.2274
      2877.0294       2241.8404
  21248905.3784  -32649739.33448 -25107508.45547  21248903.3534   21248910.3164
     -1476.2364      -1150.3104
  20726540.9064  -30463966.66949 -23415516.77547  20726538.9334   20726544.2534
      -737.2544       -574.4834
  21953688.4284  -22155712.07348 -16961226.13446  21953686.3434   21953694.8944
      2931.0664       2283.9464
  22683277.7744  -15485938.49448 -11765341.90846  22683275.2244   22683284.2814
      3996.2014       3113.9184
 00  7 14  1  8 29.9980000  0  6G22G20G11G25G 1G16
  22717737.0774   -6519330.13747  -5051572.29945  22717733.7774   22717744.4024
      4064.5354       3167.1664
  20367725.9364  -32778946.38749 -25248886.74047  20367723.1484   20367728.9414
      2869.0604       2235.6294
  21257367.4864  -32605273.47048 -25072859.78347  21257365.0974   21257372.2904
     -1485.8874      -1157.8344
  20730786.2574  -30441657.02749 -23398132.64447  20730784.3444   20730789.7144
      -747.7304       -582.6484
  21936969.7144  -22243570.74948 -17029687.35246  21936967.4004   21936975.9624
      2928.4824       2281.9324
  22660471.3114  -15605786.56848 -11858729.90346  22660468.9064   22660477.9564
      3995.9904       3113.7504
 00  7 14  1  8 59.9980000  0  6G22G20G11G25G 1G16
  22694560.9934   -6641111.97347  -5146467.05245  22694559.6294   22694570.5194
      4055.8604       3160.4094
  20351391.9654  -32864778.97049 -25315769.22247  20351389.4914   20351395.4604
      2854.8404       2224.5494
  21265899.8764  -32560435.21248 -25037920.93347  21265897.5264   21265904.9404
     -1501.6224      -1170.0934
  20735107.0004  -30418949.80049 -23380438.71047  20735105.1974   20735110.7474
      -764.3114       -595.5674
  21920281.5654  -22331266.90548 -17098021.92546  21920279.1504   21920287.6894
      2919.6994       2275.0884
  22637682.4424  -15725542.96848 -11952046.45646  22637679.8014   22637688.2944
      3989.5394       3108.7294
 00  7 14  1  9 29.9980000  0  6G22G20G11G25G 1G16
  22671414.6404   -6762755.08947  -5241253.72645  22671411.9534   22671421.2704
      4052.8424       3158.0514
  20335116.2164  -32950307.46749 -25382414.75747  20335113.7944   20335120.2194
      2846.3294       2217.9174
  21274497.7614  -32515249.69448 -25002711.49447  21274495.7554   21274503.3254
     -1511.5044      -1177.7934
  20739499.0184  -30395869.66249 -23362454.19247  20739497.1564   20739502.8414
      -775.0594       -603.9424
  21903620.5004  -22418823.34648 -17166247.63046  21903618.1194   21903625.9854
      2916.7114       2272.7584
  22614907.3104  -15845228.47648 -12045307.80346  22614904.0414   22614912.4564
      3988.7844       3108.1394
 00  7 14  1  9 59.9980000  0  6G22G20G11G25G 1G16
  22648291.1024   -6884269.84547  -5335940.36945  22648288.7694   22648298.6454
      4045.2184       3152.1084
  20318896.6634  -33035544.00049 -25448832.79047  20318894.1554   20318900.1474
      2833.2534       2207.7284
  21283159.8764  -32469733.80448 -24967244.62647  21283157.6374   21283164.6924
     -1525.7564      -1188.8994
  20743959.3764  -30372432.57949 -23344191.53547  20743957.4714   20743962.7804
      -790.2314       -615.7634
  21886982.0964  -22506254.13348 -17234375.42946  21886980.0024   21886988.6794
      2909.1834       2266.8934
  22592142.2354  -15964855.56348 -12138523.59946  22592139.6794   22592148.3254
      3983.5184       3104.0344
 00  7 14  1 10 29.9980000  0  6G22G20G11G25G 1G16
  22625207.4174   -7005572.83647  -5430462.00845  22625204.5444   22625214.6084
      4043.6004       3150.8434
  20302747.8964  -33120406.10249 -25514959.06047  20302745.2294   20302751.3794
      2826.1784       2202.2154
  21291898.8884  -32423809.98848 -24931459.88247  21291896.6094   21291903.9274
     -1533.8574      -1195.2134
  20748502.3804  -30348559.85849 -23325589.41847  20748500.1864   20748505.4414
      -799.2464       -622.7884
  21870384.8734  -22593478.94048 -17302342.72246  21870382.3494   21870390.6114
      2907.8044       2265.8194
  22569405.1974  -16084341.98348 -12231629.77646  22569401.9984   22569411.3824
      3984.2564       3104.6144
 00  7 14  1 10 59.9980000  0  6G22G20G11G25G 1G16
  22602146.4354   -7126760.89347  -5524894.08745  22602143.0634   22602153.8604
      4037.9194       3146.4234
  20286651.9004  -33204991.31749 -25580869.57947  20286649.3354   20286654.9264
      2815.1444       2193.6194
  21300695.6554  -32377580.74448 -24895437.14547  21300693.5164   21300700.9364
     -1545.7984      -1204.5164
  20753108.5274  -30324353.47049 -23306727.30647  20753106.5144   20753111.7334
      -812.1444       -632.8384
  21853806.3784  -22680597.70848 -17370227.39246  21853803.9574   21853812.3804
      2902.4684       2261.6624
  22546675.2834  -16203785.77948 -12324702.73346  22546672.6504   22546681.6774
      3981.0224       3102.0894
 00  7 14  1 11 29.9980000  0  6G22G20G11G25G 1G16
  22579116.1634   -7247785.80547  -5619199.05445  22579112.4334   22579122.1484
      4026.9174       3137.8534
  20270617.3614  -33289252.85749 -25646527.89147  20270614.9344   20270620.0694
      2798.8304       2180.9074
  21309559.0634  -32331003.85548 -24859143.51847  21309556.9094   21309564.2634
     -1562.8124      -1217.7714
  20757786.3074  -30299770.39849 -23287571.67547  20757784.4584   20757789.6644
      -830.1334       -646.8574
  21837256.4704  -22767565.79648 -17437994.64646  21837254.3244   21837262.7994
      2891.9714       2253.4814
  22523962.3934  -16323140.22548 -12417706.07046  22523959.6374   22523968.8304
      3972.5334       3095.4754
 00  7 14  1 11 59.9970000  0  6G22G20G11G25G 1G16
  22556141.5084   -7368507.50747  -5713267.75045  22556139.6744   22556150.3594
      4019.1554       3131.8014
  20254671.0644  -33373053.42949 -25711827.00447  20254668.3824   20254673.3764
      2785.8154       2170.7634
  21318513.1364  -32283951.62448 -24822479.49147  21318510.7774   21318518.1444
     -1576.3914      -1228.3554
  20762561.0454  -30274681.63049 -23268021.99547  20762558.8614   20762563.9694
      -844.6954       -658.2024
  21820761.6074  -22854248.01548 -17505539.14746  21820759.3334   21820767.4614
      2884.8224       2247.9124
  22501292.6564  -16442267.24748 -12510532.17646  22501290.6764   22501299.8444
      3967.3324       3091.4224
 00  7 14  1 12 29.9970000  0  6G22G20G11G25G 1G16
  22533194.8434   -7489097.84547  -5807234.06845  22533192.5534   22533202.5154
      4012.7514       3126.8144
  20238779.2614  -33456563.87949 -25776900.05147  20238776.7034   20238781.7104
      2774.2044       2161.7174
  21327525.8434  -32236590.86748 -24785575.06347  21327523.4204   21327530.6954
     -1588.4054      -1237.7164
  20767399.3684  -30249254.39649 -23248208.57747  20767397.3904   20767402.8684
      -857.7544       -668.3784
  21804287.4244  -22940817.45548 -17572995.76146  21804285.0664   21804293.6214
      2879.1144       2243.4634
  22478634.4024  -16561340.49048 -12603316.40646  22478631.6914   22478640.8284
      3963.5114       3088.4454
 00  7 14  1 12 59.9970000  0  6G22G20G11G25G 1G16
  22510263.6594   -7609609.73347  -5901139.27245  22510259.9654   22510270.6854
      4012.5354       3126.6454
  20222932.5664  -33539839.54649 -25841790.14447  20222929.9124   20222934.9114
      2768.7364       2157.4554
  21336584.7754  -32188986.13748 -24748480.52747  21336582.3694   21336589.2414
     -1594.0694      -1242.1294
  20772290.5134  -30223551.79649 -23228180.58947  20772288.4624   20772293.7324
      -864.5054       -673.6414
  21787824.5684  -23027331.53848 -17640409.24446  21787822.1664   21787830.2074
      2879.6974       2243.9174
  22455975.5364  -16680414.21948 -12696101.00546  22455972.5304   22455981.6794
      3965.9224       3090.3264
 00  7 14  1 13 29.9970000  0  6G22G20G11G25G 1G16
  22487375.5454   -7729883.79747  -5994859.16245  22487373.1234   22487382.5424
      4003.0644       3119.2674
  20207159.8674  -33622721.80049 -25906373.68347  20207157.4654   20207163.0414
      2754.1364       2146.0804
  21345718.7704  -32140983.86448 -24711076.21347  21345716.6634   21345723.7614
     -1608.7124      -1253.5434
  20777263.1864  -30197419.21549 -23207817.54647  20777261.1374   20777266.4944
      -880.2374       -685.8994
  21771401.4284  -23113634.14348 -17707657.92746  21771399.3704   21771407.3994
      2871.2164       2237.3064
  22433347.1344  -16799330.19448 -12788762.68046  22433343.9014   22433352.7164
      3959.1984       3085.0874
 00  7 14  1 13 59.9970000  0  6G22G20G11G25G 1G16
  22464525.2634   -7849959.87247  -6088424.77645  22464522.0464   22464532.1134
      4004.0314       3120.0154
  20191455.6384  -33705251.86149 -25970682.78847  20191452.8904   20191458.2514
      2750.0004       2142.8574
  21354919.9244  -32092629.92748 -24673397.87347  21354917.8114   21354925.4804
     -1612.7424      -1256.6824
  20782309.2364  -30170902.03849 -23187154.82247  20782307.4564   20782312.7434
      -885.3764       -689.9044
  21755010.8174  -23199768.50048 -17774775.50846  21755008.4314   21755016.6094
      2873.2674       2238.9074
  22410739.7624  -16918129.73748 -12881333.62946  22410736.4464   22410745.4434
      3962.9204       3087.9854
 00  7 14  1 14 29.9970000  0  6G22G20G11G25G 1G16
  22441712.8974   -7969835.57047  -6181834.23845  22441710.3814   22441720.4994
      3992.2574       3110.8454
  20175817.3394  -33787428.81749 -26034716.75147  20175815.0294   20175820.2274
      2733.1024       2129.6894
  21364187.8494  -32043928.26448 -24635448.57747  21364185.6134   21364192.9744
     -1629.3994      -1269.6604
  20787427.9224  -30144003.56349 -23166194.98247  20787425.9904   20787431.4134
      -903.1554       -703.7584
  21738652.0794  -23285735.82848 -17841762.93546  21738649.7364   21738657.0304
      2862.6064       2230.5974
  22388155.2254  -17036812.25848 -12973813.39246  22388152.6944   22388161.1994
      3953.9384       3080.9884
 00  7 14  1 14 59.9970000  0  6G22G20G11G25G 1G16
  22418943.5024   -8089492.15747  -6275072.96645  22418941.0354   22418949.9774
      3989.5234       3108.7114
  20160250.4714  -33869235.51449 -26098462.19747  20160247.6264   20160252.9924
      2725.3534       2123.6514
  21373523.9814  -31994866.69948 -24597218.83847  21373521.7384   21373529.2134
     -1636.7184      -1275.3634
  20792621.8474  -30116710.61849 -23144927.76747  20792619.6504   20792625.1384
      -911.6454       -710.3714
  21722327.2534  -23371521.28448 -17908608.64546  21722324.6804   21722332.5084
      2861.1734       2229.4804
  22365595.9644  -17155360.85748 -13066188.80946  22365593.4884   22365602.1074
      3954.0644       3081.0834
 00  7 14  1 15 29.9970000  0  6G22G20G11G25G 1G16
  22396206.0594   -8208981.45947  -6368181.34345  22396203.1834   22396212.1974
      3976.3504       3098.4554
  20144743.3244  -33950724.66249 -26161960.20147  20144740.8404   20144745.7064
      2707.1714       2109.4844
  21382917.1564  -31945503.12448 -24558753.78046  21382914.9414   21382923.0614
     -1654.2844      -1289.0504
  20797879.7274  -30089080.45249 -23123397.78147  20797877.7464   20797882.9374
      -930.3974       -724.9854
  21706026.1924  -23457179.92948 -17975355.53446  21706024.0854   21706031.8984
      2849.3974       2220.3074
  22343052.3924  -17273828.57048 -13158501.19746  22343049.8354   22343058.1024
      3943.7754       3073.0704
 00  7 14  1 15 59.9970000  0  6G22G20G11G25G 1G16
  22373501.7084   -8328287.18047  -6461146.66945  22373499.1454   22373509.8424
      3976.7824       3098.7884
  20129299.2544  -34031880.83249 -26225198.74247  20129297.0994   20129302.1224
      2702.7064       2106.0044
  21392370.1894  -31895827.04248 -24520045.20446  21392367.9834   21392375.7134
     -1657.9894      -1291.9374
  20803203.9764  -30061101.44849 -23101595.96947  20803201.9204   20803207.0684
      -935.3364       -728.8324
  21689752.5724  -23542698.49748 -18041993.26846  21689750.4394   21689758.2974
      2851.3844       2221.8544
  22320526.7644  -17392200.37048 -13250738.85046  22320524.1234   22320532.6854
      3947.1584       3075.7054
 00  7 14  1 16 29.9970000  0  6G22G20G11G25G 1G16
  22350838.4974   -8447387.52247  -6553951.98745  22350835.3584   22350844.4434
      3969.3164       3092.9634
  20113923.2634  -34112683.88049 -26288162.11147  20113920.7884   20113926.0294
      2690.3244       2096.3564
  21401885.6144  -31845822.83348 -24481080.93746  21401883.6114   21401891.3994
     -1669.4634      -1300.8784
  20808597.2494  -30032757.36749 -23079509.68147  20808595.5204   20808600.7664
      -948.0624       -738.7494
  21673509.4044  -23628058.97948 -18108507.81646  21673507.0844   21673514.4444
      2845.5114       2217.2774
  22298023.5914  -17510456.15748 -13342886.10646  22298020.9664   22298029.1664
      3942.6884       3072.2214
 00  7 14  1 16 59.9970000  0  6G22G20G11G25G 1G16
  22328208.6074   -8566301.35347  -6646611.97645  22328205.8024   22328215.5334
      3960.2244       3085.8824
  20098610.8504  -34193154.15549 -26350866.18847  20098607.9254   20098612.9764
      2676.3694       2085.4814
  21411459.1734  -31795516.12848 -24441880.96246  21411456.8444   21411464.0904
     -1682.3304      -1310.9064
  20814055.2404  -30004073.02749 -23057158.25947  20814053.6134   20814059.3744
      -962.1904       -749.7584
  21657291.8274  -23713283.99148 -18174916.80746  21657289.3594   21657296.4654
      2838.2084       2211.5884
  22275537.7014  -17628616.37948 -13434958.91246  22275535.2934   22275544.2234
      3936.6724       3067.5354
 00  7 14  1 17 29.9970000  0  6G22G20G11G25G 1G16
  22305629.1654   -8684960.89247  -6739073.79245  22305625.6344   22305634.9354
      3952.8364       3080.1234
  20083373.3114  -34273225.30349 -26413259.25647  20083370.9634   20083376.3694
      2664.1954       2075.9944
  21421101.9044  -31744845.33348 -24402397.28246  21421099.7524   21421106.4054
     -1693.2784      -1319.4354
  20819590.7274  -29974986.32049 -23034493.30947  20819588.8124   20819594.5294
      -974.4004       -759.2714
  21641112.3124  -23798309.35748 -18241170.21846  21641109.6164   21641117.1124
      2832.6924       2207.2894
  22253083.4734  -17746615.01048 -13526905.78746  22253080.7334   22253089.8834
      3932.4134       3064.2144
 00  7 14  1 17 59.9970000  0  7G22G20G11G25G 1G16G19
  22283090.7994   -8803400.90947  -6831364.57145  22283087.5074   22283096.8594
      3945.2154       3074.1964
  20068205.3884  -34352933.04849 -26475369.14747  20068202.8774   20068208.1814
      2651.8384       2066.3674
  21430806.3384  -31693851.21548 -24362661.65546  21430803.7014   21430810.5494
     -1704.2174      -1327.9604
  20825195.2374  -29945537.00549 -23011545.80847  20825193.0144   20825198.3554
      -986.6844       -768.8434
  21624962.8204  -23883172.87548 -18307297.52346  21624960.3824   21624967.7874
      2827.0634       2202.9034
  22230652.3344  -17864487.87148 -13618754.66546  22230649.8314   22230659.2284
      3927.9494       3060.7354
  24050915.2794   -6355763.42457  -4279712.64845  24050912.4134   24050929.2994
      4354.1714       3392.8374
 00  7 14  1 18 29.9970000  0  7G22G20G11G25G 1G16G19
  22260594.6344   -8921617.27547  -6923481.06245  22260591.9844   22260601.1824
      3937.8564       3068.4574
  20053107.6834  -34432274.17349 -26537193.36647  20053105.0024   20053110.0364
      2639.7194       2056.9244
  21440570.6524  -31642535.56848 -24322675.49546  21440568.5244   21440576.0084
     -1714.7344      -1336.1564
  20830867.7294  -29915725.55349 -22988316.11647  20830865.7784   20830871.1524
      -998.5694       -778.1054
  21608843.8474  -23967873.56048 -18373297.94946  21608841.6544   21608849.3154
      2821.7994       2198.8024
  22208246.8164  -17982231.91148 -13710503.16646  22208244.0304   22208252.8694
      3923.7734       3057.4844
  24026073.9064   -6486303.65747  -4381431.86645  24026071.3554   24026085.9214
      4350.6244       3390.0784
 00  7 14  1 18 59.9970000  0  7G22G20G11G25G 1G16G19
  22238140.7624   -9039612.23747  -7015425.04445  22238137.9024   22238147.4044
      3932.7824       3064.4994
  20038078.1064  -34511252.61349 -26598734.97447  20038075.4814   20038081.0544
      2630.0134       2049.3594
  21450395.6354  -31590907.06948 -24282445.56046  21450393.0924   21450400.3434
     -1722.7094      -1342.3674
  20836607.7594  -29885560.27049 -22964810.72047  20836606.0734   20836611.4264
     -1007.9204       -785.3924
  21592756.0324  -24052417.48248 -18439176.23046  21592753.8094   21592761.5534
      2818.9764       2196.5994
  22185864.7044  -18099851.09948 -13802154.39146  22185862.1234   22185870.7214
      3922.0194       3056.1174
  24001252.5784   -6616738.36447  -4483068.85545  24001249.6134   24001264.8324
      4349.4984       3389.2094
 00  7 14  1 19 29.9970000  0  7G22G20G11G25G 1G16G19
  22215723.6474   -9157410.41747  -7107215.69245  22215721.5944   22215730.3264
      3922.7414       3056.6774
  20023113.2674  -34589894.65849 -26660014.45647  20023110.6994   20023116.0484
      2615.2864       2037.8854
  21460273.4724  -31538997.02448 -24241996.23346  21460271.2194   21460278.5284
     -1735.5004      -1352.3364
  20842410.1544  -29855071.69749 -22941053.40747  20842408.1714   20842413.4714
     -1022.1274       -796.4614
  21576692.2564  -24136832.93248 -18504954.39346  21576689.8884   21576697.6324
      2811.2624       2190.5924
  22163501.1284  -18217372.24148 -13893729.21046  22163498.5024   22163507.4544
      3915.2974       3050.8794
  23976446.9264   -6747093.95447  -4584644.17945  23976443.7814   23976458.7684
      4343.3894       3384.4354
 00  7 14  1 19 59.9970000  0  7G22G20G11G25G 1G16G19
  22193350.3644   -9274985.67047  -7198832.63745  22193347.5254   22193356.5184
      3916.3464       3051.6904
  20008216.6074  -34668175.22449 -26721012.26147  20008214.0994   20008219.8434
      2604.3394       2029.3534
  21470208.8844  -31486785.42248 -24201311.92446  21470206.6684   21470214.3324
     -1744.3824      -1359.2574
  20848277.2984  -29824238.63549 -22917027.66147  20848275.5204   20848281.0284
     -1032.4504       -804.5084
  21560657.6104  -24221097.23948 -18570614.79246  21560655.3084   21560662.4764
      2807.3414       2187.5354
  22141160.8824  -18334770.10948 -13985207.97446  22141158.3544   22141167.2304
      3912.2534       3048.5034
  23951660.2774   -6877345.95347  -4686138.78845  23951657.4274   23951672.2804
      4341.0054       3382.5894
 00  7 14  1 20 29.9970000  0  7G22G20G11G25G 1G16G19
  22171018.5194   -9392334.69747  -7290273.27445  22171016.4414   22171026.4524
      3905.5344       3043.2654
  19993389.3204  -34746092.25549 -26781726.79347  19993386.8034   19993392.7754
      2588.9974       2017.3994
  21480201.5984  -31434274.87548 -24160394.66646  21480199.3174   21480207.2104
     -1757.4864      -1369.4684
  20854209.8524  -29793063.33649 -22892735.24247  20854207.9074   20854213.2864
     -1046.9994       -815.8424
  21544651.0884  -24305210.39048 -18636157.40646  21544648.6914   21544656.5034
      2799.0704       2181.0904
  22118844.2934  -18452042.86348 -14076589.24146  22118841.7324   22118850.7724
      3904.8564       3042.7424
  23926893.5514   -7007492.56147  -4787551.28645  23926891.3814   23926906.1234
      4334.2414       3377.3134
 00  7 14  1 20 59.9970000  0  7G22G20G11G25G 1G16G19
  22148720.2534   -9509514.43647  -7381582.01045  22148718.1114   22148727.2994
      3898.3294       3037.6574
  19978620.7534  -34823703.44249 -26842203.01047  19978618.0624   19978623.4964
      2577.1694       2008.1824
  21490239.1254  -31381528.41848 -24119293.58946  21490236.6764   21490244.7774
     -1766.8774      -1376.7844
  20860195.5314  -29761607.68949 -22868224.36547  20860193.4934   20860198.8894
     -1057.9004       -824.3374
  21528661.8834  -24389232.33648 -18701628.94846  21528659.5864   21528667.9864
      2794.4864       2177.5194
  22096541.0014  -18569248.31748 -14167918.06546  22096538.2254   22096546.8024
      3900.9884       3039.7284
  23902135.2274   -7137592.52447  -4888927.41545  23902133.2744   23902147.1914
      4331.1714       3374.9224
 00  7 14  1 21 29.9970000  0  7G22G20G11G25G 1G16G19
  22126485.9664   -9626353.61747  -7472625.39145  22126484.0654   22126493.5804
      3889.2974       3030.6194
  19963942.4364  -34900839.24349 -26902308.79647  19963939.6464   19963945.0454
      2563.6854       1997.6754
  21500352.5364  -31328381.43248 -24077880.40946  21500350.4354   21500358.1684
     -1777.7884      -1385.2884
  20866265.9724  -29729706.07249 -22843365.97347  20866264.2184   20866269.4684
     -1070.3594       -834.0464
  21512722.6864  -24472995.77448 -18766899.07646  21512720.2794   21512727.3184
      2788.2624       2172.6694
  22074282.7524  -18686217.05548 -14259062.43546  22074279.8054   22074288.4424
      3895.4724       3035.4314
  23877419.6424   -7267476.43847  -4990135.25145  23877417.3144   23877431.4414
      4326.2964       3371.1254
 00  7 14  1 21 59.9970000  0  7G22G20G11G25G 1G16G19
  22104300.5324   -9742940.44347  -7563472.13045  22104297.7754   22104307.4864
      3884.8564       3027.1564
  19949337.4214  -34977589.53349 -26962114.18247  19949334.7214   19949340.0124
      2554.8404       1990.7834
  21510524.3374  -31274928.56848 -24036228.88246  21510522.1214   21510529.6154
     -1783.9244      -1390.0674
  20872404.0104  -29697452.67549 -22818233.47347  20872401.8754   20872407.0494
     -1077.9904       -839.9904
  21496814.9064  -24556592.55748 -18832039.34746  21496812.4814   21496819.1774
      2786.7444       2171.4884
  22052052.1404  -18803038.96848 -14350092.38846  22052049.7074   22052057.7464
      3894.5444       3034.7064
  23852727.3264   -7397234.58547  -5091245.07345  23852724.4264   23852739.4064
      4326.1304       3370.9984
 00  7 14  1 22 29.9970000  0  7G22G20G11G25G 1G16G19
  22082134.9154   -9859420.14847  -7654235.40545  22082133.0874   22082141.6424
      3875.2464       3019.6694
  19934777.1404  -35054100.79449 -27021733.31347  19934774.8324   19934780.3364
      2540.8934       1979.9164
  21520725.5774  -31221321.35248 -23994457.08446  21520723.1484   21520731.3654
     -1794.9334      -1398.6484
  20878579.7624  -29664997.93049 -22792944.08347  20878577.8354   20878583.1814
     -1090.6124       -849.8274
  21480910.2004  -24640171.48648 -18897165.69946  21480907.8444   21480914.2894
      2780.1874       2166.3784
  22029821.7624  -18919860.73048 -14441122.23346  22029819.2294   22029827.5884
      3888.5684       3030.0504
  23828031.3764   -7527013.98647  -5192371.46145  23828028.3774   23828042.2454
      4320.8154       3366.8554
 00  7 14  1 22 59.9970000  0  7G22G20G11G25G 1G16G19
  22060030.0584   -9975585.83447  -7744753.97745  22060027.2294   22060036.7974
      3870.8004       3016.2034
  19920302.2374  -35130166.91049 -27081005.57947  19920299.7884   19920305.4024
      2532.0574       1973.0314
  21530994.3954  -31167358.69548 -23952408.32146  21530992.1364   21531000.1784
     -1800.7154      -1403.1534
  20884832.8554  -29632140.33249 -22767340.78547  20884830.7884   20884836.2014
     -1097.9924       -855.5774
  21465047.4864  -24723528.81148 -18962119.37946  21465045.0064   21465051.9394
      2778.8414       2165.3274
  22007630.4234  -19036476.32748 -14531991.41946  22007627.5994   22007636.3064
      3887.6784       3029.3574
  23803369.3264   -7656609.41547  -5293354.51045  23803366.3984   23803380.2584
      4320.6984       3366.7654
 00  7 14  1 23 29.9970000  0  7G22G20G11G25G 1G16G19
  22037971.8944  -10091500.12847  -7835076.65845  22037968.7294   22037978.2854
      3861.2764       3008.7824
  19905900.3144  -35205851.78849 -27139980.77947  19905897.5544   19905903.3554
      2518.1774       1962.2154
  21541317.6404  -31113109.44648 -23910136.24146  21541315.3734   21541323.4384
     -1811.3284      -1411.4224
  20891149.1364  -29598947.91449 -22741476.58847  20891147.1544   20891152.3134
     -1110.2034       -865.0934
  21449214.1114  -24806730.27548 -19026951.60546  21449211.8934   21449219.8164
      2772.5504       2160.4264
  21985466.2334  -19152949.68648 -14622749.77446  21985463.1704   21985472.0654
      3881.7824       3024.7594
  23778728.9684   -7786084.95647  -5394244.10945  23778727.0534   23778742.0434
      4315.5964       3362.7894
 00  7 14  1 23 59.9970000  0  7G22G20G11G25G 1G16G19
  22015974.9704  -10207088.81947  -7925145.63545  22015972.8514   22015981.9474
      3852.4674       3001.9144
  19891584.1264  -35281083.02249 -27198602.48447  19891581.5824   19891587.3794
      2505.1494       1952.0634
  21551708.0514  -31058506.12248 -23867588.25446  21551706.0534   21551713.7854
     -1820.9604      -1418.9284
  20897542.4424  -29565351.81249 -22715297.82647  20897540.2934   20897545.2494
     -1121.5204       -873.9104
  21433424.7334  -24889705.66648 -19091607.69346  21433422.5924   21433430.3904
      2767.1314       2156.2044
  21963342.1394  -19269208.31648 -14713340.81046  21963339.5524   21963348.2484
      3876.7424       3020.8344
  23754126.7794   -7915368.52147  -5494984.15645  23754125.4574   23754139.4864
      4311.2294       3359.3924
 00  7 14  1 24 29.9970000  0  7G22G20G11G25G 1G16G19
  21994005.8674  -10322535.40647  -8015103.87645  21994003.9044   21994011.9164
      3843.2474       2994.7354
  19877319.2224  -35356045.64049 -27257014.88247  19877316.6284   19877322.2294
      2491.7294       1941.6054
  21562130.4584  -31003738.46448 -23824912.21646  21562127.9044   21562135.6504
     -1830.8274      -1426.6164
  20903976.5254  -29531541.18149 -22688951.89047  20903974.1574   20903979.2004
     -1133.0644       -882.9064
  21417642.8744  -24972641.97148 -19156233.31546  21417640.2134   21417648.1544
      2761.3914       2151.7314
  21941224.5964  -19385437.29148 -14803908.73046  21941222.0404   21941230.9964
      3871.3204       3016.6094
  23729526.6884   -8044645.69147  -5595719.20845  23729524.2564   23729538.5814
      4306.6064       3355.7824
 00  7 14  1 24 59.9970000  0  7G22G20G11G25G 1G16G19
  21972094.3344  -10437685.91347  -8104831.40045  21972092.0294   21972100.1004
      3831.3054       2985.4264
  19863134.5534  -35430586.82849 -27315098.90047  19863131.8914   19863137.4704
      2475.6234       1929.0564
  21572611.0974  -30948658.91248 -23781993.15046  21572609.2134   21572616.8134
     -1843.2284      -1436.2804
  20910478.6744  -29497367.35949 -22662322.95947  20910476.9024   20910482.4504
     -1147.1814       -893.9064
  21401896.5134  -25055388.59248 -19220711.13746  21401893.9364   21401901.5734
      2753.0184       2145.2064
  21919142.2194  -19501484.01748 -14894334.64246  21919139.5364   21919146.9894
      3863.1034       3010.2094
  23704955.7514   -8173764.30247  -5696330.72045  23704953.4144   23704967.7044
      4299.2464       3350.0474
 00  7 14  1 25 29.9970000  0  7G22G20G11G25G 1G16G19
  21950226.4244  -10552607.35147  -8194380.44145  21950223.4404   21950231.5434
      3826.8904       2981.9904
  19849017.2184  -35504774.49449 -27372907.44847  19849014.4084   19849019.7064
      2467.0934       1922.4094
  21583138.4414  -30893340.57948 -23738888.02846  21583136.0714   21583143.4224
     -1847.8394      -1439.8724
  20917037.4664  -29462902.65649 -22635467.36547  20917035.4694   20917040.8704
     -1153.5634       -898.8794
  21386172.3334  -25138015.72948 -19285095.86046  21386170.5724   21386177.6924
      2752.3544       2144.6934
  21897080.9724  -19617416.42548 -14984671.50046  21897077.7874   21897085.5324
      3862.5664       3009.7894
  23680403.1954   -8302792.73347  -5796871.96145  23680400.3144   23680414.5754
      4299.4474       3350.2064
 00  7 14  1 25 59.9970000  0  7G22G20G11G25G 1G16G19
  21928396.8274  -10667315.22247  -8283763.07145  21928394.4134   21928403.9824
      3818.6834       2975.5944
  19834963.4914  -35578625.35449 -27430453.55547  19834960.9454   19834965.8774
      2454.7584       1912.7984
  21593706.9984  -30837804.79248 -23695613.44646  21593704.7624   21593711.6354
     -1856.1154      -1446.3204
  20923647.4554  -29428168.17149 -22608401.55347  20923645.2494   20923650.5664
     -1163.5804       -906.6854
  21370469.2304  -25220542.14648 -19349402.09147  21370466.5424   21370473.6164
      2747.9164       2141.2314
  21875037.8654  -19733251.01748 -15074932.11246  21875035.1904   21875043.0984
      3858.2114       3006.3934
  23655862.9464   -8431748.06247  -5897356.23445  23655860.3604   23655874.6354
      4295.9784       3347.5094
 00  7 14  1 26 29.9970000  0  7G22G20G11G25G 1G16G19
  21906620.4784  -10781747.32347  -8372930.81645  21906618.2974   21906628.1244
      3809.9424       2968.7814
  19820986.2674  -35652078.98749 -27487690.13147  19820983.3854   19820988.3124
      2442.0664       1902.9084
  21604327.0134  -30781996.34548 -23652126.41746  21604324.7224   21604331.5784
     -1864.5874      -1452.9234
  20930319.1204  -29393107.46649 -22581081.53447  20930317.0974   20930322.2534
     -1173.8324       -914.6754
  21354794.6014  -25302909.56448 -19413584.43847  21354792.2274   21354799.8334
      2743.1994       2137.5564
  21853025.3954  -19848927.33748 -15165069.40546  21853022.8114   21853030.1944
      3853.4614       3002.6954
  23631348.2524   -8560570.49247  -5997736.96245  23631346.2524   23631359.5874
      4292.0634       3344.4514
 00  7 14  1 26 59.9970000  0  7G22G20G11G25G 1G16G19
  21884921.9554  -10895777.82547  -8461785.59845  21884919.2434   21884928.5134
      3795.5914       2957.6014
  19807106.8474  -35725011.19149 -27544520.40647  19807104.4054   19807109.8654
      2423.6784       1888.5804
  21615021.8654  -30725795.76448 -23608333.83446  21615019.3934   21615026.4764
     -1878.5614      -1463.8114
  20937076.0364  -29357600.32449 -22553413.64347  20937074.0744   20937078.9724
     -1189.6654       -927.0104
  21339173.6584  -25384995.72748 -19477547.61547  21339171.5424   21339179.5594
      2732.8504       2129.4914
  21831066.6124  -19964321.47548 -15254986.83246  21831063.7034   21831071.7054
      3843.0674       2994.5964
  23606882.5234   -8689136.07447  -6097917.53045  23606880.4304   23606894.6104
      4282.5254       3337.0264
 00  7 14  1 27 29.9970000  0  7G22G20G11G25G 1G16G19
  21863262.6774  -11009600.61447  -8550478.53745  21863259.5024   21863268.4724
      3790.5344       2953.6624
  19793290.7494  -35797616.79649 -27601096.19147  19793288.2724   19793293.2754
      2414.6294       1881.5284
  21625752.8924  -30669402.94748 -23564391.45446  21625750.7714   21625757.8034
     -1883.0524      -1467.3114
  20943880.1994  -29321845.76549 -22525552.96547  20943877.8694   20943883.1524
     -1195.9894       -931.9394
  21323569.8474  -25466997.83248 -19541445.29347  21323567.3274   21323574.6114
      2731.9424       2128.7834
  21809124.2954  -20079628.21348 -15344836.15446  21809121.8184   21809129.9734
      3841.9994       2993.7614
  23582428.4864   -8817640.28947  -6198050.29945  23582427.1804   23582439.3794
      4282.3924       3336.9164
 00  7 14  1 27 59.9970000  0  7G22G20G11G25G 1G16G19
  21841658.7744  -11123129.62647  -8638942.56145  21841655.8694   21841664.1024
      3781.3564       2946.5074
  19779553.3844  -35869810.86549 -27657351.29647  19779550.2534   19779555.1004
      2401.6464       1871.4114
  21636535.6064  -30612737.90848 -23520236.95646  21636533.2444   21636541.4184
     -1891.3154      -1473.7484
  20950746.2394  -29285762.74749 -22497436.34747  20950744.0294   20950749.5614
     -1206.1354       -939.8454
  21307996.8504  -25548832.84848 -19605212.77647  21307994.6304   21308001.8454
      2727.1214       2125.0284
  21787214.8884  -20194762.09348 -15434550.77646  21787212.2944   21787220.7654
      3836.9624       2989.8384
  23558002.8054   -8945998.57347  -6298069.35045  23558000.3234   23558013.5554
      4278.2044       3333.6544
 00  7 14  1 28 29.9970000  0  7G22G20G11G25G 1G16G19
  21820116.0404  -11236331.55247  -8727151.71245  21820113.4314   21820122.2534
      3768.3724       2936.3884
  19765899.1764  -35941561.56049 -27713260.90947  19765896.1624   19765901.2434
      2384.7484       1858.2444
  21647374.7014  -30555773.72048 -23475849.36346  21647372.8324   21647382.0534
     -1903.2744      -1483.0674
  20957679.9414  -29249323.47849 -22469042.13647  20957678.0684   20957684.0334
     -1220.0554       -950.6924
  21292460.9374  -25630470.98048 -19668826.83547  21292458.8484   21292466.2364
      2718.5184       2118.3224
  21765344.0824  -20309691.80948 -15524106.32346  21765341.6784   21765350.6054
      3828.0604       2982.9004
  23533610.1964   -9074179.43347  -6397950.15345  23533608.2234   23533621.5794
      4270.2274       3327.4384
 00  7 14  1 28 59.9970000  0  7G22G20G11G25G 1G16G19
  21798631.2364  -11349237.76547  -8815130.44045  21798628.1034   21798637.2524
      3758.1904       2928.4544
  19752323.2874  -36012901.93949 -27768850.79547  19752320.6314   19752325.5864
      2370.7774       1847.3594
  21658265.1614  -30498548.36848 -23431258.26746  21658263.0164   21658271.7244
     -1912.2234      -1490.0434
  20964675.0934  -29212565.46349 -22440399.55047  20964673.1424   20964678.9574
     -1230.8844       -959.1304
  21276957.0984  -25711947.30248 -19732314.80247  21276954.7924   21276961.8864
      2712.8254       2113.8904
  21743506.1334  -20424449.66448 -15613527.94546  21743503.8064   21743512.1844
      3822.0364       2978.2074
  23509245.5574   -9202216.57547  -6497718.95845  23509243.4674   23509256.7104
      4265.1094       3323.4494
 00  7 14  1 29 29.9970000  0  7G22G20G11G25G 1G16G19
  21777193.7484  -11461891.77447  -8902912.64945  21777191.0824   21777199.3424
      3753.9894       2925.1854
  19738817.2464  -36083876.86849 -27824155.91447  19738814.5194   19738819.8994
      2362.9264       1841.2404
  21669195.0704  -30441111.70848 -23386502.51346  21669192.8814   21669201.6134
     -1914.8614      -1492.0994
  20971721.4344  -29175538.03549 -22411547.03347  20971719.3474   20971724.7244
     -1235.4804       -962.7124
  21261473.7044  -25793308.76448 -19795713.27746  21261471.4444   21261479.0874
      2713.3714       2114.3124
  21721693.2684  -20539081.06548 -15702851.04746  21721690.4714   21721698.4824
      3822.1474       2978.2944
  23484898.9284   -9330155.55947  -6597411.27245  23484896.6334   23484910.2274
      4266.2104       3324.3064
 00  7 14  1 29 59.9970000  0  7G22G20G11G25G 1G16G19
  21755800.8144  -11574311.39047  -8990512.23445  21755798.0624   21755807.0404
      3744.6284       2917.8894
  19725376.7854  -36154505.20749 -27879190.94747  19725374.2804   19725379.8354
      2349.7264       1830.9554
  21680160.6714  -30383487.77448 -23341600.84846  21680158.1984   21680167.0034
     -1922.6414      -1498.1594
  20978814.3534  -29138263.49249 -22382501.95547  20978812.3424   20978817.6234
     -1245.3044       -970.3664
  21246009.3604  -25874576.60548 -19859038.79246  21246006.9824   21246014.5164
      2708.6464       2110.6314
  21699900.0364  -20653604.70348 -15792090.18546  21699897.7294   21699904.9754
      3816.9234       2974.2234
  23460568.4224   -9458015.66847  -6697042.13745  23460565.9114   23460579.1734
      4261.9304       3320.9734
 00  7 14  1 30 29.9970000  0  7G22G20G11G25G 1G16G19
  21734472.4444  -11686394.77447  -9077849.82046  21734469.0904   21734478.3514
      3730.8654       2907.1654
  19712021.9764  -36224686.18849 -27933877.39047  19712019.5464   19712024.7404
      2332.3094       1817.3824
  21691180.7734  -30325580.63948 -23296478.50946  21691178.0034   21691186.5214
     -1934.5144      -1507.4114
  20985972.9054  -29100645.19949 -22353189.01847  20985970.7184   20985976.0514
     -1259.2004       -981.1934
  21230581.2164  -25955651.82648 -19922214.20447  21230578.6494   21230586.4494
      2699.7344       2103.6864
  21678146.6584  -20767919.50148 -15881166.57746  21678144.2024   21678151.6224
      3807.4414       2966.8344
  23436270.5104   -9585696.35847  -6796533.20245  23436268.4184   23436281.0624
      4253.4914       3314.3994
 00  7 14  1 30 59.9970000  0  7G22G20G11G25G 1G16G19
  21713196.9634  -11798193.27847  -9164965.44146  21713195.0184   21713203.2774
      3722.9034       2900.9594
  19698741.9604  -36294472.69949 -27988256.45447  19698739.5234   19698744.7884
      2320.7304       1808.3604
  21702242.0214  -30267448.21548 -23251180.61246  21702240.2324   21702248.9414
     -1940.3784      -1511.9804
  20993185.4974  -29062740.40449 -22323652.83947  20993183.4804   20993189.2564
     -1267.1104       -987.3584
  21215179.2014  -26036589.33548 -19985282.30947  21215176.9824   21215184.9434
      2696.7344       2101.3484
  21656423.7674  -20882078.53448 -15970121.59146  21656420.6774   21656427.7154
      3803.7994       2963.9954
  23411997.8034   -9713251.08547  -6895926.12745  23411995.0084   23412008.1524
      4250.8054       3312.3084
 00  7 14  1 31 29.9970000  0  7G22G20G11G25G 1G16G19
  21691968.2364  -11909751.09647  -9251893.50245  21691965.6274   21691974.0494
      3714.2534       2894.2184
  19685528.3924  -36363910.75249 -28042363.99247  19685525.9104   19685531.3874
      2308.5864       1798.8954
  21713338.5054  -30209141.26448 -23205746.71646  21713336.2314   21713344.1344
     -1946.6634      -1516.8784
  21000443.7654  -29024598.99649 -22293932.29347  21000441.6664   21000447.4904
     -1275.4944       -993.8904
  21199794.4554  -26117437.21248 -20048280.57847  21199792.0544   21199799.2314
      2693.2574       2098.6404
  21634720.3244  -20996127.04848 -16058990.49546  21634717.6084   21634724.9964
      3799.5764       2960.7054
  23387740.4474   -9840726.09947  -6995256.93545  23387737.8324   23387748.6124
      4247.6134       3309.8174
 00  7 14  1 31 59.9970000  0  7G22G20G11G25G 1G16G19
  21670802.1264  -12020978.86947  -9338564.35546  21670799.3564   21670807.8504
      3701.3254       2884.1484
  19672397.7644  -36432912.46049 -28096131.52547  19672395.2664   19672400.6924
      2292.0554       1786.0174
  21724482.6434  -30150576.94348 -23160112.27746  21724480.3304   21724488.3374
     -1957.1294      -1525.0334
  21007762.7204  -28986137.06948 -22263961.99047  21007760.6894   21007766.4354
     -1288.0784      -1003.6964
  21184442.9074  -26198109.64848 -20111142.13047  21184440.6624   21184447.7534
      2685.4614       2092.5654
  21613054.7334  -21109977.52048 -16147705.06346  21613052.0494   21613060.0714
      3791.0084       2954.0294
  23363512.8654   -9968034.09847  -7094457.61845  23363511.4294   23363524.1184
      4240.1144       3303.9714
 00  7 14  1 32 29.9970000  0  7G22G20G11G25G 1G16G19
  21649700.0904  -12131878.49847  -9424979.51646  21649696.4354   21649705.0364
      3691.7034       2876.6454
  19659349.8994  -36501480.83149 -28149561.39047  19659347.1914   19659352.3824
      2278.9924       1775.8374
  21735674.4264  -30091762.91448 -23114283.25946  21735672.3554   21735680.4954
     -1963.9864      -1530.3764
  21015141.4114  -28947361.40349 -22233747.21047  21015139.8344   21015145.2514
     -1297.0664      -1010.7004
  21169124.4154  -26278611.45348 -20173870.71947  21169121.8284   21169128.4064
      2681.1984       2089.2444
  21591426.9034  -21223632.47048 -16236267.28746  21591424.2454   21591432.0804
      3785.8624       2950.0184
  23339317.6384  -10095178.61847  -7193530.90945  23339316.2464   23339329.0334
      4236.0074       3300.7714
 00  7 14  1 32 59.9970000  0  7G22G20G11G25G 1G16G19
  21628649.9814  -12242492.09748  -9511171.80346  21628646.8874   21628656.1054
      3684.5894       2871.1074
  19646375.4634  -36569658.91249 -28202687.13847  19646373.2124   19646378.5114
      2268.5324       1767.6884
  21746904.7144  -30032747.32648 -23068297.18446  21746902.6994   21746911.1044
     -1968.0894      -1533.5724
  21022571.2144  -28908319.36949 -22203324.87147  21022569.3944   21022574.7764
     -1303.3114      -1015.5654
  21153828.8404  -26358988.02648 -20236501.72747  21153826.3214   21153833.4484
      2679.6284       2088.0194
  21569827.8504  -21337134.88448 -16324710.65646  21569825.3984   21569833.5964
      3783.3134       2948.0334
  23315146.2524  -10222203.23347  -7292510.75745  23315143.9404   23315156.8534
      4234.5934       3299.6664
 00  7 14  1 33 29.9970000  0  7G22G20G11G25G 1G16G19
  21607665.7814  -12352762.87648  -9597096.96346  21607662.8744   21607671.9104
      3674.0434       2862.8864
  19633486.5064  -36637391.37949 -28255465.65647  19633484.1384   19633489.8454
      2254.4834       1756.7394
  21758183.6754  -29973479.86848 -23022114.84946  21758181.0724   21758189.8424
     -1975.6314      -1539.4484
  21030061.2634  -28868960.10949 -22172655.34947  21030059.1154   21030064.7274
     -1313.0914      -1023.1864
  21138567.3124  -26439186.00248 -20298993.57547  21138565.0744   21138572.4834
      2674.4594       2083.9924
  21548268.6574  -21450429.37448 -16412991.99046  21548265.8114   21548273.8664
      3777.1644       2943.2424
  23291006.9874  -10349053.16347  -7391354.49045  23291004.7764   23291017.9544
      4229.5444       3295.7344
 00  7 14  1 33 59.9970000  0  7G22G20G11G25G 1G16G19
  21586741.0184  -12462721.97348  -9682779.25546  21586737.9984   21586746.7724
      3654.4854       2847.6434
  19620676.5504  -36704711.20049 -28307922.63747  19620673.7564   19620678.9704
      2231.5484       1738.8684
  21769501.9704  -29913998.51648 -22975765.85046  21769500.0274   21769508.5914
     -1991.8314      -1552.0734
  21037604.8844  -28829320.49049 -22141767.37447  21037602.5444   21037607.8784
     -1331.5294      -1037.5534
  21123333.5484  -26519240.37048 -20361373.51747  21123331.1614   21123339.1744
      2660.5904       2073.1864
  21526742.3444  -21563548.71148 -16501136.84646  21526739.6364   21526748.8114
      3762.1744       2931.5614
  23266895.4164  -10475761.82747  -7490088.18745  23266893.2024   23266906.1664
      4215.6844       3284.9364
 00  7 14  1 34 29.9970000  0  7G22G20G11G25G 1G16G19
  21565883.1884  -12572330.92948  -9768188.70846  21565880.8944   21565888.6294
      3650.7364       2844.7274
  19607951.4544  -36771581.47649 -28360029.32147  19607948.6014   19607954.1424
      2224.5014       1733.3764
  21780867.6454  -29854271.04548 -22929225.06846  21780865.5324   21780874.7794
     -1992.0314      -1552.2284
  21045207.6844  -28789367.03248 -22110634.84647  21045205.3624   21045210.4614
     -1333.9444      -1039.4364
  21108133.3874  -26599115.74248 -20423613.98947  21108131.1704   21108138.9424
      2662.5104       2074.6814
  21505256.9564  -21676455.27348 -16589115.88446  21505254.4724   21505262.9724
      3763.0104       2932.2114
  23242817.2834  -10602292.47747  -7588683.13845  23242815.4554   23242827.0574
      4217.7124       3286.5154
 00  7 14  1 34 59.9970000  0  7G22G20G11G25G 1G16G19
  21545081.5434  -12681647.35048  -9853370.24446  21545078.3214   21545086.6784
      3640.3234       2836.6134
  19595300.8314  -36838060.62449 -28411831.22947  19595298.2704   19595303.3594
      2210.8334       1722.7274
  21792267.4964  -29794360.87948 -22882541.91946  21792265.9734   21792274.8514
     -1998.6564      -1557.3904
  21052858.1024  -28749162.67148 -22079306.80147  21052856.1164   21052861.1304
     -1342.9184      -1046.4274
  21092956.7254  -26678872.73348 -20485762.21947  21092954.1854   21092961.5374
      2657.9754       2071.1464
  21483800.7564  -21789208.01548 -16676975.06946  21483797.9054   21483806.4764
      3757.2344       2927.7124
  23218761.3954  -10728704.18847  -7687185.44145  23218759.5914   23218771.6674
      4213.0544       3282.8894
 00  7 14  1 35 29.9970000  0  7G22G20G11G25G 1G16G19
  21524341.5564  -12790631.62148  -9938292.96246  21524339.0304   21524347.2844
      3627.8454       2826.8884
  19582732.0434  -36904110.14149 -28463298.36547  19582729.3424   19582734.5424
      2195.1224       1710.4834
  21803709.3024  -29734234.40948 -22835690.21946  21803707.5314   21803716.7934
     -2007.1624      -1564.0184
  21060563.0174  -28708673.25448 -22047756.63647  21060560.9884   21060566.1864
     -1353.6864      -1054.8204
  21077808.3054  -26758475.12848 -20547789.98947  21077805.9354   21077813.3474
      2651.4464       2066.0604
  21462381.3154  -21901767.74748 -16764683.84446  21462378.6734   21462386.8714
      3749.4094       2921.6144
  23194735.7674  -10854958.99247  -7785565.46145  23194733.5244   23194746.2564
      4206.5574       3277.8224
 00  7 14  1 35 59.9970000  0  7G22G20G11G25G 1G16G19
  21503662.0854  -12899309.25948 -10022976.72146  21503658.5024   21503666.5314
      3618.1574       2819.3394
  19570240.0184  -36969757.42949 -28514452.08247  19570237.3324   19570242.0574
      2182.2744       1700.4724
  21815187.2034  -29673923.86648 -22788695.08946  21815184.7444   21815193.2204
     -2012.6394      -1568.2874
  21068316.5104  -28667929.82048 -22016008.54147  21068314.3794   21068319.3014
     -1361.4894      -1060.8994
  21062684.2444  -26837951.78048 -20609719.78947  21062681.9074   21062689.8034
      2647.8914       2063.2894
  21440993.3694  -22014161.55648 -16852263.33946  21440990.8474   21440998.7074
      3744.4814       2917.7734
  23170734.4174  -10981084.57047  -7883844.78245  23170732.2934   23170745.0984
      4202.8014       3274.8994
 00  7 14  1 36 29.9970000  0  7G22G20G11G25G 1G16G19
  21483049.4364  -13007626.90448 -10107379.97846  21483046.8174   21483054.3944
      3608.8934       2812.1214
  19557834.4924  -37034950.69049 -28565252.00747  19557831.6024   19557836.2384
      2169.8774       1690.8134
  21826707.1124  -29613382.47948 -22741520.07946  21826705.1404   21826714.4014
     -2017.5214      -1572.0904
  21076126.9534  -28626884.87648 -21984025.50147  21076124.9774   21076130.0434
     -1368.7834      -1066.5824
  21047594.0844  -26917253.17748 -20671513.03647  21047591.5214   21047598.9414
      2644.8434       2060.9154
  21419646.6774  -22126337.56748 -16939673.11946  21419644.2274   21419651.5084
      3739.9064       2914.2124
  23146768.3514  -11107029.60747  -7981983.46545  23146765.9584   23146777.3934
      4199.4774       3272.3104
 00  7 14  1 36 59.9970000  0  7G22G20G11G25G 1G16G19
  21462495.9064  -13115634.88848 -10191541.93046  21462492.7234   21462500.6184
      3593.2374       2799.9224
  19545505.1104  -37099741.62449 -28615738.42947  19545502.2724   19545506.9304
      2151.2064       1676.2644
  21838261.6144  -29552666.84548 -22694209.29846  21838259.3044   21838267.8494
     -2028.4934      -1580.6414
  21083983.9684  -28585593.86848 -21951850.71947  21083982.2874   21083987.6104
     -1382.2034      -1077.0414
  21032526.8024  -26996433.10348 -20733211.62847  21032524.3224   21032531.5774
      2635.5484       2053.6734
  21398332.4584  -22238347.32648 -17026953.35946  21398329.5184   21398337.1514
      3729.1104       2905.7954
  23122826.0104  -11232846.31347  -8080022.13245  23122823.7164   23122834.5944
      4189.9624       3264.8984
 00  7 14  1 37 29.9970000  0  7G22G20G11G25G 1G16G19
  21441995.1574  -13223365.81348 -10275487.96446  21441992.5784   21441999.9324
      3587.3764       2795.3514
  19533245.4364  -37164163.91049 -28665937.60147  19533242.8434   19533247.8034
      2142.2444       1669.2824
  21849842.1274  -29491815.40248 -22646792.69346  21849839.5324   21849847.8584
     -2029.6134      -1581.5144
  21091881.5134  -28544094.49748 -21919513.58047  21091879.4004   21091884.7444
     -1385.7354      -1079.7904
  21017475.4144  -27075526.88748 -20794843.09947  21017473.1374   21017480.2734
      2636.0524       2054.0664
  21377043.1664  -22350223.89048 -17114129.81246  21377040.4074   21377047.4764
      3727.9874       2904.9254
  23098900.8054  -11358568.89147  -8177987.46745  23098898.8224   23098910.5144
      4190.1774       3265.0614
 00  7 14  1 37 59.9970000  0  7G22G20G11G25G 1G16G19
  21421579.2514  -13330656.85748 -10359091.25446  21421576.0564   21421583.0964
      3571.7264       2783.1584
  19521086.9344  -37228056.13849 -28715723.73747  19521084.2934   19521089.4964
      2123.6754       1654.8114
  21861476.4434  -29430671.29748 -22599148.04646  21861474.4034   21861483.5954
     -2040.2224      -1589.7814
  21099848.4494  -28502229.25848 -21886891.35247  21099846.0294   21099851.4854
     -1398.7974      -1089.9714
  21002470.8304  -27154374.81848 -20856283.00047  21002468.5834   21002476.4414
      2626.9704       2046.9884
  21355809.7384  -22461805.59948 -17201076.51446  21355806.8084   21355813.9534
      3717.2654       2896.5684
  23075025.4714  -11484036.12047  -8275753.83445  23075023.4584   23075034.3704
      4180.7954       3257.7504
 00  7 14  1 38 29.9970000  0  7G22G20G11G25G 1G16G19
  21401227.6174  -13437601.79048 -10442424.83646  21401225.0954   21401232.6564
      3557.4454       2772.0304
  19509011.2284  -37291513.42549 -28765170.95147  19509008.8604   19509013.7684
      2106.4574       1641.3964
  21873148.7964  -29369335.03648 -22551353.66546  21873146.5224   21873155.3844
     -2049.2474      -1596.8124
  21107865.8454  -28460097.45848 -21854061.41547  21107863.5534   21107868.8004
     -1410.3334      -1098.9614
  20987495.0154  -27233074.39948 -20917607.30047  20987492.5584   20987500.0294
      2619.3474       2041.0474
  21334614.9084  -22573187.46248 -17287867.49946  21334611.8154   21334618.7464
      3707.8704       2889.2474
  23051180.2884  -11609343.68747  -8373395.80245  23051177.9714   23051188.3594
      4172.7084       3251.4534
 00  7 14  1 38 59.9970000  0  7G22G20G11G25G 1G16G19
  21380937.9844  -13544221.21648 -10525504.72746  21380935.3424   21380942.8534
      3549.6434       2765.9454
  19497014.5054  -37354558.43649 -28814296.91547  19497011.7174   19497016.7694
      2095.7764       1633.0704
  21884852.8264  -29307833.79548 -22503430.72246  21884850.5724   21884858.7394
     -2051.6174      -1598.6624
  21115928.7184  -28417725.27048 -21821044.16047  21115926.4234   21115931.7354
     -1415.1824      -1102.7384
  20972542.1154  -27311649.70048 -20978834.76347  20972539.8914   20972547.2544
      2618.3074       2040.2384
  21313453.0434  -22684391.61348 -17374519.99646  21313450.1454   21313457.3894
      3705.0034       2887.0124
  23027361.2264  -11734514.31347  -8470931.04645  23027358.6184   23027369.4594
      4171.2244       3250.2904
 00  7 14  1 39 29.9960000  0  7G22G20G11G25G 1G16G19
  21360715.3364  -13650493.66748 -10608314.25446  21360712.3874   21360719.5574
      3536.9424       2756.0554
  19485099.3274  -37417172.08849 -28863086.74047  19485096.7614   19485102.1354
      2080.2234       1620.9524
  21896589.3314  -29246157.56848 -22455371.42646  21896586.8934   21896595.4084
     -2058.6844      -1604.1664
  21124039.5934  -28375101.51648 -21787830.88047  21124037.6954   21124042.9644
     -1424.8214      -1110.2484
  20957617.1684  -27390083.27848 -21039951.79847  20957614.7864   20957622.0124
      2612.4484       2035.6724
  21292329.4294  -22795396.98448 -17461017.60746  21292326.7984   21292333.9384
      3697.2484       2880.9694
  23003570.5864  -11859527.56947  -8568343.68845  23003568.2444   23003579.7444
      4164.8864       3245.3504
 00  7 14  1 39 59.9960000  0  7G22G20G11G25G 1G16G19
  21340560.1004  -13756409.14448 -10690845.65846  21340557.1644   21340565.0004
      3522.0814       2744.4714
  19473268.4854  -37479342.55549 -28911531.23247  19473266.1524   19473271.3004
      2062.5464       1607.1774
  21908361.7144  -29184291.06948 -22407163.85646  21908359.4744   21908368.5334
     -2067.7254      -1611.2104
  21132201.6114  -28332211.10648 -21754409.81647  21132199.5144   21132204.7044
     -1436.4384      -1119.3024
  20942720.4644  -27468366.06148 -21100951.32447  20942718.1874   20942725.5354
      2604.5104       2029.4884
  21271245.5214  -22906194.62048 -17547353.36446  21271242.8334   21271249.8344
      3687.3504       2873.2584
  22979812.5184  -11984376.32547  -8665628.13545  22979810.4564   22979822.5504
      4156.4484       3238.7864
 00  7 14  1 40 29.9960000  0  7G22G20G11G25G 1G16G19
  21320474.6074  -13861959.69748 -10773092.69746  21320471.5164   21320479.7494
      3511.0664       2735.8904
  19461523.0014  -37541064.90749 -28959626.54447  19461520.4584   19461526.0144
      2048.7964       1596.4654
  21920170.0814  -29122238.17048 -22358811.04946  21920167.7854   21920176.4234
     -2072.6674      -1615.0634
  21140413.8654  -28289056.38648 -21720782.79547  21140411.7694   21140416.7354
     -1444.0084      -1125.2004
  20927853.5134  -27546494.16548 -21161830.32547  20927851.0674   20927857.9384
      2600.5684       2026.4164
  21250201.9804  -23016777.67948 -17633521.91746  21250199.3474   21250206.7864
      3681.3644       2868.5934
  22956086.7504  -12109053.84347  -8762779.17045  22956084.9764   22956096.3204
      4151.9114       3235.2474
 00  7 14  1 40 59.9960000  0  7G22G20G11G25G 1G16G19
  21300465.3134  -13967104.40548 -10855023.49646  21300462.8014   21300471.1674
      3497.2774       2725.1464
  19449870.1464  -37602299.74249 -29007341.96747  19449867.8884   19449873.4594
      2032.3304       1583.6344
  21932020.8574  -29059964.55348 -22310286.26046  21932018.2754   21932027.1384
     -2080.1424      -1620.8864
  21148683.1234  -28245602.08848 -21686922.33947  21148680.8954   21148685.8124
     -1454.1114      -1133.0724
  20913022.7044  -27624430.58148 -21222559.95947  20913020.2324   20913027.1424
      2594.0364       2021.3264
  21229206.3424  -23127105.94848 -17719491.93746  21229204.1144   21229212.0714
      3672.6974       2861.8404
  22932401.2374  -12233521.36447  -8859766.57245  22932399.0934   22932410.7534
      4144.7724       3229.6844
 00  7 14  1 41 29.9960000  0  7G22G20G11G25G 1G16G19
  21280531.5504  -14071852.96248 -10936645.59146  21280529.3104   21280537.5114
      3489.9974       2719.4724
  19438309.0074  -37663058.19049 -29054686.17947  19438305.9834   19438311.4414
      2022.3764       1575.8764
  21943909.2404  -28997486.28048 -22261601.99646  21943907.3294   21943916.7504
     -2080.9614      -1621.5254
  21157006.1124  -28201863.56948 -21652840.40647  21157004.0274   21157009.1384
     -1457.5954      -1135.7874
  20898225.6164  -27702188.32548 -21283150.36847  20898223.2174   20898229.9104
      2594.0274       2021.3194
  21208257.9224  -23237191.05848 -17805272.48646  21208255.5754   21208263.4334
      3670.4654       2860.1014
  22908753.5814  -12357790.70947  -8956599.55245  22908751.3014   22908763.1184
      4144.0224       3229.0944
 00  7 14  1 41 59.9960000  0  7G22G20G11G25G 1G16G19
  21260655.5544  -14176302.26948 -11018034.51446  21260653.1794   21260660.9094
      3477.8124       2709.9794
  19426817.8974  -37723438.74649 -29101735.92947  19426815.5104   19426821.4444
      2007.5904       1564.3544
  21955817.4934  -28934906.34448 -22212838.50346  21955815.9364   21955824.7894
     -2086.4814      -1625.8264
  21165364.2204  -28157942.73148 -21618616.41447  21165361.8744   21165367.0334
     -1465.8094      -1142.1874
  20883444.1924  -27779867.32148 -21343679.41047  20883441.5404   20883448.0584
      2589.1994       2017.5574
  21187337.6374  -23347130.02748 -17890939.16446  21187334.9294   21187342.5024
      3663.4224       2854.6144
  22885124.6054  -12481960.31247  -9053354.82445  22885122.0484   22885133.8824
      4138.5064       3224.7984
 00  7 14  1 42 29.9960000  0  7G22G20G11G25G 1G16G19
  21240849.3414  -14280385.34148 -11099138.08046  21240847.1074   21240854.7274
      3461.1004       2696.9584
  19415413.0584  -37783375.46449 -29148439.83147  19415410.3064   19415415.5844
      1988.3014       1549.3264
  21967758.6224  -28872163.58248 -22163948.14446  21967756.0304   21967764.6534
     -2096.2974      -1633.4764
  21173768.3964  -28113777.67148 -21584202.11147  21173766.2264   21173771.5264
     -1478.3784      -1151.9814
  20868688.8384  -27857403.32548 -21404097.02247  20868686.5244   20868693.8444
      2579.9944       2010.3844
  21166457.4234  -23456857.01148 -17976440.66846  21166454.7154   21166462.2874
      3651.8344       2845.5844
  22861527.4234  -12605964.25247  -9149981.00245  22861524.9794   22861535.5334
      4128.5374       3217.0334
 00  7 14  1 42 59.9960000  0  7G22G20G11G25G 1G16G19
  21221104.7044  -14384150.37048 -11179993.79746  21221101.5014   21221108.6094
      3451.4024       2689.3994
  19404082.3624  -37842917.79149 -29194836.42347  19404079.8864   19404085.1794
      1976.1134       1539.8284
  21979718.8374  -28809312.15648 -22114973.10446  21979716.0614   21979725.0774
     -2098.9064      -1635.5064
  21182208.8734  -28069421.54848 -21549638.93347  21182206.9484   21182212.1404
     -1483.7324      -1156.1534
  20853951.4094  -27934847.87648 -21464443.37947  20853949.3004   20853956.3604
      2577.9154       2008.7634
  21145607.5194  -23566420.80348 -18061814.99146  21145605.1034   21145613.0574
      3647.3664       2842.1024
  22837951.7684  -12729852.83747  -9246517.30145  22837949.5274   22837961.2604
      4125.6544       3214.7844
 00  7 14  1 43 29.9960000  0  7G22G20G11G25G 1G16G19
  21201437.6764  -14487495.11248 -11260522.02246  21201435.0094   21201442.8854
      3435.7384       2677.1944
  19392845.8704  -37901965.38549 -29240847.50947  19392843.1894   19392848.8764
      1957.9754       1525.6954
  21991716.6344  -28746256.61348 -22065839.02246  21991715.0254   21991723.7734
     -2107.2394      -1642.0054
  21190704.7984  -28024777.85748 -21514851.67647  21190702.4194   21190707.6824
     -1494.9004      -1164.8574
  20839250.7114  -28012102.26648 -21524641.55247  20839248.3394   20839255.1414
      2569.9644       2002.5674
  21124808.7024  -23675720.92648 -18146983.86646  21124806.0234   21124813.6114
      3636.9284       2833.9684
  22814417.2864  -12853526.08547  -9342885.82545  22814415.4994   22814426.2084
      4116.8714       3207.9404
 00  7 14  1 43 59.9960000  0  7G22G20G11G25G 1G16G19
  21181848.9384  -14590435.39348 -11340735.09046  21181846.2184   21181853.9904
      3427.6754       2670.9094
  19381699.9984  -37960535.75649 -29286486.73547  19381697.4384   19381703.3444
      1947.5514       1517.5724
  22003751.3264  -28683018.98048 -22016563.05146  22003749.0974   22003757.5344
     -2107.7904      -1642.4314
  21199250.7024  -27979867.68948 -21479856.77947  21199248.7724   21199254.0664
     -1498.2244      -1167.4464
  20824582.3904  -28089185.59648 -21584706.43947  20824579.7854   20824587.1244
      2569.7764       2002.4204
  21104056.9934  -23784773.83248 -18231960.10946  21104054.1454   21104061.4354
      3634.1354       2831.7924
  22790920.7414  -12977001.70947  -9439100.33646  22790918.7454   22790929.5884
      4115.6904       3207.0204
 00  7 14  1 44 29.9960000  0  7G22G20G11G25G 1G16G19
  21162321.9494  -14693047.38948 -11420692.36046  21162319.0624   21162327.2854
      3411.2464       2658.1074
  19370630.5204  -38018706.27749 -29331814.39647  19370627.8994   19370633.7154
      1928.7534       1502.9224
  22015804.1164  -28619681.49848 -21967209.28346  22015801.8144   22015811.1624
     -2116.4894      -1649.2074
  21207832.2024  -27934772.32148 -21444717.57047  21207829.9944   21207835.2924
     -1509.8134      -1176.4774
  20809930.5504  -28166177.02448 -21644699.71147  20809928.3364   20809935.7834
      2561.2584       1995.7834
  21083336.8924  -23893656.40448 -18316803.61846  21083334.3244   21083341.4644
      3622.9884       2823.1044
  22767445.9014  -13100357.41847  -9535221.39546  22767443.7114   22767455.7254
      4106.2824       3199.6924
 00  7 14  1 44 59.9960000  0  7G22G20G11G25G 1G16G19
  21142848.1334  -14795380.79548 -11500432.54746  21142845.6474   21142853.5054
      3402.1804       2651.0474
  19359627.2034  -38076527.61849 -29376869.96847  19359624.8684   19359630.6714
      1917.3894       1494.0684
  22027866.1724  -28556299.72848 -21917821.00246  22027863.2524   22027871.8304
     -2117.6254      -1650.0944
  21216438.5494  -27889546.99148 -21409477.08847  21216436.3344   21216441.3064
     -1513.8304      -1179.6064
  20795287.2104  -28243129.12748 -21704662.33047  20795285.0994   20795292.2914
      2560.2404       1994.9894
  21062640.1544  -24002419.33148 -18401553.89846  21062637.6454   21062644.4394
      3619.2554       2820.1964
  22743985.8414  -13223644.58848  -9631289.06846  22743984.2354   22743994.5694
      4104.2634       3198.1154
 00  7 14  1 45 29.9960000  0  7G22G20G11G25G 1G16G19
  21123471.3764  -14897214.74148 -11579783.52246  21123468.2064   21123475.1014
      3386.9504       2639.1774
  19348732.6234  -38133780.30749 -29421482.44547  19348729.8624   19348735.9734
      1899.8214       1480.3814
  22039976.0294  -28492658.85848 -21868230.83846  22039974.2504   22039983.2434
     -2124.7944      -1655.6804
  21225110.2284  -27843975.62248 -21373966.95947  21225108.0914   21225113.1584
     -1523.8734      -1187.4324
  20780692.7734  -28319824.19648 -21764424.66247  20780690.3454   20780697.7384
      2553.1424       1989.4604
  21042008.1224  -24110842.34048 -18486039.29346  21042005.1994   21042012.4514
      3609.3294       2812.4624
  22720580.0374  -13346644.01047  -9727132.52246  22720577.6904   22720588.9304
      4096.0864       3191.7444
 00  7 14  1 45 59.9960000  0  7G22G20G11G25G 1G16G19
  21104168.5684  -14998646.49248 -11658821.10346  21104166.0764   21104173.7214
      3374.9594       2629.8324
  19337927.0394  -38190563.63549 -29465729.19647  19337924.6554   19337930.3854
      1885.6044       1469.3014
  22052116.7794  -28428862.60548 -21818519.58546  22052113.9914   22052123.0304
     -2128.4434      -1658.5244
  21233828.2104  -27798161.03348 -21338267.30647  21233826.0124   21233831.1904
     -1530.4594      -1192.5654
  20766128.1864  -28396363.03948 -21824065.25047  20766125.7084   20766132.5494
      2549.3474       1986.5014
  21021422.0864  -24219024.11448 -18570336.71446  21021419.0034   21021426.1514
      3602.6704       2807.2754
  22697209.3934  -13469455.25548  -9822829.36346  22697207.0364   22697218.1894
      4091.1814       3187.9234
 00  7 14  1 46 29.9960000  0  7G22G20G11G25G 1G16G19
  21084945.0134  -15099668.81948 -11737539.67146  21084942.2804   21084949.6184
      3360.2604       2618.3824
  19327211.9824  -38246871.64949 -29509605.56947  19327209.5424   19327215.4354
      1868.7174       1456.1434
  22064286.9574  -28364909.89048 -21768686.42246  22064284.1264   22064292.4454
     -2134.6004      -1663.3184
  21242592.9694  -27752101.48348 -21302376.78047  21242590.8634   21242596.3294
     -1539.6254      -1199.7064
  20751593.4764  -28472741.47548 -21883580.84947  20751591.3484   20751597.8984
      2543.0604       1981.6034
  21000882.7044  -24326957.96348 -18654440.94447  21000879.9134   21000887.5844
      3593.4104       2800.0574
  22673876.1164  -13592072.69848  -9918375.18046  22673874.0244   22673884.9094
      4083.7634       3182.1444
 00  7 14  1 46 59.9960000  0  7G22G20G11G25G 1G16G19
  21065798.8294  -15200281.21248 -11815938.81246  21065795.9534   21065803.4684
      3348.6654       2609.3454
  19316587.6974  -38302705.08949 -29553112.13947  19316584.9004   19316590.7224
      1855.0504       1445.4944
  22076484.7534  -28300806.16948 -21718735.58746  22076482.3794   22076491.1884
     -2137.4224      -1665.5214
  21251403.5594  -27705801.34548 -21266298.78347  21251401.7314   21251407.0794
     -1545.4434      -1204.2404
  20737089.3404  -28548961.74548 -21942973.19047  20737086.6234   20737093.7134
      2539.9294       1979.1624
  20980390.1834  -24434644.12448 -18738352.16247  20980387.5694   20980395.0664
      3587.2814       2795.2824
  22650579.2564  -13714497.51848 -10013770.89846  22650576.9634   22650587.8014
      4079.4574       3178.7924
 00  7 14  1 47 29.9960000  0  7G22G20G11G25G 1G16G19
  21046731.1324  -15300481.58148 -11894016.89046  21046728.4224   21046736.0894
      3333.2844       2597.3594
  19306053.6824  -38358063.08749 -29596248.23547  19306050.9984   19306056.3284
      1837.6104       1431.9044
  22088711.5264  -28236555.00648 -21668669.87346  22088708.8744   22088717.7774
     -2143.9054      -1670.5714
  21260259.5664  -27659263.23648 -21230035.35347  21260257.8174   21260263.2524
     -1554.9534      -1211.6514
  20722615.1404  -28625024.59048 -22002242.86247  20722612.8124   20722619.4384
      2533.0524       1973.8044
  20959945.8954  -24542081.28248 -18822069.35847  20959943.2194   20959950.6644
      3577.3384       2787.5324
  22627319.2184  -13836729.06448 -10109016.01446  22627316.9184   22627327.5274
      4071.3654       3172.4884
 00  7 14  1 47 59.9960000  0  7G22G20G11G25G 1G16G19
  21027730.7434  -15400328.29148 -11971819.39746  21027728.0494   21027735.6664
      3322.4994       2588.9534
  19295598.3654  -38413005.62849 -29639060.60047  19295595.6844   19295600.9704
      1824.7774       1421.9044
  22100953.2664  -28172221.28448 -21618539.83346  22100950.9294   22100959.7694
     -2145.5814      -1671.8764
  21269149.2304  -27612550.97948 -21193636.22947  21269146.7014   21269152.5624
     -1559.6794      -1215.3304
  20708158.6994  -28700991.60948 -22061437.86847  20708156.4794   20708163.5624
      2530.9524       1972.1674
  20939537.3684  -24649328.66848 -18905638.67247  20939534.5554   20939541.8564
      3572.0184       2783.3894
  22604084.3014  -13958827.74748 -10204157.61046  22604081.7034   22604092.2874
      4067.9894       3169.8514
 00  7 14  1 48 29.9960000  0  7G22G20G11G25G 1G16G19
  21008823.6454  -15499690.44848 -12049244.32746  21008820.5714   21008826.9104
      3302.6324       2573.4764
  19285245.9094  -38467403.67449 -29681448.68347  19285243.5984   19285249.4324
      1802.8784       1404.8404
  22113235.1274  -28107680.40047 -21568248.35846  22113233.4924   22113241.6944
     -2156.1024      -1680.0774
  21278095.0324  -27565539.25248 -21157003.75247  21278092.6034   21278098.3704
     -1573.2934      -1225.9424
  20693745.1124  -28776735.33648 -22120458.87447  20693742.7334   20693749.4504
      2519.8194       1963.4934
  20919189.1804  -24756256.54848 -18988959.02447  20919186.6444   20919193.6314
      3557.6394       2772.1834
  22580899.5984  -14080664.74548 -10299095.30546  22580897.3314   22580907.8464
      4055.6184       3160.2154
 00  7 14  1 48 59.9960000  0  7G22G20G11G25G 1G16G19
  20989987.9114  -15598665.38648 -12126367.54246  20989985.2894   20989992.3084
      3292.5354       2565.6064
  19274979.6864  -38521355.62849 -29723489.15447  19274977.0804   19274982.8774
      1790.8944       1395.5034
  22125536.9914  -28043035.46747 -21517875.81046  22125534.9314   22125543.6594
     -2156.6364      -1680.4934
  21287078.2854  -27518330.23248 -21120217.54047  21287076.4984   21287081.8534
     -1576.9554      -1228.7954
  20679355.3494  -28852356.21348 -22179384.16047  20679353.0284   20679359.4974
      2518.5794       1962.5274
  20898884.1474  -24862962.67148 -19072106.57447  20898881.2054   20898888.1024
      3553.1124       2768.6564
  22557744.5254  -14202339.17848 -10393906.32046  22557742.6464   22557753.6774
      4053.0214       3158.1904
 00  7 14  1 49 29.9960000  0  7G22G20G11G25G 1G16G19
  20971240.8534  -15697175.82348 -12203128.78046  20971238.7304   20971246.4494
      3276.4904       2553.1044
  19264812.2394  -38574785.78149 -29765123.02647  19264809.5284   19264815.3334
      1772.9094       1381.4864
  22137871.3034  -27978215.33748 -21467366.74946  22137869.4624   22137878.0454
     -2162.9444      -1685.4044
  21296113.3184  -27470852.30648 -21083221.79047  21296111.2684   21296116.8274
     -1586.4524      -1236.1944
  20665002.5914  -28927780.04348 -22238155.90947  20664999.9954   20665006.4264
      2511.4714       1956.9884
  20878634.6924  -24969371.16048 -19155022.20847  20878631.9724   20878638.6104
      3542.5734       2760.4454
  22534636.2894  -14323775.54148 -10488531.84246  22534633.9904   22534644.6204
      4044.4924       3151.5484
 00  7 14  1 49 59.9960000  0  7G22G20G11G25G 1G16G19
  20952550.9004  -15795399.61748 -12279666.66746  20952548.0894   20952555.2284
      3268.8594       2547.1594
  19254710.1414  -38627873.00649 -29806489.67847  19254707.5534   19254713.1244
      1763.4674       1374.1294
  22150205.8794  -27913403.46248 -21416864.12646  22150203.3034   22150211.9084
     -2160.6404      -1683.6144
  21305164.7274  -27423287.38148 -21046158.25046  21305162.4654   21305167.7164
     -1587.3354      -1236.8834
  20650652.6584  -29003187.08548 -22296914.57047  20650650.2614   20650656.8154
      2512.8884       1958.0934
  20858408.6594  -25075659.35148 -19237844.10647  20858406.0754   20858412.9934
      3540.5424       2758.8624
  22511538.6384  -14445152.73748 -10583111.25346  22511536.4634   22511547.1754
      4044.5074       3151.5584
 00  7 14  1 50 29.9960000  0  7G22G20G11G25G 1G16G19
  20933943.3604  -15893182.74448 -12355861.18446  20933940.4054   20933947.6344
      3253.1964       2534.9524
  19244702.5744  -38680464.81649 -29847470.28747  19244699.7094   19244705.2364
      1745.9914       1360.5124
  22162565.0744  -27848452.01248 -21366252.74646  22162562.7754   22162572.6594
     -2166.1434      -1687.9004
  21314260.7714  -27375486.68248 -21008910.98246  21314258.6944   21314264.0194
     -1596.0414      -1243.6674
  20636335.0984  -29078426.45948 -22355542.58347  20636332.9214   20636339.1744
      2506.3954       1953.0344
  20838234.6474  -25181674.73748 -19320453.42947  20838231.8624   20838238.8944
      3530.4794       2751.0204
  22488481.0684  -14566318.85948 -10677526.19246  22488478.9494   22488489.5254
      4036.5744       3145.3734
 00  7 14  1 50 59.9960000  0  7G22G20G11G25G 1G16G19
  20915436.0394  -15990434.98048 -12431642.00546  20915433.4034   20915440.7714
      3232.9574       2519.1844
  19234805.6264  -38732472.94249 -29887996.07147  19234802.6894   19234808.4544
      1723.9864       1343.3644
  22174967.9764  -27783277.00547 -21315467.17546  22174965.2344   22174974.5294
     -2176.0814      -1695.6434
  21323417.7054  -27327365.68748 -20971414.14046  21323415.9124   21323421.2604
     -1609.1964      -1253.9174
  20622065.8284  -29153411.29148 -22413972.26347  20622063.3874   20622069.7334
      2495.3844       1944.4534
  20818129.1674  -25287328.10348 -19402780.66047  20818126.4534   20818133.8024
      3515.8704       2739.6374
  22465481.1054  -14687185.96148 -10771708.14146  22465478.8824   22465489.0184
      4024.0504       3135.6164
 00  7 14  1 51 29.9960000  0  7G22G20G11G25G 1G16G19
  20897014.8974  -16087238.82748 -12507073.45746  20897012.5584   20897019.3844
      3217.7304       2507.3194
  19225004.0974  -38783980.98849 -29928132.18647  19225001.4374   19225006.4894
      1707.0384       1330.1594
  22187396.6114  -27717967.04147 -21264576.44646  22187394.0104   22187403.2394
     -2180.7984      -1699.3184
  21332619.4434  -27279012.01248 -20933735.99346  21332617.4344   21332622.9694
     -1617.1844      -1260.1414
  20607828.4494  -29228227.32448 -22472270.41047  20607826.3424   20607833.1084
      2489.5384       1939.8984
  20798077.4094  -25392702.46548 -19484890.49047  20798074.7904   20798081.7664
      3506.2544       2732.1454
  22442522.6744  -14807837.98548 -10865722.50546  22442519.9344   22442530.2014
      4016.5894       3129.8024
 00  7 14  1 51 59.9960000  0  7G22G20G11G25G 1G16G19
  20878676.5894  -16183609.69348 -12582167.53346  20878673.6054   20878680.2424
      3203.3114       2496.0844
  19215294.5274  -38835005.76949 -29967891.73447  19215291.7764   19215296.4284
      1691.0524       1317.7024
  22199845.9964  -27652543.25447 -21213597.01946  22199843.9474   22199852.5664
     -2184.3984      -1702.1244
  21341861.7444  -27230445.81948 -20895892.25146  21341859.4174   21341864.8844
     -1624.0974      -1265.5294
  20593620.6174  -29302892.47048 -22530450.98147  20593618.0734   20593624.8344
      2484.6064       1936.0564
  20778075.0304  -25497813.71548 -19566795.30247  20778072.3894   20778079.8344
      3497.5954       2725.3974
  22419600.1444  -14928291.91048 -10959582.49246  22419597.9604   22419608.3974
      4010.0984       3124.7444
 00  7 14  1 52 29.9960000  0  7G22G20G11G25G 1G16G19
  20860401.5674  -16279639.39748 -12656995.76646  20860399.3194   20860406.5924
      3190.3464       2485.9784
  19205658.4674  -38885640.26348 -30007347.16047  19205655.9914   19205660.9724
      1676.4154       1306.2964
  22212299.2164  -27587103.09047 -21162604.83346  22212296.6674   22212306.3934
     -2186.4434      -1703.7194
  21351125.8684  -27181763.41948 -20857957.96146  21351123.4614   21351128.7294
     -1629.5304      -1269.7634
  20579422.8354  -29377500.96448 -22588587.41247  20579420.3714   20579427.0854
      2481.1434       1933.3574
  20758106.1894  -25602754.34748 -19648567.17347  20758103.1884   20758110.0124
      3490.3084       2719.7184
  22396698.0504  -15048640.85848 -11053360.69246  22396695.9134   22396706.2404
      4005.0024       3120.7754
 00  7 14  1 52 59.9960000  0  7G22G20G11G25G 1G16G19
  20842224.0074  -16375165.34048 -12731431.46346  20842221.1404   20842228.6674
      3175.0214       2474.0384
  19196128.0784  -38935723.67448 -30046373.17147  19196125.5424   19196130.5474
      1659.5944       1293.1914
  22224784.7764  -27521490.05647 -21111477.95546  22224782.6874   22224791.9694
     -2190.6264      -1706.9814
  21360441.3524  -27132807.70448 -20819810.69846  21360439.3284   21360444.5594
     -1637.0594      -1275.6284
  20565266.1144  -29451893.62448 -22646555.67347  20565263.8504   20565270.5264
      2475.5274       1928.9784
  20738199.7094  -25707362.55048 -19730080.01047  20738196.8544   20738203.8724
      3480.6704       2712.2094
  22373846.7384  -15168724.56848 -11146932.22046  22373844.5384   22373855.3154
      3997.6854       3115.0734
 00  7 14  1 53 29.9960000  0  7G22G20G11G25G 1G16G19
  20824131.9834  -16470240.15548 -12805515.63446  20824129.3064   20824136.2334
      3157.8274       2460.6414
  19186692.0654  -38985310.33148 -30085012.10947  19186689.3944   19186694.2144
      1640.8314       1278.5694
  22237292.6834  -27455763.01048 -21060262.21846  22237290.4544   22237299.3984
     -2196.5624      -1711.6034
  21369798.0904  -27083636.38448 -20781495.43346  21369796.1554   21369801.7684
     -1646.3574      -1282.8744
  20551141.2264  -29526126.16048 -22704399.16247  20551138.7354   20551144.3704
      2467.9624       1923.0874
  20718345.9534  -25811691.46748 -19811375.22647  20718343.4744   20718350.5754
      3469.2454       2703.3064
  22351036.1124  -15288597.33048 -11240339.37446  22351033.8004   22351043.4014
      3988.4654       3107.8874
 00  7 14  1 53 59.9960000  0  7G22G20G11G25G 1G16G19
  20806120.9324  -16564887.72448 -12879266.89446  20806118.5904   20806125.7184
      3150.7294       2455.1094
  19177346.2204  -39034425.39048 -30123283.56547  19177343.2954   19177348.0564
      1632.2344       1271.8704
  22249816.2654  -27389951.79947 -21008980.91346  22249813.9344   22249822.5384
     -2192.1434      -1708.1584
  21379190.2534  -27034278.67448 -20743034.93246  21379188.4924   21379194.0224
     -1645.3554      -1282.0954
  20537040.3964  -29600225.34948 -22762138.75147  20537037.8964   20537043.7244
      2470.7324       1925.2464
  20698540.8704  -25915766.18148 -19892472.37047  20698538.4944   20698545.3294
      3467.8484       2702.2184
  22328260.0384  -15408284.71348 -11333602.06746  22328257.7014   22328267.9034
      3989.4424       3108.6494
 00  7 14  1 54 29.9960000  0  7G22G20G11G25G 1G16G19
  20788196.5394  -16659082.87648 -12952665.62146  20788193.2754   20788200.4474
      3132.8934       2441.2104
  19168094.4044  -39083045.00449 -30161168.96847  19168091.5464   19168096.2384
      1613.0084       1256.8894
  22262360.0464  -27324036.64447 -20957618.62145  22262357.3214   22262366.1454
     -2198.2354      -1712.9064
  21388622.4694  -26984713.82648 -20704413.01846  21388620.4514   21388626.1854
     -1654.9314      -1289.5544
  20522969.0104  -29674168.42448 -22819756.69347  20522966.7254   20522972.8774
      2462.8534       1919.1054
  20678789.7614  -26019561.30548 -19973351.64347  20678787.3354   20678794.0224
      3455.7764       2692.8124
  22305523.9164  -15527763.01348 -11426701.86046  22305521.6854   22305531.1774
      3979.7454       3101.0904
 00  7 14  1 54 59.9960000  0  7G22G20G11G25G 1G16G19
  20770352.7834  -16752851.60048 -13025732.06646  20770349.7514   20770356.9234
      3121.7704       2432.5434
  19158931.2624  -39131196.33149 -30198689.47847  19158928.5034   19158933.4874
      1600.5854       1247.2084
  22274916.9504  -27258049.65147 -20906200.33745  22274913.8344   22274923.5264
     -2197.3974      -1712.2514
  21398087.5454  -26934972.52448 -20665653.60846  21398085.9204   21398091.3604
     -1657.5694      -1291.6114
  20508921.3534  -29747984.35748 -22877275.56447  20508919.3194   20508926.3744
      2461.7864       1918.2764
  20659086.3654  -26123103.43448 -20054033.77447  20659083.7754   20659090.7544
      3450.5354       2688.7284
  22282822.0074  -15647059.57448 -11519660.03246  22282820.0324   22282829.6164
      3976.8474       3098.8364
 00  7 14  1 55 29.9960000  0  7G22G20G11G25G 1G16G19
  20752580.8714  -16846240.03048 -13098502.18446  20752578.2854   20752585.5614
      3105.2724       2419.6894
  19149847.9234  -39178927.24549 -30235882.39647  19149845.4984   19149850.4084
      1582.7734       1233.3304
  22287477.2304  -27192042.74447 -20854766.53745  22287474.7404   22287484.2394
     -2201.8214      -1715.7044
  21407577.3644  -26885106.43548 -20626796.95946  21407575.4244   21407580.7154
     -1665.5144      -1297.8014
  20494889.9004  -29821722.23248 -22934733.61347  20494887.7654   20494894.2834
      2455.3814       1913.2834
  20639422.0304  -26226439.82448 -20134555.58547  20639419.3544   20639426.7774
      3439.8434       2680.3954
  22260146.0384  -15766222.78548 -11612514.30346  22260143.6194   22260153.9624
      3968.6304       3092.4364
 00  7 14  1 55 59.9960000  0  7G22G20G11G25G 1G16G19
  20734901.5884  -16939145.35448 -13170895.86346  20734899.0204   20734906.6824
      3087.8584       2406.1194
  19140864.5134  -39226136.65349 -30272668.93947  19140861.9524   19140866.7044
      1564.1044       1218.7834
  22300059.0734  -27125919.31947 -20803241.93845  22300056.9994   22300067.3464
     -2206.8694      -1719.6334
  21417109.2194  -26835017.59248 -20587766.73346  21417107.0574   21417112.6214
     -1674.1474      -1304.5304
  20480891.7734  -29895282.23748 -22992053.05747  20480889.6504   20480896.2344
      2448.2164       1907.7014
  20619816.7794  -26329468.21348 -20214837.39147  20619814.0414   20619820.9764
      3428.3194       2671.4154
  22237515.1554  -15885151.65948 -11705185.97446  22237512.5674   22237522.3384
      3959.5674       3085.3704
 00  7 14  1 56 29.9960000  0  7G22G20G11G25G 1G16G19
  20717331.5344  -17031477.51248 -13242842.92146  20717328.5454   20717336.2154
      3072.6754       2394.2914
  19131996.8744  -39272735.99449 -30308980.11347  19131994.3984   19131999.2734
      1547.7064       1206.0054
  22312680.4914  -27059595.04947 -20751560.83745  22312678.4704   22312689.2014
     -2209.5584      -1721.7334
  21426699.4414  -26784620.94948 -20548496.66846  21426697.0774   21426702.7934
     -1680.3974      -1309.3984
  20466944.6204  -29968576.96848 -23049165.78447  20466942.4334   20466948.7404
      2443.3344       1903.8954
  20600286.1614  -26432099.11248 -20294809.47647  20600283.4314   20600290.6874
      3418.9684       2664.1294
  22214944.4724  -16003758.14348 -11797606.43346  22214942.4524   22214952.3204
      3952.7394       3080.0514
 00  7 14  1 56 59.9960000  0  7G22G20G11G25G 1G16G19
  20699840.0784  -17123393.85048 -13314465.94946  20699837.5124   20699844.2444
      3057.2084       2382.2364
  19123215.5334  -39318883.41449 -30344939.13847  19123212.8414   19123217.7224
      1531.0544       1193.0294
  22325308.6124  -26993232.56647 -20699849.98345  22325306.8824   22325318.7664
     -2212.3404      -1723.8954
  21436317.0094  -26734077.83748 -20509112.47846  21436315.1524   21436320.8634
     -1686.8174      -1314.4014
  20453017.3824  -30041766.31148 -23106196.39647  20453014.8924   20453021.6254
      2438.2264       1899.9154
  20580801.6514  -26534489.96748 -20374594.50447  20580799.1254   20580806.6914
      3409.3414       2656.6274
  22192405.5404  -16122200.53148 -11889899.02946  22192403.4924   22192412.8994
      3945.6304       3074.5124
 00  7 14  1 57 29.9960000  0  7G22G20G11G25G 1G16G19
  20682437.0714  -17214848.80348 -13385729.46046  20682434.8164   20682441.0504
      3040.0844       2368.8934
  19114528.2874  -39364534.90549 -30380511.72247  19114525.8254   19114530.4154
      1512.7764       1178.7864
  22337951.7924  -26926792.15047 -20648078.40345  22337950.0874   22337962.1394
     -2216.6464      -1727.2494
  21445970.7644  -26683347.99448 -20469582.77846  21445968.6604   21445974.2244
     -1694.7454      -1320.5794
  20439117.6034  -30114807.45348 -23163111.53247  20439115.3554   20439122.1634
      2431.5644       1894.7254
  20561371.8204  -26636595.68048 -20454157.34647  20561369.2094   20561376.0634
      3398.0924       2647.8644
  22169905.4764  -16240434.81948 -11982029.46946  22169903.6964   22169913.6014
      3936.9824       3067.7684
 00  7 14  1 57 59.9960000  0  7G22G20G11G25G 1G16G19
  20665107.5574  -17305915.30948 -13456690.27546  20665105.2444   20665112.0044
      3031.0414       2361.8484
  19105921.2014  -39409765.33549 -30415756.19847  19105918.5734   19105923.2974
      1502.6664       1170.9074
  22350596.4714  -26860352.88247 -20596307.72645  22350594.6744   22350603.9354
     -2212.5914      -1724.0934
  21455645.2534  -26632509.88348 -20429968.71246  21455642.8634   21455648.3224
     -1694.3494      -1320.2714
  20425232.5284  -30187776.46748 -23219970.46747  20425230.0514   20425236.5194
      2433.1234       1895.9394
  20541982.0874  -26738490.00148 -20533555.46347  20541979.3514   20541985.9534
      3394.9834       2645.4384
  22147431.7204  -16358536.16648 -12074056.32546  22147429.5294   22147439.5064
      3936.5004       3067.3964
 00  7 14  1 58 29.9960000  0  7G22G20G11G25G 1G16G19
  20647872.7804  -17396483.90148 -13527263.11446  20647869.7354   20647877.3154
      3009.1064       2344.7564
  19097414.9324  -39454466.64949 -30450588.37347  19097412.1734   19097417.0034
      1479.7294       1153.0354
  22363258.4574  -26793811.03747 -20544457.10645  22363256.4554   22363267.1854
     -2221.2294      -1730.8224
  21465360.0884  -26581458.57648 -20390188.51846  21465357.7354   21465363.1994
     -1706.7374      -1329.9254
  20411380.6994  -30260566.62848 -23276690.03447  20411378.4104   20411384.6674
      2421.8724       1887.1714
  20522653.4594  -26840064.48748 -20612704.35547  20522650.5214   20522656.7484
      3379.0114       2632.9934
  22125003.1084  -16476396.61948 -12165895.47046  22125001.2714   22125010.7904
      3923.1754       3057.0124
 00  7 14  1 58 59.9960000  0  7G22G20G11G25G 1G16G19
  20630743.9794  -17486493.46148 -13597400.32146  20630741.6264   20630749.0084
      2997.3444       2335.5904
  19089020.4754  -39498579.34649 -30484961.88947  19089018.0014   19089022.6954
      1467.0124       1143.1264
  22375951.8304  -26727111.36547 -20492483.49445  22375949.0644   22375959.4954
     -2219.5024      -1729.4774
  21475125.8044  -26530137.41448 -20350198.04346  21475123.9304   21475129.6384
     -1708.7294      -1331.4764
  20397573.7374  -30333119.52848 -23333224.73047  20397571.5434   20397578.2054
      2420.8774       1886.3974
  20503396.7054  -26941257.75748 -20691556.18847  20503393.9474   20503400.2834
      3373.1354       2628.4164
  22102633.3454  -16593956.75548 -12257500.59146  22102630.6754   22102639.7074
      3920.0484       3054.5794
 00  7 14  1 59 29.9960000  0  7G22G20G11G25G 1G16G19
  20613695.4974  -17576084.73648 -13667211.60246  20613693.1754   20613700.5554
      2975.1844       2318.3244
  19080711.0684  -39542244.97749 -30518987.04047  19080708.5694   19080713.3174
      1443.9414       1125.1484
  22388646.7794  -26660399.80147 -20440500.62445  22388644.1424   22388654.8364
     -2228.0334      -1736.1244
  21484915.6464  -26478691.47048 -20310110.34446  21484913.6074   21484919.4374
     -1721.0794      -1341.1004
  20383785.9624  -30405577.98048 -23389685.82547  20383783.6154   20383790.1914
      2409.5664       1877.5834
  20484186.0464  -27042211.16248 -20770221.11647  20484182.9804   20484189.4924
      3356.9594       2615.8124
  22080292.1084  -16711358.43048 -12348982.24746  22080289.4814   22080299.0354
      3906.5794       3044.0824
 00  7 14  1 59 59.9960000  0  7G22G20G11G25G 1G16G19
  20596746.3734  -17665157.98548 -13736619.24846  20596743.0744   20596750.2114
      2962.9774       2308.8094
  19072505.3134  -39585365.03349 -30552587.07147  19072502.7404   19072507.7144
      1430.7884       1114.8994
  22401361.9614  -26593582.30147 -20388435.22745  22401359.6464   22401369.9134
     -2226.4434      -1734.8904
  21494747.3114  -26427026.27148 -20269851.79846  21494744.9954   21494751.0474
     -1723.2284      -1342.7714
  20370034.1624  -30477844.95148 -23445997.71247  20370031.4884   20370037.9624
      2408.2704       1876.5744
  20465038.9414  -27142825.15548 -20848621.56047  20465036.4314   20465043.0044
      3350.6824       2610.9184
  22057999.2544  -16828503.72048 -12440264.13446  22057997.2684   22058006.7944
      3903.0814       3041.3554
 00  7 14  2  7 59.9950000  0  6G20G11G25G 1G16G19
  18954586.9404  -40205032.08448 -31035444.31747  18954584.3384   18954588.7314
      1152.8514        898.3264
  22606159.3594  -25517375.67147 -19549835.89045  22606156.6524   22606167.8164
     -2250.3774      -1753.5324
  21656492.0504  -25577059.03548 -19607540.67346  21656489.5984   21656495.5014
     -1812.1834      -1412.0914
  20154041.2554  -31612891.05448 -24330448.71847  20154039.1114   20154045.4064
      2324.2234       1811.0814
  20166909.9344    -670414.50149   -501442.77447  20166907.3864   20166914.5884
      3177.2104       2475.7474
  21707202.1124  -18671947.36848 -13876711.40446  21707200.0474   21707208.5034
      3779.7164       2945.2294
 00  7 14  2  8 29.9950000  0  7G22G20G11G25G 1G16G19
  20323126.8834  -19103032.07348 -14857039.37946  20323123.9534   20323130.5234
      2676.7254       2085.7594
  18948063.9614  -40239310.28649 -31062154.60247  18948061.4724   18948065.9564
      1137.0694        886.0274
  22619016.9504  -25449812.54247 -19497189.52045  22619014.0664   22619024.8134
     -2249.0454      -1752.5014
  21666859.4924  -25522575.40048 -19565085.94746  21666857.5534   21666863.3984
     -1815.3074      -1414.5224
  20140796.4204  -31682496.30348 -24384686.54547  20140793.9104   20140799.5524
      2320.8384       1808.4444
  20148812.8044    -765515.30449   -575547.26647  20148810.3154   20148817.4534
      3167.6044       2468.2624
  21685655.2304  -18785177.05648 -13964942.20146  21685652.9364   21685661.2184
      3773.6064       2940.4684
 00  7 14  2  8 59.9950000  0  7G22G20G11G25G 1G16G19
  20307911.2474  -19182989.51448 -14919343.82246  20307908.6144   20307914.6204
      2656.5164       2070.0084
  18941637.6224  -40273076.02048 -31088465.56347  18941635.3734   18941640.5104
      1116.8294        870.2574
  22631873.3344  -25382248.69947 -19444542.60345  22631870.4884   22631881.6724
     -2252.2684      -1755.0024
  21677251.8644  -25467961.00448 -19522529.33146  21677250.1174   21677256.4444
     -1822.7884      -1420.3514
  20127577.0544  -31751961.02748 -24438814.86547  20127574.8164   20127581.1254
      2312.9954       1802.3324
  20130778.1254    -860288.42949   -649396.42247  20130775.5224   20130782.6354
      3153.4464       2457.2294
  21664150.0354  -18898184.54048 -14052999.85846  21664148.1054   21664156.3904
      3763.0224       2932.2214
 00  7 14  2  9 29.9950000  0  7G22G20G11G25G 1G16G19
  20292797.3004  -19262416.62748 -14981235.01346  20292794.2504   20292800.6424
      2640.8034       2057.7684
  18935313.4484  -40306311.59848 -31114363.41547  18935311.0914   18935315.6904
      1101.1554        858.0434
  22644734.1344  -25314670.37947 -19391884.39745  22644731.0004   22644741.8334
     -2250.6734      -1753.7694
  21687672.5564  -25413201.16648 -19479859.39946  21687670.6614   21687676.7654
     -1825.6044      -1422.5444
  20114388.3494  -31821268.34748 -24492820.53247  20114386.0024   20114392.1854
      2309.7854       1799.8314
  20112809.9324    -954714.75249   -722975.33947  20112807.1534   20112813.9694
      3143.8954       2449.7884
  21642691.1674  -19010952.05348 -14140870.53746  21642689.2594   21642697.1124
      3757.0374       2927.5584
 00  7 14  2  9 59.9950000  0  7G22G20G11G25G 1G16G19
  20277776.9824  -19341342.92548 -15042735.96046  20277774.3664   20277781.5314
      2624.2654       2044.8804
  18929084.3754  -40339048.27948 -31139872.51247  18929081.6494   18929086.3474
      1084.7254        845.2404
  22657589.8014  -25247112.69247 -19339242.25545  22657587.6254   22657597.4584
     -2249.7584      -1753.0494
  21698114.6404  -25358329.52548 -19437102.34646  21698112.6914   21698118.8394
     -1829.0834      -1425.2554
  20101223.9084  -31890450.28948 -24546728.50547  20101221.3764   20101227.1304
      2305.7824       1796.7124
  20094901.0374   -1048824.24349   -796307.38347  20094898.5694   20094905.4164
      3133.4764       2441.6694
  21621271.8284  -19123510.82548 -14228578.56146  21621269.9704   21621277.8124
      3750.2534       2922.2724
 00  7 14  2 10 29.9950000  0  7G22G20G11G25G 1G16G19
  20262867.7574  -19419692.04948 -15103787.16446  20262865.0924   20262872.1324
      2604.1784       2029.2284
  18922963.4224  -40371211.34248 -31164934.63047  18922961.0754   18922965.9634
      1064.7474        829.6724
  22670454.2614  -25179504.62647 -19286560.86645  22670451.9614   22670464.0484
     -2252.2164      -1754.9634
  21708590.8044  -25303274.32948 -19394202.25646  21708589.1004   21708595.3524
     -1836.0104      -1430.6584
  20088096.8704  -31959432.80249 -24600481.08547  20088094.5314   20088100.3854
      2298.3044       1790.8864
  20077067.4504   -1142540.93449   -869333.34247  20077065.0964   20077071.9944
      3119.5274       2430.7984
  21599906.2084  -19235786.23648 -14316065.78646  21599904.2124   21599912.7064
      3739.9674       2914.2574
 00  7 14  2 10 59.9950000  0  7G22G20G11G25G 1G16G19
  20248049.3764  -19497560.65748 -15164463.93946  20248046.9664   20248054.1794
      2581.7544       2011.7534
  18916933.9174  -40402898.90048 -31189626.23747  18916931.2874   18916935.8034
      1042.5424        812.3704
  22683310.4414  -25111948.14547 -19233919.69245  22683308.0644   22683318.9544
     -2256.8594      -1758.5844
  21719083.2784  -25248136.28748 -19351237.60246  21719081.7044   21719087.9384
     -1845.0684      -1437.7144
  20074989.3614  -32028314.89849 -24654155.42147  20074986.7284   20074992.6334
      2288.6144       1783.3364
  20059290.2974   -1235961.47949   -942128.54047  20059287.6014   20059294.2124
      3103.2744       2418.1354
  21578576.0874  -19347876.22148 -14403408.52246  21578573.9714   21578582.8174
      3727.4254       2904.4834
 00  7 14  2 11 29.9950000  0  7G22G20G11G25G 1G16G19
  20233352.5444  -19574795.21348 -15224646.65546  20233349.6234   20233356.8404
      2563.5584       1997.5764
  18911023.6954  -40433958.14748 -31213828.23947  18911021.1134   18911025.4454
      1024.5394        798.3424
  22696186.1884  -25044294.17647 -19181202.56145  22696183.1204   22696193.3464
     -2257.0304      -1758.7164
  21729620.6084  -25192765.71148 -19308091.75046  21729618.4984   21729624.6094
     -1849.8104      -1441.4084
  20061929.0634  -32096944.38349 -24707632.91147  20061926.7754   20061932.4944
      2283.1494       1779.0754
  20041598.3474   -1328931.60649  -1014572.75847  20041595.7434   20041602.5274
      3091.1934       2408.7214
  21557310.5554  -19459627.98448 -14490487.69546  21557308.7494   21557317.2084
      3719.1124       2898.0034
 00  7 14  2 11 59.9950000  0  7G22G20G11G25G 1G16G19
  20218757.2034  -19651492.46248 -15284410.70246  20218755.0674   20218761.8724
      2550.3714       1987.3024
  18905213.6874  -40464487.46148 -31237617.30047  18905211.2904   18905216.0634
      1011.6334        788.2844
  22709058.3164  -24976644.76947 -19128488.95945  22709056.5324   22709067.1764
     -2252.0694      -1754.8514
  21740182.1514  -25137263.56148 -19264843.36946  21740180.0254   21740186.6234
     -1849.4094      -1441.0954
  20048898.4384  -32165420.31649 -24760990.74747  20048896.2354   20048902.5694
      2282.8164       1778.8174
  20023973.9144   -1421548.49749  -1086741.72947  20023971.4214   20023978.0004
      3084.1524       2403.2354
  21536090.5924  -19571139.79848 -14577379.90446  21536088.4174   21536097.1764
      3715.8884       2895.4924
 00  7 14  2 12 29.9950000  0  7G22G20G11G25G 1G16G19
  20204281.6364  -19727565.90548 -15343688.65446  20204278.9324   20204285.4644
      2524.2754       1966.9664
  18899521.6754  -40494402.00048 -31260927.31747  18899519.0014   18899523.5134
       985.8764        768.2154
  22721947.3424  -24908918.74047 -19075715.67745  22721944.5324   22721955.1714
     -2259.8284      -1760.9004
  21750784.0244  -25081548.02048 -19221428.73246  21750781.9564   21750789.0084
     -1861.7534      -1450.7164
  20035913.2454  -32233658.52249 -24814163.33947  20035910.9144   20035917.2414
      2269.6134       1768.5274
  20006433.4164   -1513725.53348  -1158567.95847  20006430.6164   20006436.9314
      3064.1964       2387.6834
  21514931.9114  -19682326.82748 -14664019.03046  21514929.9854   21514938.3024
      3699.7684       2882.9294
 00  7 14  2 12 59.9950000  0  7G22G20G11G25G 1G16G19
  20189894.2894  -19803169.34348 -15402600.37646  20189891.9514   20189898.2054
      2506.9904       1953.4994
  18893916.4714  -40523857.29848 -31283879.49047  18893913.8904   18893918.2134
       968.9904        755.0584
  22734817.7254  -24841275.15347 -19023006.63545  22734816.1924   22734827.7554
     -2258.5324      -1759.8794
  21761396.4064  -25025776.95848 -19177970.82446  21761395.2204   21761402.1104
     -1865.1284      -1453.3454
  20022943.4944  -32301815.01649 -24867272.26647  20022941.0354   20022947.2024
      2265.3394       1765.1974
  19988947.0334   -1605617.12849  -1230171.76447  19988944.2844   19988950.5744
      3053.1084       2379.0444
  21493806.4214  -19793344.44248 -14750526.13946  21493804.0884   21493812.3384
      3692.5724       2877.3234
 00  7 14  2 13 29.9950000  0  6G22G20G11G25G 1G19
  20175620.3974  -19878178.35748 -15461048.90146  20175618.1194   20175624.5884
      2494.6084       1943.8484
  18888422.3544  -40552730.28048 -31306377.91247  18888419.7334   18888424.0294
       957.0414        745.7454
  22747696.9054  -24773594.32647 -18970268.58045  22747694.9724   22747707.4864
     -2252.3964      -1755.1104
  21772043.3554  -24969829.99748 -19134375.85346  21772041.3374   21772048.2544
     -1863.5034      -1452.0794
  20010012.2614  -32369767.44849 -24920222.18247  20010009.7894   20010016.1794
      2265.9884       1765.7044
  21472735.7174  -19904069.35948 -14836805.17646  21472733.5964   21472741.7934
      3690.2314       2875.4984
 00  7 14  2 13 59.9950000  0  6G22G20G11G25G 1G19
  20161450.7334  -19952644.66948 -15519074.54246  20161447.8014   20161453.8174
      2474.2684       1927.9984
  18883028.0664  -40581073.50348 -31328463.53647  18883025.4384   18883030.6294
       937.0784        730.1904
  22760574.1244  -24705932.91147 -18917545.65645  22760571.3004   22760582.7794
     -2253.9544      -1756.3194
  21782713.1874  -24913762.47848 -19090686.93846  21782710.9344   21782717.5134
     -1869.7034      -1456.9104
  19997110.0024  -32437569.03949 -24973054.55847  19997107.6974   19997114.0814
      2258.6844       1760.0134
  21451710.9784  -20014554.13348 -14922897.09946  21451709.3074   21451717.4764
      3679.9484       2867.4874
 00  7 14  2 14 29.9950000  0  6G22G20G11G25G 1G19
  20147373.5604  -20026618.65148 -15576716.55946  20147370.5854   20147377.1124
      2453.5274       1911.8374
  18877725.8804  -40608938.59048 -31350176.58447  18877723.3274   18877728.1124
       916.8804        714.4524
  22773434.7894  -24638345.97547 -18864880.78445  22773433.2814   22773445.1854
     -2255.6044      -1757.6044
  21793394.7954  -24857628.64148 -19046946.33346  21793392.9514   21793399.6234
     -1876.1454      -1461.9294
  19984226.8864  -32505272.12849 -25025810.17547  19984224.5354   19984230.6394
      2251.1884       1754.1724
  21430723.0374  -20124850.46648 -15008842.18246  21430720.6854   21430728.8344
      3669.4304       2859.2934
 00  7 14  2 14 59.9950000  0  6G22G20G11G25G 1G19
  20133420.1954  -20099938.90348 -15633849.17346  20133417.8354   20133424.8184
      2430.8844       1894.1934
  18872545.0864  -40636166.40248 -31371393.05847  18872542.2544   18872546.6764
       894.8314        697.2744
  22786312.9574  -24570677.66447 -18812152.51545  22786309.9534   22786321.4154
     -2259.0224      -1760.2704
  21804118.9994  -24801271.93048 -19003032.06246  21804117.5724   21804123.9184
     -1884.3934      -1468.3574
  19971392.2224  -32572717.65649 -25078365.09447  19971389.8984   19971396.0674
      2241.7574       1746.8224
  21409800.5714  -20234798.73248 -15094516.05146  21409798.3964   21409806.0074
      3656.9734       2849.5844
 00  7 14  2 15 29.9950000  0  7G22G20G11G25G 1G16G19
  20119563.7124  -20172755.66048 -15690589.46146  20119561.4374   20119567.6684
      2417.3324       1883.6344
  18867455.7304  -40662908.60648 -31392231.14247  18867453.1974   18867457.6184
       881.8814        687.1794
  22799174.6114  -24503083.37547 -18759481.91545  22799172.6084   22799184.2024
     -2253.3624      -1755.8524
  21814857.1064  -24744846.58048 -18959064.29846  21814854.9154   21814861.1494
     -1883.3614      -1467.5534
  19958577.4674  -32640057.94949 -25130838.01047  19958575.2474   19958581.7744
      2241.5004       1746.6214
  19902594.1124    -375997.05448    -56673.25347  19902591.5134   19902597.5874
      2994.0444       2333.0204
  21388915.0774  -20344550.60148 -15180036.89046  21388913.1004   21388920.6404
      3653.6894       2847.0254
 00  7 14  2 15 59.9950000  0  7G22G20G11G25G 1G16G19
  20105819.7594  -20244987.59348 -15746874.03146  20105816.5754   20105822.7384
      2396.9224       1867.7304
  18862474.6614  -40689084.92548 -31412628.27547  18862472.2144   18862476.4734
       862.1194        671.7804
  22812038.3724  -24435486.13147 -18706809.00345  22812036.3764   22812048.2194
     -2254.2964      -1756.5824
  21825622.1464  -24688274.61148 -18914982.29246  21825620.1074   21825626.4584
     -1889.1094      -1472.0314
  19945799.0934  -32707213.23949 -25183166.77247  19945796.6224   19945802.5014
      2234.4504       1741.1294
  19885539.7714    -465620.12049   -126509.34947  19885536.8574   19885543.0954
      2979.7764       2321.9014
  21368082.3194  -20454025.54248 -15265341.93446  21368080.0304   21368088.3864
      3643.5674       2839.1394
 00  7 14  2 16 29.9950000  0  7G22G20G11G25G 1G16G19
  20092175.1704  -20316689.25348 -15802745.41046  20092172.4734   20092178.5424
      2383.5414       1857.3034
  18857590.8934  -40714751.03749 -31432627.83847  18857588.1254   18857592.7584
       849.4284        661.8914
  22824892.1324  -24367945.13047 -18654179.95545  22824889.8774   22824900.4224
     -2248.0424      -1751.7104
  21836403.7934  -24631614.31448 -18870831.46846  21836402.0184   21836408.6114
     -1887.7054      -1470.9394
  19933043.6934  -32774239.57049 -25235395.04647  19933041.3934   19933047.5364
      2234.4584       1741.1354
  19868551.1304    -554896.14449   -196075.04147  19868548.4584   19868554.4924
      2972.4274       2316.1744
  21347292.3674  -20563278.99648 -15350474.39146  21347290.3744   21347298.0594
      3640.4424       2836.7044
 00  7 14  2 16 59.9950000  0  8G22G 4G20G11G25G 1G16G19
  20078635.1694  -20387840.89148 -15858188.19546  20078632.0844   20078638.3514
      2360.4814       1839.3344
  23416886.1234   -6707313.42457  -4938808.47945  23416885.1524   23416894.3954
      2698.0504       2102.3604
  18852806.6474  -40739888.62049 -31452215.56647  18852804.3724   18852808.9154
       827.1094        644.5014
  22837737.3364  -24300445.81447 -18601583.36745  22837734.8404   22837745.9804
     -2251.2614      -1754.2194
  21847206.1024  -24574849.89348 -18826599.51146  21847204.0114   21847210.8094
     -1895.8534      -1477.2864
  19920316.5934  -32841119.28549 -25287509.06547  19920314.3974   19920320.5434
      2224.8984       1733.6864
  19851632.1964    -643805.00549   -265354.62747  19851629.3924   19851635.7324
      2955.4984       2302.9854
  21326547.7364  -20672292.64948 -15435420.01546  21326545.4974   21326553.5234
      3627.7874       2826.8434
 00  7 14  2 17 29.9950000  0  8G22G 4G20G11G25G 1G16G19
  20065204.7294  -20458416.64248 -15913182.24046  20065201.9704   20065208.3334
      2345.7774       1827.8764
  23401520.0164   -6788068.00047  -5001734.08045  23401518.3234   23401526.1194
      2686.7854       2093.6004
  18848128.7664  -40764473.67349 -31471372.74447  18848126.2394   18848130.5014
       813.1614        633.6324
  22850576.6354  -24232967.37947 -18549003.01345  22850574.8324   22850586.0544
     -2245.9984      -1750.1294
  21858032.1894  -24517960.14048 -18782269.89446  21858029.9374   21858036.3414
     -1895.4904      -1477.0054
  19907622.6304  -32907828.56549 -25339490.28547  19907620.3544   19907626.1804
      2223.7014       1732.7534
  19834787.9374    -732321.25449   -334328.27647  19834785.4864   19834791.9724
      2946.8834       2296.2714
  21305852.5194  -20781042.12048 -15520159.77046  21305850.3504   21305859.3034
      3623.4634       2823.4744
 00  7 14  2 17 59.9950000  0  8G22G 4G20G11G25G 1G16G19
  20051888.3424  -20528393.57448 -15967709.67346  20051885.8534   20051891.6884
      2318.9164       1806.9484
  23386246.3184   -6868326.11847  -5064272.82145  23386245.2514   23386254.3004
      2663.3084       2075.2994
  18843559.6754  -40788484.85249 -31490082.75647  18843557.1404   18843561.3694
       787.1954        613.3994
  22863417.5564  -24165491.69547 -18496424.83645  22863415.5304   22863426.3704
     -2252.7104      -1755.3544
  21868885.0984  -24460925.52248 -18737827.38446  21868883.4014   21868889.7274
     -1907.1574      -1486.0944
  19894964.9344  -32974346.42549 -25391322.34347  19894962.6894   19894968.6254
      2210.4704       1722.4414
  19818023.4054    -820421.93149   -402978.10947  19818020.5864   19818026.5314
      2926.1544       2280.1184
  21285213.2084  -20889506.00048 -15604676.99146  21285210.9054   21285219.0714
      3607.0884       2810.7154
 00  7 14  2 18 29.9950000  0  8G22G 4G20G11G25G 1G16G19
  20038689.0394  -20597753.79948 -16021756.54346  20038686.5374   20038693.3684
      2301.5534       1793.4164
  23371071.0434   -6948070.11247  -5126410.97745  23371069.5394   23371077.7254
      2649.3914       2064.4644
  18839102.7224  -40811905.27748 -31508332.44147  18839100.1474   18839104.5384
       770.7284        600.5684
  22876261.1454  -24098005.24047 -18443838.24745  22876258.7984   22876269.8324
     -2249.8724      -1753.1454
  21879768.7084  -24403732.07248 -18693261.09946  21879767.0944   21879773.3464
     -1909.1924      -1487.6794
  19882346.3194  -33040656.31049 -25442992.34247  19882344.0224   19882350.4014
      2206.7504       1719.5444
  19801340.4274    -908088.29449   -471289.51047  19801337.9384   19801344.4264
      2914.8204       2271.2864
  21264630.6044  -20997667.11648 -15688958.29346  21264628.4944   21264636.6924
      3600.1994       2805.3464
 00  7 14  2 18 59.9950000  0  8G22G 4G20G11G25G 1G16G19
  20025605.7824  -20666507.97348 -16075331.18046  20025603.1544   20025609.9734
      2283.3134       1779.2054
  23355991.7334   -7027310.97847  -5188157.03945  23355990.7934   23355999.0074
      2634.5834       2052.9204
  18834756.3684  -40834746.42349 -31526130.73947  18834753.7664   18834758.0814
       753.3944        587.0604
  22889102.0254  -24030522.89847 -18391254.87245  22889100.1214   22889112.4034
     -2247.6024      -1751.3704
  21890680.0874  -24346393.68848 -18648581.88146  21890677.9174   21890684.4174
     -1911.9734      -1489.8474
  19869765.0694  -33106770.31449 -25494509.70047  19869762.7784   19869769.0314
      2202.2284       1716.0194
  19784739.1464    -995330.66049   -539270.52447  19784736.2324   19784742.7604
      2902.6884       2261.8344
  21244103.6964  -21105536.78048 -15773012.47446  21244101.3144   21244109.4624
      3592.4654       2799.3204
 00  7 14  2 19 29.9950000  0  8G22G 4G20G11G25G 1G16G19
  20012617.3674  -20734766.38548 -16128519.50146  20012614.3874   20012620.4684
      2265.0944       1765.0064
  23340987.9344   -7106159.64047  -5249597.46745  23340986.0534   23340994.5874
      2619.7864       2041.3854
  18830498.4584  -40857120.55049 -31543565.12547  18830495.9014   18830500.4864
       736.1434        573.6184
  22901921.9434  -23963160.09547 -18338764.66945  22901918.4654   22901930.6674
     -2245.3414      -1749.6014
  21901596.9404  -24289024.65448 -18603878.77846  21901595.0394   21901602.2444
     -1914.6574      -1491.9394
  19857199.8754  -33172800.79249 -25545961.97947  19857197.6944   19857203.6214
      2197.7514       1712.5324
  19768196.7974   -1082259.40349   -607007.15247  19768194.2904   19768200.5794
      2890.5244       2252.3554
  21223610.7674  -21213226.82348 -15856926.69346  21223608.8434   21223616.3464
      3584.7984       2793.3484
 00  7 14  2 19 59.9950000  0  8G22G 4G20G11G25G 1G16G19
  19999754.5754  -20802357.85148 -16181188.13346  19999751.9704   19999758.0494
      2245.1514       1749.4664
  23326090.1154   -7184445.68147  -5310599.48945  23326088.6764   23326098.2604
      2603.3214       2028.5634
  18826362.2454  -40878857.92249 -31560503.32747  18826359.5494   18826363.8584
       717.2724        558.9124
  22914749.4574  -23895750.79847 -18286238.21645  22914746.9064   22914759.0664
     -2244.5124      -1748.9564
  21912551.5594  -24231457.65748 -18559021.43446  21912549.4434   21912556.3124
     -1918.8534      -1495.2084
  19844682.8204  -33238578.48149 -25597217.28047  19844680.4304   19844686.6164
      2191.6684       1707.7924
  19751747.4434   -1168703.03449   -674365.77647  19751744.8544   19751751.1714
      2876.6294       2241.5284
  21203184.5104  -21320567.48248 -15940568.67646  21203182.5404   21203190.1054
      3575.4854       2786.0894
 00  7 14  2 20 29.9950000  0  8G22G 4G20G11G25G 1G16G19
  19986972.6944  -20869525.57548 -16233526.57146  19986970.4644   19986976.6074
      2228.1454       1736.2164
  23311252.9424   -7262413.17247  -5371353.28145  23311252.4044   23311260.2014
      2589.8614       2018.0704
  18822299.9694  -40900203.51249 -31577136.24947  18822297.4644   18822301.9954
       701.3124        546.4764
  22927537.4054  -23828542.86147 -18233868.68145  22927535.5144   22927549.2214
     -2240.5194      -1745.8454
  21923496.9104  -24173940.12848 -18514202.62646  21923494.7694   21923501.6094
     -1920.0674      -1496.1554
  19832166.8494  -33304348.35049 -25648466.48547  19832164.6894   19832171.0244
      2188.5494       1705.3604
  19735343.4814   -1254904.79949   -741535.93647  19735340.8924   19735347.5334
      2865.6934       2233.0074
  21182778.0774  -21427803.27748 -16024128.93446  21182776.1704   21182783.5944
      3569.1114       2781.1244
 00  7 14  2 20 59.9950000  0  8G22G 4G20G11G25G 1G16G19
  19974301.6654  -20936111.73448 -16285411.83646  19974299.2424   19974305.6464
      2206.6574       1719.4704
  23296507.2644   -7339904.15847  -5431735.78645  23296505.7794   23296514.1304
      2571.8954       2004.0714
  18818342.5544  -40921000.17949 -31593341.44347  18818340.0634   18818344.7364
       680.9344        530.5984
  22940318.0464  -23761382.40747 -18181536.12345  22940315.7944   22940327.5524
     -2241.0314      -1746.2524
  21934462.4784  -24116316.90748 -18469301.46446  21934460.5594   21934466.8914
     -1925.6404      -1500.4964
  19819682.6824  -33369953.58149 -25699587.40847  19819680.4204   19819686.3944
      2180.9764       1699.4604
  19719015.6004   -1340705.89849   -808393.89447  19719013.1104   19719019.9104
      2850.2254       2220.9534
  21162421.5284  -21534777.01348 -16107484.99846  21162419.4944   21162426.9374
      3558.2824       2772.6844
 00  7 14  2 21 29.9950000  0  8G22G 4G20G11G25G 1G16G19
  19961752.6874  -21002059.34848 -16336799.53946  19961750.0344   19961755.9974
      2190.5874       1706.9484
  23281863.3284   -7416861.81747  -5491702.68545  23281861.8264   23281870.6794
      2559.3744       1994.3134
  18814499.7354  -40941192.18449 -31609075.46747  18814497.2874   18814502.1664
       666.0294        518.9844
  22953099.4714  -23694217.08747 -18129199.77645  22953097.6964   22953110.9594
     -2235.8094      -1742.1824
  21945458.1674  -24058535.07948 -18424276.71446  21945456.3564   21945462.5414
     -1925.6064      -1500.4714
  19807240.9684  -33435338.80749 -25750536.89247  19807238.5064   19807244.2284
      2178.8834       1697.8314
  19702775.1414   -1426049.38049   -874895.26747  19702772.7824   19702779.2004
      2840.1824       2213.1284
  21142125.7454  -21641432.52748 -16190593.09846  21142123.6274   21142131.1074
      3552.9134       2768.5004
 00  7 14  2 21 59.9950000  0  8G22G 4G20G11G25G 1G16G19
  19949302.9664  -21067485.45348 -16387780.87446  19949300.0334   19949305.9354
      2169.3344       1690.3884
  23267299.2224   -7493404.13547  -5551345.96345  23267297.4984   23267304.0324
      2541.6004       1980.4634
  18810750.0264  -40960898.12049 -31624430.73947  18810747.6934   18810752.2784
       645.9934        503.3704
  22965859.4034  -23627168.71947 -18076954.60845  22965856.6654   22965869.1684
     -2235.7904      -1742.1654
  21956460.9934  -24000714.85848 -18379222.05046  21956458.7834   21956465.4394
     -1930.7204      -1504.4564
  19794817.6074  -33500622.81549 -25801407.51447  19794815.1754   19794820.9684
      2171.6784       1692.2174
  19686599.9484   -1511051.60949   -941130.72947  19686597.5264   19686603.6444
      2824.9164       2201.2324
  21121867.4744  -21747888.19748 -16273545.46046  21121865.6784   21121873.3744
      3542.4094       2760.3164
 00  7 14  2 22 29.9950000  0  8G22G 4G20G11G25G 1G16G19
  19936981.7664  -21132233.00948 -16438233.46347  19936979.0264   19936984.8944
      2150.2794       1675.5424
  23252841.4354   -7569374.98547  -5610543.97145  23252839.8524   23252847.9774
      2526.1234       1968.4074
  18807123.0294  -40979962.78849 -31639286.33147  18807120.1724   18807124.7084
       628.1994        489.5064
  22978624.5064  -23560084.91747 -18024681.79345  22978622.1774   22978636.2094
     -2233.3054      -1740.2324
  21967499.9424  -23942703.67248 -18334018.58646  21967498.0764   21967504.4844
     -1933.4674      -1506.5974
  19782443.0924  -33565650.36349 -25852078.29947  19782440.8664   19782446.4894
      2166.7294       1688.3604
  19670520.1124   -1595555.62749  -1006977.98547  19670517.1494   19670523.1034
      2811.8974       2191.0884
  21101677.5974  -21853988.49848 -16356220.92646  21101675.5874   21101682.9404
      3534.1394       2753.8714
 00  7 14  2 22 59.9950000  0  8G22G 4G20G11G25G 1G16G19
  19924769.7684  -21196406.73048 -16488238.90947  19924767.0674   19924772.9934
      2129.4214       1659.2884
  23238472.3154   -7644879.23547  -5669378.37945  23238472.0634   23238479.2944
      2508.8864       1954.9734
  18803595.8564  -40998492.18849 -31653724.82147  18803593.7454   18803598.7234
       608.6404        474.2654
  22991375.6404  -23493074.88947 -17972466.51145  22991374.5184   22991386.6224
     -2232.5694      -1739.6614
  21978555.1414  -23884609.52348 -18288750.47846  21978552.9184   21978559.7054
     -1937.8874      -1510.0404
  19770097.0944  -33630527.61349 -25902631.97347  19770094.7244   19770100.8974
      2159.9844       1683.1044
  19654513.4744   -1679665.87249  -1072518.40347  19654511.0234   19654517.6014
      2797.0124       2179.4894
  21081534.8454  -21959838.89648 -16438701.66646  21081532.7834   21081540.3514
      3524.0954       2746.0464
 00  7 14  2 23 29.9950000  0  8G22G 4G20G11G25G 1G16G19
  19912687.6044  -21259899.15548 -16537713.47047  19912684.6424   19912690.9604
      2107.1304       1641.9194
  23224213.4394   -7719809.64747  -5727765.63545  23224212.4864   23224221.1674
      2490.1434       1940.3654
  18800192.7284  -41016379.67849 -31667663.11047  18800190.1854   18800194.5824
       587.6904        457.9404
  23004133.2594  -23426035.20447 -17920228.08645  23004132.0614   23004144.9994
     -2233.0094      -1740.0014
  21989645.9174  -23826327.99148 -18243336.36246  21989643.7114   21989650.5404
     -1943.6504      -1514.5284
  19757800.3084  -33695148.15349 -25952985.61247  19757798.1094   19757804.0334
      2151.8824       1676.7904
  19638604.2234   -1763273.72849  -1137667.35347  19638601.4914   19638607.5474
      2780.7034       2166.7814
  21061460.3224  -22065332.50448 -16520904.38046  21061457.7814   21061465.9154
      3512.6304       2737.1114
 00  7 14  2 23 59.9950000  0  8G22G 4G20G11G25G 1G16G19
  19900709.4644  -21322840.94048 -16586758.96646  19900706.8844   19900713.5064
      2089.7704       1628.3904
  23210039.7524   -7794297.09747  -5785807.73645  23210038.1114   23210046.4364
      2476.3754       1929.6494
  18796885.7064  -41033757.33649 -31681204.13347  18796883.0814   18796887.7824
       571.6974        445.4784
  23016871.1514  -23359100.62447 -17868071.57245  23016868.8874   23016883.1964
     -2228.4484      -1736.4494
  22000745.3114  -23767993.12248 -18197880.68746  22000743.9414   22000751.2834
     -1944.4374      -1515.1414
  19745527.5154  -33759643.93049 -26003242.03647  19745525.0974   19745530.8774
      2148.7474       1674.3464
  19622764.8304   -1846509.45449  -1202526.33647  19622762.0664   19622768.2684
      2769.2784       2157.8774
  21041427.8674  -22170600.89048 -16602931.59146  21041425.6844   21041433.8764
      3506.1034       2732.0264
 00  7 14  2 24 29.9950000  0  8G22G 4G20G11G25G 1G16G19
  19888852.1254  -21385152.75648 -16635313.57746  19888849.2244   19888855.5914
      2064.3144       1608.5534
  23195963.8974   -7868263.12647  -5843443.56445  23195962.4724   23195970.3134
      2454.5634       1912.6454
  18793690.0464  -41050547.37649 -31694287.27547  18793687.6944   18793692.5924
       547.7084        426.7844
  23029602.4674  -23292196.71047 -17815938.97945  23029600.2444   23029614.9004
     -2231.8164      -1739.0714
  22011871.7684  -23709529.27548 -18152324.51846  22011869.9574   22011876.6444
     -1953.0504      -1521.8564
  19733292.1954  -33823937.57949 -26053340.96147  19733290.1864   19733296.4044
      2137.6014       1665.6624
  19607010.9594   -1929293.83249  -1267033.61447  19607008.6574   19607014.8864
      2749.7564       2142.6664
  21021454.4284  -22275566.19448 -16684722.63346  21021451.8634   21021459.0274
      3491.6404       2720.7524
 00  7 14  2 24 59.9950000  0  8G22G 4G20G11G25G 1G16G19
  19877107.2484  -21446874.27148 -16683408.21546  19877104.2264   19877110.4234
      2049.3844       1596.9224
  23181980.0054   -7941748.14647  -5900704.55745  23181978.4394   23181986.9634
      2443.2484       1903.8234
  18790599.3964  -41066791.33249 -31706944.89347  18790596.7974   18790601.7044
       534.2654        416.3094
  23042319.6324  -23225367.90847 -17763864.91245  23042317.6194   23042331.3174
     -2224.4814      -1733.3554
  22023012.9954  -23650979.92348 -18106701.72046  22023011.3674   22023017.9214
     -1951.1394      -1520.3674
  19721088.3414  -33888070.32549 -26103314.51247  19721086.0224   19721091.9714
      2136.9544       1665.1584
  19591336.0184   -2011666.07349  -1331219.75147  19591333.5184   19591339.9774
      2740.7514       2135.6504
  21001529.4344  -22380269.54948 -16766309.57346  21001527.0784   21001534.4564
      3487.6294       2717.6304
 00  7 14  2 25 29.9950000  0  8G22G 4G20G11G25G 1G16G19
  19865478.0974  -21507986.92948 -16731028.42547  19865475.1514   19865481.3344
      2021.9644       1575.5554
  23168092.2574   -8014733.75147  -5957576.40845  23168089.7694   23168098.2174
      2419.5054       1885.3284
  18787615.5294  -41082471.58149 -31719163.26747  18787612.9214   18787617.5934
       508.3634        396.1274
  23055026.8814  -23158599.44847 -17711837.83845  23055024.3884   23055037.9324
     -2229.5064      -1737.2724
  22034173.9704  -23592329.31448 -18061000.02246  22034172.3584   22034179.4444
     -1961.6634      -1528.5654
  19708918.2444  -33952024.42149 -26153148.85947  19708916.0184   19708921.9784
      2123.9024       1654.9884
  19575743.4274   -2093607.06349  -1395069.84947  19575740.6584   19575746.9184
      2719.2084       2118.8624
  20981658.0594  -22484692.98848 -16847678.38646  20981656.0344   20981663.6624
      3471.1544       2704.7904
 00  7 14  2 25 59.9950000  0  8G22G 4G20G11G25G 1G16G19
  19853965.0474  -21568488.19148 -16778172.22647  19853962.2694   19853968.3374
      2007.0294       1563.9184
  23154298.9974   -8087217.65047  -6014057.33045  23154296.7224   23154303.7704
      2408.3104       1876.6104
  18784739.3964  -41097586.50549 -31730941.12847  18784736.8474   18784741.3124
       494.9664        385.6884
  23067719.4464  -23091892.86047 -17659859.01445  23067717.5304   23067731.9314
     -2221.9344      -1731.3714
  22045354.0714  -23533577.94648 -18015219.81346  22045352.2154   22045359.0394
     -1959.4534      -1526.8444
  19696782.4504  -34015798.39049 -26202842.83947  19696780.0844   19696786.3534
      2123.3544       1654.5604
  19560233.4644   -2175113.29649  -1458581.16747  19560230.7754   19560237.0714
      2710.1514       2111.8054
  20961840.3744  -22588834.29948 -16928827.35746  20961838.3484   20961846.0264
      3467.2284       2701.7334
 00  7 14  2 26 29.9950000  0  7G22G 4G20G25G 1G16G19
  19842548.0814  -21628479.50048 -16824918.66446  19842545.6254   19842551.7684
      1982.9084       1545.1224
  23140581.5844   -8159301.37647  -6070226.40645  23140579.7664   23140588.0374
      2387.8294       1860.6414
  18781951.0574  -41112238.98549 -31742358.63847  18781948.3654   18781953.1434
       472.4784        368.1644
  22056533.5944  -23474830.83048 -17969442.90846  22056531.9614   22056538.4944
     -1966.3824      -1532.2434
  19684661.0944  -34079494.81349 -26252476.38747  19684658.9874   19684665.1574
      2113.7084       1647.0454
  19544786.8444   -2256285.78949  -1521832.42947  19544784.1294   19544790.4174
      2691.9414       2097.6164
  20942056.9874  -22692795.88048 -17009836.27746  20942054.8044   20942062.2354
      3454.1694       2691.5584
 00  7 14  2 26 59.9950000  0  7G22G 4G20G25G 1G16G19
  19831246.1774  -21687873.65648 -16871199.77746  19831243.4764   19831249.5854
      1968.9844       1534.2724
  23126956.9514   -8230898.74847  -6126016.47645  23126954.9774   23126964.2574
      2377.5844       1852.6554
  18779267.0774  -41126343.51549 -31753349.16947  18779264.3314   18779269.0154
       460.2004        358.5964
  22067728.1614  -23416004.15948 -17923604.03146  22067726.2574   22067732.9354
     -1962.9924      -1529.6004
  19672571.0964  -34143028.58849 -26301983.19947  19672568.8904   19672575.1404
      2114.2924       1647.5014
  19529419.8184   -2337037.04949  -1584755.45747  19529417.3984   19529423.7904
      2683.8714       2091.3274
  20922324.5564  -22796491.97048 -17090638.32946  20922322.2204   20922329.4414
      3451.3194       2689.3364
 00  7 14  2 27 29.9950000  0  7G22G 4G20G25G 1G16G19
  19820085.6754  -21746520.26948 -16916898.38246  19820083.4534   19820089.3464
      1947.3684       1517.4304
  23113453.0334   -8301859.89947  -6181310.82745  23113451.5244   23113460.2934
      2359.7074       1838.7254
  18776715.3304  -41139751.08549 -31763796.61447  18776712.6764   18776717.4834
       440.2994        343.0904
  22078965.9264  -23356951.15548 -17877588.80246  22078963.8664   22078970.2334
     -1967.1604      -1532.8464
  19660540.8654  -34206250.49049 -26351246.99847  19660538.4444   19660544.1444
      2107.2074       1641.9794
  19514162.3194   -2417216.34649  -1647232.79747  19514159.6504   19514165.8874
      2668.1134       2079.0484
  20902670.6584  -22899773.11648 -17171117.04646  20902668.4824   20902675.9264
      3440.7704       2681.1174
 00  7 14  2 27 59.9950000  0  7G22G 4G20G25G 1G16G19
  19809020.8414  -21804665.29848 -16962206.15346  19809018.3414   19809024.5424
      1928.8654       1503.0094
  23100023.9064   -8372431.06547  -6236301.24945  23100021.8834   23100030.9284
      2344.8904       1827.1784
  18774249.8184  -41152708.80549 -31773893.52847  18774247.2214   18774251.9494
       423.5994        330.0774
  22090198.6494  -23297920.73648 -17831591.13446  22090197.0004   22090203.4534
     -1968.1334      -1533.6104
  19648522.3534  -34269407.38849 -26400460.13947  19648520.0874   19648525.8814
      2103.2594       1638.9014
  19498967.4174   -2497069.04949  -1709455.64747  19498964.7564   19498970.5024
      2655.4194       2069.1574
  20883049.1394  -23002885.76048 -17251464.46547  20883047.0724   20883054.0174
      3433.3654       2675.3484
 00  7 14  2 28 29.9950000  0  7G22G 4G20G25G 1G16G19
  19798074.6944  -21862188.81848 -17007029.63546  19798072.1744   19798078.2754
      1902.1374       1482.1824
  23086692.4704   -8442492.31047  -6290894.33745  23086690.5474   23086699.2314
      2321.9034       1809.2794
  18771892.6854  -41165097.70649 -31783547.20647  18771889.8884   18771894.5604
       398.5604        310.5664
  22101450.5824  -23238795.32248 -17785519.45346  22101448.1424   22101454.6784
     -1977.2974      -1540.7474
  19636539.4944  -34332379.88349 -26449529.57947  19636537.0424   19636542.8374
      2091.1024       1629.4294
  19483857.2934   -2576473.87549  -1771329.50147  19483854.3664   19483860.6824
      2634.4454       2052.8124
  20863482.1934  -23105710.53748 -17331587.58347  20863480.0504   20863487.0954
      3417.7854       2663.2054
 00  7 14  2 28 59.9950000  0  7G22G 4G20G25G 1G16G19
  19787275.8274  -21918934.66048 -17051247.14146  19787273.6504   19787280.0694
      1882.7844       1467.1034
  23073484.8644   -8511887.75247  -6344968.65745  23073483.2184   23073492.9194
      2306.2694       1797.0864
  18769671.9864  -41176763.14149 -31792637.15147  18769669.5594   18769674.2994
       381.0274        296.9054
  22112748.2764  -23179422.12248 -17739254.69946  22112746.7884   22112752.9124
     -1978.9474      -1542.0374
  19624620.6414  -34395012.99449 -26498334.57047  19624618.2994   19624624.1164
      2086.3754       1625.7464
  19468861.3314   -2655273.94249  -1832732.11147  19468858.9804   19468865.4674
      2620.8394       2042.2114
  20843999.2934  -23208092.21048 -17411365.41547  20843997.1974   20844004.3564
      3409.6194       2656.8454
 00  7 14  2 29 29.9950000  0  7G22G 4G20G25G 1G16G19
  19776563.8624  -21975231.39748 -17095114.69247  19776561.1264   19776566.9714
      1864.9094       1453.1754
  23060343.4664   -8580946.96747  -6398780.96945  23060342.1384   23060352.2184
      2292.2214       1786.1494
  18767526.6264  -41188035.30448 -31801420.65547  18767524.3564   18767529.1204
       365.0794        284.4794
  22124030.8284  -23120133.52248 -17693055.85846  22124028.6754   22124035.2884
     -1978.9404      -1542.0284
  19612703.6784  -34457636.91149 -26547132.40147  19612701.0684   19612706.9804
      2083.2324       1623.2964
  19453918.3564   -2733798.53449  -1893920.06047  19453915.9994   19453922.5174
      2608.7764       2032.8114
  20824538.3144  -23310360.82748 -17491055.15147  20824536.1714   20824543.1864
      3402.9644       2651.6574
 00  7 14  2 29 59.9950000  0  7G22G 4G20G25G 1G16G19
  19765951.6144  -22030998.67648 -17138569.68247  19765948.8184   19765954.9064
      1847.1144       1439.3094
  23047282.4794   -8649590.00747  -6452269.00645  23047280.9004   23047289.0524
      2278.1894       1775.2054
  18765472.2504  -41198835.22548 -31809836.17747  18765469.4064   18765474.1604
       349.2104        272.1114
  22135311.5794  -23060851.94648 -17646862.49346  22135309.6044   22135316.2184
     -1978.8094      -1541.9264
  19600802.7984  -34520172.37249 -26595861.29547  19600800.6974   19600806.9334
      2080.1304       1620.8794
  19439044.2444   -2811965.63049  -1954829.44347  19439041.4194   19439047.5854
      2596.7004       2023.4004
  20805113.1864  -23412436.57548 -17570594.60147  20805111.4154   20805118.6374
      3396.3944       2646.5384
 00  7 14  2 30 29.9950000  0  7G22G 4G20G25G 1G16G19
  19755483.5224  -22086010.34648 -17181435.88847  19755480.7964   19755486.4414
      1824.3644       1421.5814
  23034342.8394   -8717590.73847  -6505256.53645  23034340.9764   23034347.7834
      2259.1984       1760.4184
  18763549.1514  -41208937.85549 -31817708.37147  18763546.7454   18763551.6994
       328.3964        255.8934
  22146633.4694  -23001354.22748 -17600500.69646  22146631.7654   22146638.1284
     -1983.5634      -1545.6304
  19588962.7544  -34582394.32249 -26644345.89847  19588960.3274   19588966.4374
      2072.1484       1614.6594
  19424280.5284   -2889549.14349  -2015284.08347  19424277.9854   19424283.9204
      2579.6814       2010.1394
  20785768.4344  -23514093.92748 -17649808.02947  20785766.5964   20785773.9404
      3384.8794       2637.5664
 00  7 14  2 30 59.9950000  0  7G22G 4G20G25G 1G16G19
  19745118.4384  -22140477.80748 -17223878.02447  19745115.8934   19745121.5564
      1806.0124       1407.2794
  23021483.9984   -8785160.67447  -6557908.39545  23021481.4304   23021488.2684
      2244.6464       1749.0694
  18761719.2534  -41218555.44649 -31825202.60447  18761716.7644   18761721.4924
       312.0464        243.1534
  22157955.6904  -22941854.36048 -17554137.22146  22157954.0184   22157960.5024
     -1983.7564      -1545.7834
  19577141.8584  -34644514.47949 -26692751.18347  19577139.3944   19577145.3174
      2068.5334       1611.8434
  19409588.2004   -2966758.92249  -2075447.50147  19409585.3614   19409591.4054
      2566.9574       2000.2254
  20766463.8884  -23615544.67048 -17728860.46847  20766461.6414   20766468.3694
      3377.7814       2632.0344
 00  7 14  2 31 29.9950000  0  7G22G 4G20G25G 1G16G19
  19734878.1654  -22194289.00348 -17265808.79647  19734875.4614   19734881.3784
      1781.6004       1388.2604
  23008728.7254   -8852188.14747  -6610137.55545  23008726.5704   23008734.9004
      2224.0564       1733.0304
  18760002.4014  -41227577.25949 -31832232.58547  18759999.7914   18760005.0124
       289.6974        225.7374
  22169299.3684  -22882243.71948 -17507687.44346  22169297.2854   22169304.5634
     -1989.8974      -1550.5684
  19565360.4814  -34706421.93549 -26740990.71647  19565358.4954   19565364.2044
      2058.9404       1604.3674
  19394987.8864   -3043482.20349  -2135231.83447  19394985.1544   19394991.2564
      2548.2414       1985.6404
  20747218.8894  -23716677.49148 -17807665.18247  20747216.5464   20747223.4484
      3364.6744       2621.8214
 00  7 14  2 31 59.9950000  0  7G22G 4G20G25G 1G16G19
  19724760.2064  -22247457.15848 -17307238.49447  19724757.5984   19724763.9624
      1761.9494       1372.9464
  22996073.2314   -8918687.10847  -6661954.89745  22996071.4714   22996080.7804
      2208.1884       1720.6724
  18758395.7444  -41236018.37149 -31838810.07847  18758393.4034   18758398.8864
       272.1484        212.0644
  22180661.2394  -22822538.51548 -17461163.97646  22180658.9814   22180666.2214
     -1991.2754      -1551.6424
  19553617.9524  -34768131.23749 -26789075.83747  19553615.5384   19553621.2524
      2054.1134       1600.6044
  19380476.9014   -3119732.19549  -2194647.37447  19380474.7444   19380481.0734
      2534.2084       1974.7064
  20728030.9324  -23817506.63448 -17886233.26547  20728028.8544   20728036.1194
      3356.3364       2615.3254
 00  7 14  2 32 29.9950000  0  7G22G 4G20G25G 1G16G19
  19714763.1864  -22299992.47148 -17348175.06346  19714760.6544   19714766.4994
      1740.3204       1356.0924
  22983518.7934   -8984668.40147  -6713368.85845  22983516.4384   22983524.6264
      2190.4464       1706.8344
  18756898.4214  -41243890.27749 -31844944.04647  18756895.8074   18756900.9064
       252.6674        196.8834
  22192038.1804  -22762751.66348 -17414576.89646  22192036.3584   22192044.0524
     -1994.4704      -1554.1274
  19541910.3124  -34829653.56749 -26837015.26647  19541908.2104   19541913.7924
      2047.3944       1595.3704
  19366056.1474   -3195518.38149  -2253701.50547  19366053.4714   19366059.5294
      2518.1814       1962.2174
  20708899.4264  -23918043.15748 -17964573.35547  20708897.5404   20708904.9064
      3346.0834       2607.3364
 00  7 14  2 32 59.9950000  0  7G22G 4G20G25G 1G16G19
  19704883.6774  -22351912.67348 -17388632.33247  19704880.6844   19704886.5134
      1724.2544       1343.5724
  22971057.8304   -9050149.67647  -6764393.16145  22971056.5944   22971065.5604
      2178.1864       1697.2844
  18755504.4664  -41251211.61249 -31850648.99247  18755502.1204   18755507.4744
       238.7684        186.0534
  22203426.6524  -22702903.54248 -17367942.08146  22203424.8914   22203432.0574
     -1991.9954      -1552.2034
  19530235.0984  -34891007.37549 -26884823.37947  19530232.8674   19530238.7404
      2046.2294       1594.4644
  19351719.3674   -3270857.12749  -2312406.98647  19351716.7004   19351723.3354
      2507.7444       1954.0844
  20689820.1304  -24018305.24948 -18042699.57547  20689817.9394   20689825.8864
      3341.4104       2603.6934
 00  7 14  2 33 29.9950000  0  7G22G 4G20G25G 1G16G19
  19695107.8864  -22403282.50648 -17428660.73747  19695105.3804   19695111.3604
      1700.9654       1325.4264
  22958680.3614   -9115195.53847  -6815078.19845  22958678.4464   22958685.7724
      2158.7244       1682.1204
  18754203.6344  -41258048.03149 -31855976.09147  18754201.3484   18754206.6744
       217.6654        169.6104
  22214815.1744  -22643061.74948 -17321312.17646  22214813.0064   22214819.8974
     -1996.7254      -1555.8894
  19518579.7924  -34952257.71149 -26932550.87347  19518577.3584   19518582.9214
      2037.7974       1587.8934
  19337455.6854   -3345812.41049  -2370813.66847  19337453.1334   19337459.7584
      2489.9564       1940.2254
  20670780.7944  -24118358.10148 -18120662.75547  20670778.6934   20670785.9364
      3329.4334       2594.3604
 00  7 14  2 33 59.9940000  0  7G22G 4G20G25G 1G16G19
  19685446.7594  -22454051.76748 -17468221.16947  19685444.1964   19685450.4244
      1678.3214       1307.7824
  22946394.9944   -9179755.99347  -6865385.02345  22946392.4274   22946401.2324
      2139.9894       1667.5204
  18753004.3944  -41264352.42649 -31860888.61547  18753001.9534   18753007.1424
       197.2754        153.7224
  22226210.0884  -22583182.30048 -17274652.92846  22226208.0064   22226214.4454
     -2000.6864      -1558.9744
  19506953.3184  -35013354.91249 -26980159.03947  19506951.2394   19506956.6444
      2030.1024       1581.8974
  19323274.9674   -3420332.56149  -2428881.29147  19323272.5684   19323278.9584
      2472.8374       1926.8844
  20651791.3564  -24218150.46648 -18198422.96147  20651788.8834   20651795.8454
      3318.2054       2585.6114
 00  7 14  2 34 29.9940000  0  7G22G 4G20G25G 1G16G19
  19675923.6854  -22504096.72148 -17507217.21547  19675921.0474   19675926.9334
      1658.6594       1292.4614
  22934224.8374   -9243708.89547  -6915218.39945  22934222.6024   22934231.5034
      2124.1294       1655.1594
  18751929.8534  -41269999.56849 -31865289.00347  18751927.2384   18751932.4104
       179.9084        140.1894
  22237635.6394  -22523137.40748 -17227864.75746  22237634.0484   22237640.6984
     -2001.5834      -1559.6734
  19495379.3224  -35074176.94449 -27027552.79247  19495377.0924   19495382.3634
      2025.4464       1578.2694
  19309200.6424   -3494294.75249  -2486514.14147  19309198.2204   19309204.5514
      2458.6794       1915.8524
  20632873.0444  -24317562.79448 -18275887.04647  20632871.1694   20632878.5824
      3310.0024       2579.2204
 00  7 14  2 34 59.9940000  0  7G22G 4G20G25G 1G16G19
  19666496.3214  -22553636.16848 -17545819.35447  19666493.8244   19666499.9354
      1636.2134       1274.9704
  22922129.9484   -9307272.80147  -6964748.68045  22922127.5834   22922135.1844
      2105.6434       1640.7534
  18750938.2024  -41275210.96249 -31869349.84347  18750935.6864   18750940.5914
       159.8604        124.5674
  22249050.9564  -22463152.22448 -17181123.10646  22249048.5604   22249056.2014
     -2005.0844      -1562.4004
  19483815.6934  -35134943.10749 -27074903.00347  19483813.3274   19483819.4514
      2017.9934       1572.4614
  19295190.7274   -3567916.40749  -2543881.63847  19295188.0604   19295194.6544
      2441.7544       1902.6644
  20613986.4524  -24416813.08348 -18353224.86347  20613984.4114   20613992.1414
      3299.0164       2570.6594
 00  7 14  2 35 29.9940000  0  7G22G 4G20G25G 1G16G19
  19657194.3664  -22602519.24148 -17583910.02847  19657191.6674   19657198.0314
      1616.6654       1259.7364
  22910135.9044   -9370296.65047  -7013858.13245  22910134.6014   22910142.1924
      2089.9364       1628.5204
  18750057.4614  -41279836.67249 -31872954.30847  18750055.1414   18750060.3704
       142.6374        111.1474
  22260482.7284  -22403078.23948 -17134312.28546  22260480.5204   22260487.5044
     -2005.6984      -1562.8764
  19472291.5734  -35195503.05849 -27122092.54447  19472289.2964   19472295.3994
      2013.4534       1568.9234
  19281274.7194   -3641045.51549  -2600865.34047  19281272.1724   19281278.7484
      2427.6284       1891.6584
  20595158.9524  -24515750.83848 -18430319.15647  20595157.0704   20595164.6424
      3290.9294       2564.3594
 00  7 14  2 35 59.9940000  0  7G22G 4G20G25G 1G16G19
  19648018.6394  -22650739.62348 -17621484.31947  19648016.0374   19648021.7694
      1596.5374       1244.0534
  22898247.3404   -9432774.41047  -7062542.05345  22898245.5064   22898253.1954
      2073.7074       1615.8764
  18749290.3674  -41283871.14249 -31876098.05747  18749287.7674   18749292.6124
       124.9404         97.3564
  22271932.5774  -22342911.31347 -17087429.02445  22271930.1634   22271937.0004
     -2006.7474      -1563.6964
  19460808.0204  -35255850.89149 -27169116.80747  19460805.6004   19460811.1254
      2008.3564       1564.9514
  19267454.2924   -3713674.25549  -2657459.15547  19267451.6344   19267458.1114
      2412.9234       1880.1994
  20576392.7884  -24614369.81748 -18507165.06047  20576390.4164   20576398.0764
      3282.2544       2557.5984
 00  7 14  2 36 29.9940000  0  7G22G 4G20G25G 1G16G19
  19638960.0894  -22698343.35648 -17658578.10447  19638957.2444   19638962.9744
      1577.1934       1228.9804
  22886452.2684   -9494752.57947  -7110836.64145  22886450.4414   22886459.9154
      2058.2604       1603.8424
  18748625.7564  -41287362.28749 -31878818.44347  18748623.3074   18748628.5844
       108.0674         84.2094
  22283389.8714  -22282700.72647 -17040511.74946  22283388.1094   22283394.5704
     -2006.9704      -1563.8754
  19449355.3444  -35316033.42949 -27216012.27547  19449353.1054   19449358.6774
      2004.0824       1561.6234
  19253720.4814   -3785848.62649  -2713698.90947  19253717.7044   19253723.4794
      2398.9904       1869.3444
  20557678.1664  -24712716.89748 -18583799.09347  20557675.7714   20557683.1784
      3274.4554       2551.5234
 00  7 14  2 36 59.9940000  0  7G22G 4G20G25G 1G16G19
  19630012.8244  -22745356.11148 -17695211.38547  19630010.4684   19630016.7674
      1555.3224       1211.9384
  22874748.3644   -9556257.58447  -7158762.54745  22874746.7084   22874755.2984
      2040.3724       1589.8894
  18748059.6534  -41290337.36349 -31881136.70647  18748057.0804   18748062.3574
        88.7084         69.1234
  22294850.4504  -22222475.01747 -16993582.70046  22294848.3964   22294855.3494
     -2009.6274      -1565.9414
  19437929.0164  -35376077.28349 -27262799.67347  19437926.8194   19437932.7424
      1997.3084       1556.3434
  19240067.7894   -3857593.30449  -2769603.84047  19240064.9374   19240070.7304
      2382.4554       1856.4584
  20539009.7574  -24810818.74348 -18660242.03647  20539007.6564   20539014.7544
      3264.1114       2543.4614
 00  7 14  2 37 29.9940000  0  7G22G 4G20G25G 1G16G19
  19621181.8504  -22791766.57248 -17731375.35447  19621178.9754   19621185.2954
      1537.4314       1197.9984
  22863137.0294   -9617278.21147  -7206311.02045  22863135.5984   22863142.8904
      2026.3714       1578.9914
  18747593.7574  -41292786.08549 -31883044.81347  18747591.3964   18747596.1904
        73.3714         57.1734
  22306315.3014  -22162225.09047 -16946634.77046  22306313.4434   22306320.2914
     -2008.1274      -1564.7704
  19426531.5404  -35435971.64449 -27309470.59047  19426529.3714   19426535.1724
      1994.5014       1554.1574
  19226498.2794   -3928896.21349  -2825164.53247  19226495.9654   19226502.3044
      2369.9064       1846.6794
  20520390.4304  -24908664.53948 -18736485.46647  20520388.2764   20520395.3034
      3257.7594       2538.5124
 00  7 14  2 37 59.9940000  0  7G22G 4G20G25G 1G16G19
  19612485.2144  -22837469.31348 -17766987.85147  19612482.3664   19612487.9514
      1511.5304       1177.8164
  22851637.5124   -9677708.90447  -7253399.79845  22851635.0104   22851642.5584
      2004.4054       1561.8744
  18747247.7554  -41294603.79449 -31884461.20147  18747245.3484   18747250.1804
        50.0584         39.0054
  22317804.7294  -22101847.56548 -16899587.41146  22317803.3084   22317809.9134
     -2014.7004      -1569.8964
  19415183.2114  -35495611.02549 -27355942.82747  19415180.5914   19415186.1004
      1983.6994       1545.7394
  19213034.5784   -3999650.40549  -2880297.65147  19213032.0594   19213038.5554
      2349.2774       1830.6044
  20501839.3954  -25006148.72448 -18812447.12147  20501837.5604   20501844.6554
      3243.3954       2527.3194
 00  7 14  2 38 29.9940000  0  7G22G 4G20G25G 1G16G19
  19603904.4394  -22882557.98548 -17802121.85047  19603901.8054   19603907.9144
      1490.1284       1161.1394
  22840232.1144   -9737643.42347  -7300101.96045  22840229.9764   22840238.0994
      1986.9754       1548.2994
  18747004.1754  -41295885.21149 -31885459.70947  18747001.4164   18747006.2424
        31.2264         24.3324
  22329300.1824  -22041438.41448 -16852515.41146  22329298.5354   22329305.4684
     -2016.6594      -1571.4224
  19403864.6284  -35555089.49949 -27402289.67747  19403862.2234   19403867.8914
      1977.4134       1540.8414
  19199657.7574   -4069948.51549  -2935075.38547  19199655.1314   19199661.0914
      2333.1754       1818.0574
  20483339.8774  -25103365.16748 -18888200.15147  20483337.8264   20483344.7654
      3233.5464       2519.6454
 00  7 14  2 38 59.9940000  0  7G22G 4G20G25G 1G16G19
  19595443.7464  -22927020.74048 -17836768.13047  19595441.2844   19595446.9574
      1472.7264       1147.5784
  22828923.9774   -9797070.51147  -7346408.71345  22828921.7264   22828929.2024
      1973.4624       1537.7664
  18746864.2964  -41296619.91349 -31886032.21347  18746861.6894   18746866.5784
        16.5074         12.8634
  22340803.2554  -21980988.81047 -16805411.88446  22340801.6114   22340808.8724
     -2014.5044      -1569.7404
  19392578.7184  -35614395.95849 -27448502.49047  19392576.5234   19392581.8344
      1975.1634       1539.0874
  19186369.3964   -4139778.31349  -2989488.20347  19186366.7344   19186372.9484
      2320.9674       1808.5434
  20464893.2744  -25200302.96148 -18963736.05047  20464891.2124   20464898.0974
      3227.7344       2515.1184
 00  7 14  2 39 29.9940000  0  7G22G 4G20G25G 1G16G19
  19587097.6304  -22970882.05648 -17870945.75047  19587094.9304   19587100.7024
      1448.6614       1128.8274
  22817705.9774   -9856015.05647  -7392339.45745  22817703.8744   22817713.7394
      1953.3634       1522.0984
  18746823.9674  -41296833.93149 -31886198.98947  18746821.1994   18746825.7914
        -4.8594         -3.7854
  22352309.3334  -21920525.42547 -16758297.61346  22352307.7174   22352315.0144
     -2018.9274      -1573.1884
  19381321.2514  -35673555.70649 -27494600.98547  19381318.9044   19381324.2174
      1966.2774       1532.1624
  19173165.1664   -4209163.03849  -3043554.20947  19173162.8224   19173169.4514
      2302.1034       1793.8474
  20446494.7374  -25296987.27248 -19039074.42747  20446492.5944   20446499.6684
      3215.2784       2505.4084
 00  7 14  2 39 59.9940000  0  7G22G 4G20G25G 1G16G19
  19578876.5484  -23014081.62348 -17904607.72547  19578873.8224   19578879.7144
      1427.2794       1112.1654
  22806592.3214   -9914417.01047  -7437847.42245  22806590.7314   22806599.9914
      1936.0634       1508.6154
  18746892.7844  -41296467.89349 -31885913.77247  18746890.4914   18746895.7074
       -23.4814        -18.2964
  22363829.0604  -21859990.66247 -16711127.73845  22363826.7574   22363833.9164
     -2020.6364      -1574.5194
  19370102.8874  -35732508.69649 -27540538.37147  19370100.5594   19370105.9224
      1960.0294       1527.2964
  19160058.7004   -4278041.59049  -3097225.78547  19160056.2494   19160062.5184
      2285.8714       1781.1984
  20428155.8844  -25393358.21148 -19114168.59547  20428153.8084   20428160.6724
      3205.5154       2497.8024
 00  7 14  2 40 29.9940000  0  7G22G 4G20G25G 1G16G19
  19570754.4914  -23056761.64748 -17937864.85747  19570751.8554   19570757.9824
      1414.2094       1101.9824
  22795554.2094   -9972418.16447  -7483043.05845  22795553.1394   22795562.7354
      1926.8784       1501.4654
  18747046.0204  -41295664.81049 -31885288.00847  18747043.4194   18747048.3744
       -33.7864        -26.3274
  22375334.8884  -21799528.25947 -16664014.24745  22375332.2564   22375339.1874
     -2013.9204      -1569.2864
  19358896.5774  -35791397.04749 -27586425.39747  19358894.3024   19358899.9044
      1962.1214       1528.9264
  19147021.7084   -4346554.81349  -3150612.68847  19147018.7214   19147024.7084
      2277.9274       1775.0074
  20409849.8264  -25489557.94848 -19189129.36647  20409847.5804   20409854.0864
      3204.0394       2496.6524
 00  7 14  2 40 59.9940000  0  7G22G 4G20G25G 1G16G19
  19562756.3084  -23098793.17948 -17970616.66847  19562753.8604   19562759.4564
      1389.8234       1082.9784
  22784618.9284  -10029890.07647  -7527826.30645  22784616.7474   22784625.3544
      1906.4934       1485.5814
  18747306.3614  -41294296.99849 -31884222.18047  18747303.8114   18747308.7054
       -55.4014        -43.1694
  22386850.5024  -21739011.65947 -16616858.51146  22386848.8544   22386855.8174
     -2018.5004      -1572.8554
  19347727.3394  -35850092.14149 -27632161.82947  19347724.9754   19347730.6094
      1952.9024       1521.7424
  19134077.5354   -4414572.43049  -3203613.40647  19134075.0714   19134080.9884
      2258.6224       1759.9654
  20391600.6134  -25585457.44548 -19263856.17447  20391598.2324   20391605.6174
      3191.2804       2486.7104
 00  7 14  2 41 29.9940000  0  7G22G 4G20G25G 1G16G19
  19554886.9044  -23140150.20548 -18002842.89147  19554884.1584   19554889.8894
      1373.6334       1070.3634
  22773787.3034  -10086807.03347  -7572177.12145  22773785.5944   22773795.7974
      1894.3284       1476.0994
  18747678.4574  -41292339.75549 -31882697.06047  18747676.0934   18747681.1844
       -68.6674        -53.5064
  22398381.1524  -21678417.34447 -16569642.20745  22398379.1934   22398385.7144
     -2014.7114      -1569.9084
  19336599.8804  -35908568.41149 -27677727.74447  19336597.5304   19336603.2354
      1951.9704       1521.0154
  19121233.7444   -4482067.88549  -3256207.24247  19121231.0994   19121236.9644
      2247.5304       1751.3224
  20373413.0254  -25681031.19448 -19338329.15247  20373411.0774   20373418.7174
      3186.7284       2483.1624
 00  7 14  2 41 59.9940000  0  8G22G 4G20G27G25G 1G16G19
  19547135.9984  -23180880.09948 -18034580.44447  19547133.4064   19547138.9954
      1342.7714       1046.3144
  22763052.9134  -10143216.89747  -7616132.80245  22763051.2604   22763060.0694
      1867.4094       1455.1264
  18748154.2004  -41289842.07749 -31880750.82647  18748151.5584   18748156.4534
       -96.6294        -75.2944
  23394390.0184   -5750783.83557  -4171233.34445  23394387.3594   23394399.2544
      3864.9304       3011.6234
  22409917.4714  -21617795.19747 -16522404.20945  22409915.4704   22409922.2374
     -2025.5724      -1578.3644
  19325504.3524  -35966873.66249 -27723160.39247  19325502.2774   19325508.0874
      1936.2754       1508.7864
  19108480.2284   -4549087.65449  -3308430.40347  19108477.5934   19108483.7684
      2221.6744       1731.1734
  20355278.6734  -25776327.33648 -19412585.79747  20355276.6704   20355284.1764
      3167.5604       2468.2264
 00  7 14  2 42 29.9940000  0  8G22G 4G20G27G25G 1G16G19
  19539506.2434  -23220971.77848 -18065820.68547  19539503.7334   19539509.4514
      1321.5334       1029.7654
  22752418.1114  -10199108.55947  -7659684.70545  22752415.9674   22752423.2394
      1850.1614       1441.6854
  18748734.2804  -41286793.64949 -31878375.42647  18748731.6514   18748736.5784
      -114.9564        -89.5774
  23372311.9974   -5866799.77447  -4261635.04745  23372309.9844   23372321.5624
      3861.1104       3008.6504
  22421460.3914  -21557136.06647 -16475137.40245  22421458.2144   22421465.3304
     -2026.7384      -1579.2764
  19314443.9574  -36024996.86449 -27768451.17947  19314441.4984   19314447.8274
      1930.2724       1504.1074
  19095819.5134   -4615619.32849  -3360273.23347  19095816.9494   19095823.2244
      2205.4564       1718.5374
  20337199.7824  -25871334.94948 -19486617.62547  20337197.5544   20337204.5634
      3157.9504       2460.7384
 00  7 14  2 42 59.9940000  0  8G22G 4G20G27G25G 1G16G19
  19532000.1594  -23260418.74448 -18096558.55347  19531997.6584   19532003.1384
      1308.5464       1019.6464
  22741880.2884  -10254475.37847  -7702827.67345  22741879.9994   22741886.7894
      1841.1774       1434.6804
  18749420.0184  -41283188.57949 -31875566.26847  18749417.5714   18749422.4854
      -124.9974        -97.4014
  23350258.2404   -5982690.12647  -4351938.90945  23350255.7164   23350269.0514
      3865.4074       3011.9934
  22433011.6534  -21496434.98847 -16427837.92345  22433009.5704   22433016.8144
     -2019.5644      -1573.6834
  19303418.8234  -36082931.49149 -27813595.03247  19303416.8664   19303423.0084
      1932.4494       1505.8044
  19083252.8614   -4681655.06549  -3411729.61447  19083250.3754   19083256.7144
      2197.3794       1712.2424
  20319176.0104  -25966047.66448 -19560419.65647  20319173.9514   20319181.1864
      3156.5994       2459.6844
 00  7 14  2 43 29.9940000  0  8G22G 4G20G27G25G 1G16G19
  19524615.1834  -23299227.58048 -18126799.17147  19524612.3284   19524618.2854
      1282.8284        999.6054
  22731444.9104  -10309324.03947  -7745566.87445  22731443.4104   22731448.7904
      1819.5254       1417.8094
  18750210.1854  -41279034.87749 -31872329.60747  18750207.9274   18750213.0994
      -147.7064       -115.0964
  23328228.0764   -6098461.41047  -4442149.97745  23328225.5704   23328237.7534
      3856.9774       3005.4204
  22444569.7274  -21435701.16447 -16380512.91245  22444566.8984   22444573.9474
     -2025.0824      -1577.9844
  19292429.7734  -36140684.16249 -27858597.09747  19292427.2634   19292432.8604
      1921.9754       1497.6424
  19070780.0854   -4747200.28649  -3462803.77647  19070777.7524   19070783.6714
      2176.5544       1696.0154
  20301207.8054  -26060472.01648 -19633996.98347  20301205.6214   20301212.4414
      3142.5654       2448.7494
 00  7 14  2 43 59.9940000  0  8G22G 4G20G27G25G 1G16G19
  19517355.3254  -23337378.32348 -18156526.99547  19517352.5744   19517358.4924
      1258.5904        980.7194
  22721109.7914  -10363635.18447  -7787887.20645  22721108.3944   22721114.8404
      1799.2674       1402.0234
  18751108.7304  -41274314.00849 -31868651.00847  18751106.1014   18751111.4374
      -168.8734       -131.5884
  23306222.3744   -6214093.96247  -4532252.95245  23306220.6554   23306233.3214
      3850.0284       3000.0124
  22456136.2254  -21374916.68047 -16333148.42645  22456133.5824   22456141.0344
     -2029.0134      -1581.0444
  19281478.1764  -36198235.39049 -27903442.18847  19281475.7874   19281481.0654
      1912.9564       1490.6164
  19058404.8074   -4812234.27049  -3513479.57347  19058402.4094   19058408.6954
      2157.2174       1680.9464
  20283298.1894  -26154588.68248 -19707334.56247  20283296.0344   20283303.0024
      3130.0014       2438.9594
 00  7 14  2 44 29.9940000  0  8G22G 4G20G27G25G 1G16G19
  19510222.2984  -23374862.15748 -18185735.15347  19510219.7704   19510225.7954
      1237.9844        964.6614
  22710878.0084  -10417400.43747  -7829782.15945  22710875.8214   22710883.5384
      1782.6864       1389.1054
  18752116.2164  -41269018.26649 -31864524.45747  18752113.8934   18752119.0944
      -186.3994       -145.2464
  23284246.3304   -6329579.10447  -4622241.06445  23284244.3124   23284257.4144
      3846.7464       2997.4544
  22467713.4424  -21314074.71747 -16285739.17745  22467711.4634   22467718.8884
     -2029.3134      -1581.2834
  19270566.2334  -36255576.64149 -27948123.65047  19270564.0224   19270569.2984
      1907.5954       1486.4374
  19046128.4034   -4876747.28249  -3563749.41847  19046125.6934   19046132.1604
      2141.4674       1668.6734
  20265448.6494  -26248389.36848 -19780425.93447  20265446.3924   20265453.4454
      3121.1264       2432.0444
 00  7 14  2 44 59.9940000  0  8G22G 4G20G27G25G 1G16G19
  19503206.7554  -23411726.56648 -18214460.64247  19503204.3824   19503210.4144
      1223.6744        953.5104
  22700741.3404  -10470667.04947  -7871288.56645  22700739.8694   22700747.8914
      1772.4484       1381.1254
  18753224.8454  -41263196.10049 -31859987.71547  18753222.2034   18753227.2774
      -197.5834       -153.9614
  23262290.0364   -6444963.69447  -4712150.83245  23262287.9784   23262299.7914
      3849.7444       2999.7904
  22479292.3744  -21253224.37047 -16238323.39445  22479291.0854   22479297.8014
     -2023.2084      -1576.5234
  19259685.4404  -36312755.00849 -27992678.19147  19259683.0374   19259689.0004
      1908.4934       1487.1374
  19033942.1644   -4940785.14649  -3613649.02147  19033939.5314   19033946.0354
      2131.9154       1661.2314
  20247649.7504  -26341921.24248 -19853307.83947  20247647.6244   20247654.4754
      3118.4964       2429.9954
 00  7 14  2 45 29.9940000  0  8G22G 4G20G27G25G 1G16G19
  19496307.2234  -23447985.80148 -18242714.57047  19496304.3314   19496310.2124
      1196.7344        932.5204
  22690697.8344  -10523449.03047  -7912417.34045  22690695.5844   22690703.2644
      1749.5454       1363.2814
  18754429.3994  -41256862.60549 -31855052.53047  18754427.0584   18754432.4024
      -221.4034       -172.5234
  23240349.1344   -6560261.66447  -4801993.08245  23240346.8674   23240358.7964
      3840.0754       2992.2574
  22490870.4154  -21192381.77547 -16190913.64745  22490869.1024   22490875.9484
     -2029.6734      -1581.5644
  19248832.9164  -36369784.45849 -28037116.69747  19248830.5434   19248836.4184
      1896.7274       1477.9694
  19021843.9294   -5004360.63549  -3663188.32447  19021841.6004   19021848.2124
      2109.7024       1643.9244
  20229899.9094  -26435198.43548 -19925991.30847  20229897.6084   20229903.9614
      3103.2174       2418.0894
 00  7 14  2 45 59.9940000  0  8G22G 4G20G27G25G 1G16G19
  19489529.7934  -23483600.05548 -18270465.91447  19489527.2294   19489533.3074
      1177.9804        917.9054
  22680753.7434  -10575706.91147  -7953137.74145  22680752.2964   22680759.4904
      1734.7954       1351.7884
  18755739.7944  -41249979.11549 -31849688.76747  18755737.2254   18755741.8654
      -236.9764       -184.6574
  23218431.1194   -6675433.13547  -4891736.77945  23218429.7224   23218441.5894
      3838.5774       2991.0894
  22502454.7234  -21131509.09147 -16143480.47245  22502453.2454   22502459.8034
     -2027.9144      -1580.1924
  19238016.2324  -36426625.38549 -28081408.29347  19238014.1094   19238019.7814
      1893.1824       1475.2064
  19009842.0314   -5067433.20549  -3712335.75147  19009839.2964   19009845.9914
      2095.6214       1632.9504
  20212205.7844  -26528181.39148 -19998445.50447  20212203.6804   20212210.1394
      3096.1534       2412.5854
 00  7 14  2 46 29.9940000  0  8G22G 4G20G27G25G 1G16G19
  19482872.5444  -23518586.82348 -18297728.30947  19482869.6204   19482875.3884
      1156.9174        901.4934
  22670905.2614  -10627458.59247  -7993463.70745  22670903.5734   22670910.6944
      1717.7524       1338.5044
  18757150.3734  -41242564.55049 -31843911.18947  18757147.9974   18757152.9024
      -254.8164       -198.5594
  23196536.0144   -6790495.70747  -4981395.63345  23196533.4164   23196545.4714
      3834.7484       2988.1094
  22514040.5744  -21070625.79847 -16096039.02045  22514039.0014   22514045.5574
     -2028.4204      -1580.5874
  19227232.3064  -36483295.39449 -28125566.70947  19227230.1254   19227235.7174
      1887.3434       1470.6564
  18997932.1884   -5130019.10349  -3761103.96047  18997929.6164   18997936.3654
      2079.2474       1620.1914
  20194563.6764  -26620888.39448 -20070684.64847  20194561.6594   20194568.5964
      3086.8394       2405.3274
 00  7 14  2 46 59.9940000  0  8G22G 4G20G27G25G 1G16G19
  19476315.8754  -23553042.14748 -18324576.59247  19476312.9984   19476318.6314
      1136.6504        885.7014
  22661135.3154  -10678800.42547  -8033470.31645  22661133.7664   22661141.2414
      1701.5734       1325.8984
  18758644.2434  -41234716.15249 -31837795.56947  18758641.6524   18758646.6184
      -271.7804       -211.7764
  23174641.9284   -6905545.28947  -5071044.34345  23174640.3804   23174652.0554
      3831.7914       2985.8054
  22525609.3614  -21009830.15147 -16048665.85245  22525607.6234   22525615.0054
     -2027.9674      -1580.2324
  19216462.1814  -36539890.61349 -28169666.84947  19216460.1364   19216465.9024
      1882.3294       1466.7484
  18986097.3544   -5192213.40049  -3809567.02647  18986094.7594   18986101.0014
      2063.6534       1608.0404
  20176956.2064  -26713415.56848 -20142783.66947  20176954.1254   20176961.2554
      3078.2754       2398.6524
 00  7 14  2 47 29.9940000  0  8G22G 4G20G27G25G 1G16G19
  19469898.3194  -23586764.58448 -18350853.78547  19469895.7574   19469901.5424
      1112.4194        866.8184
  22651481.3074  -10729530.71447  -8073000.36345  22651480.0644   22651487.7494
      1681.3634       1310.1534
  18760258.3134  -41226232.87949 -31831185.24747  18760255.7764   18760261.0254
      -292.7434       -228.1104
  23152790.2374   -7020379.93847  -5160525.62245  23152788.1404   23152799.7494
      3824.8494       2980.3924
  22537200.4354  -20948922.11947 -16001205.12345  22537198.4274   22537205.9984
     -2031.5364      -1583.0124
  19205745.5974  -36596209.01749 -28213551.28547  19205743.3774   19205748.8994
      1873.2494       1459.6734
  18974375.3574   -5253812.98749  -3857566.68447  18974372.4554   18974378.9894
      2044.0014       1592.7274
  20159421.8664  -26805560.80448 -20214585.06747  20159419.6924   20159426.6764
      3065.7434       2388.8874
 00  7 14  2 47 59.9940000  0  8G22G 4G20G27G25G 1G16G19
  19463613.9754  -23619790.42448 -18376588.18147  19463611.3094   19463616.9724
      1088.2144        847.9574
  22641936.9074  -10779685.57247  -8112082.04145  22641934.9994   22641943.9864
      1661.1144       1294.3724
  18761986.5374  -41217152.23649 -31824109.43147  18761984.1004   18761988.8104
      -313.6714       -244.4184
  23130971.8324   -7135035.16247  -5249867.08845  23130969.7434   23130981.7724
      3817.8094       2974.9134
  22548804.9434  -20887939.57747 -15953686.35645  22548802.6114   22548810.2184
     -2034.9684      -1585.6864
  19195074.6474  -36652286.59949 -28257248.06747  19195072.3824   19195077.8064
      1864.2254       1452.6424
  18962759.5204   -5314852.81249  -3905130.16547  18962756.8844   18962763.5304
      2024.2984       1577.3744
  20141953.1434  -26897360.31348 -20286117.06847  20141950.7184   20141957.5824
      3053.1694       2379.0914
 00  7 14  2 48 29.9940000  0  8G22G 4G20G27G25G 1G16G19
  19457450.7654  -23652175.94848 -18401823.63247  19457448.3464   19457454.1984
      1071.5704        834.9894
  22632491.2954  -10829321.65147  -8150759.48545  22632489.8354   22632498.4384
      1648.6344       1284.6524
  18763817.5404  -41207531.64549 -31816612.87847  18763814.7174   18763819.6634
      -326.9224       -254.7434
  23109176.8974   -7249567.18647  -5339112.53445  23109174.7654   23109186.3744
      3818.4694       2975.4194
  22560412.6044  -20826940.37347 -15906154.62245  22560410.8214   22560417.8004
     -2030.7994      -1582.4324
  19184438.8404  -36708179.55249 -28300800.98747  19184436.4624   19184441.8764
      1862.7834       1451.5184
  18951239.8364   -5375387.55049  -3952300.07247  18951237.4444   18951243.6334
      2012.2024       1567.9494
  20124539.0324  -26988870.73848 -20357423.81047  20124537.0454   20124543.5374
      3048.2604       2375.2664
 00  7 14  2 48 59.9940000  0  8G22G 4G20G27G25G 1G16G19
  19451403.1084  -23683958.03148 -18426588.86847  19451400.3974   19451406.0574
      1046.8784        815.7484
  22623137.2634  -10878476.09347  -8189061.63045  22623135.9414   22623143.8734
      1627.9464       1268.5284
  18765743.1894  -41197409.16849 -31808725.24447  18765740.6884   18765746.0054
      -348.1984       -271.3234
  23087397.5734   -7364012.67847  -5428290.58545  23087396.0014   23087407.4914
      3810.9774       2969.5874
  22572017.8154  -20765963.32947 -15858640.14145  22572014.7104   22572021.8694
     -2034.6024      -1585.3974
  19173830.4804  -36763924.67149 -28344238.71447  19173828.1404   19173834.0624
      1853.3004       1444.1294
  18939809.9814   -5435453.90749  -3999105.00847  18939807.3264   18939813.4024
      1991.9634       1552.1774
  20107172.7934  -27080129.55348 -20428534.48647  20107170.6354   20107177.2274
      3035.3204       2365.1814
 00  7 14  2 49 29.9940000  0  8G22G 4G20G27G25G 1G16G19
  19445474.8464  -23715110.40048 -18450863.41847  19445472.2234   19445477.8554
      1029.3274        802.0734
  22613881.1944  -10927123.14147  -8226968.37845  22613879.2094   22613887.0884
      1614.5114       1258.0564
  18767769.7734  -41186759.95149 -31800427.16447  18767767.3574   18767772.5464
      -362.3044       -282.3144
  23065641.5014   -7478345.28147  -5517380.68645  23065639.6214   23065650.2574
      3810.6774       2969.3454
  22583621.3354  -20704984.09547 -15811123.92345  22583618.9184   22583625.9534
     -2031.2284      -1582.7764
  19163255.2064  -36819495.70449 -28387540.79347  19163253.1124   19163259.1494
      1850.9244       1442.2784
  18928473.8774   -5495024.04849  -4045523.27447  18928471.4574   18928477.6464
      1978.8074       1541.9274
  20089859.6094  -27171110.32448 -20499428.52347  20089857.3004   20089864.0744
      3029.5234       2360.6664
 00  7 14  2 49 59.9940000  0  8G22G 4G20G27G25G 1G16G19
  19439668.9194  -23745618.66748 -18474636.06847  19439666.2084   19439672.2894
      1009.5274        786.6464
  22604723.0344  -10975247.66847  -8264467.97045  22604721.6024   22604728.0024
      1598.7084       1245.7444
  18769899.6794  -41175569.93349 -31791707.68647  18769896.9094   18769901.8724
      -378.6814       -295.0754
  23043908.9524   -7592549.73447  -5606370.93845  23043906.9344   23043917.7314
      3807.9784       2967.2494
  22595228.1914  -20643989.63147 -15763595.84845  22595226.3074   22595232.9654
     -2030.0364      -1581.8404
  19152716.6534  -36874877.60349 -28430695.50247  19152714.4744   19152720.2054
      1846.2494       1438.6354
  18917235.6064   -5554081.54349  -4091542.07747  18917233.0514   18917239.5324
      1963.3714       1529.8984
  20072602.0364  -27261798.08248 -20570094.23547  20072599.9564   20072606.7514
      3021.3694       2354.3104
 00  7 14  2 50 29.9940000  0  8G22G 4G20G27G25G 1G16G19
  19433979.5654  -23775517.09648 -18497933.51747  19433976.8194   19433982.8044
       988.8364        770.5194
  22595657.7744  -11022883.98847  -8301587.13245  22595655.9704   22595663.8994
      1582.0784       1232.7844
  18772124.8894  -41163874.22749 -31782594.16047  18772122.3344   18772127.6294
      -395.8354       -308.4444
  23022193.9214   -7706659.72047  -5695287.57945  23022192.0924   23022203.1354
      3804.5214       2964.5524
  22606830.9424  -20583015.38647 -15716083.51445  22606828.6664   22606835.7684
     -2029.6334      -1581.5364
  19142207.7604  -36930103.96249 -28473729.00947  19142205.5004   19142210.7884
      1840.7504       1434.3504
  18906088.7714   -5612659.51149  -4137187.22447  18906086.2314   18906092.1504
      1947.0274       1517.1624
  20055394.0334  -27352226.96948 -20640558.23247  20055392.0374   20055398.3744
      3012.4114       2347.3314
 00  7 14  2 50 59.9940000  0  8G22G 4G20G27G25G 1G16G19
  19428419.5384  -23804738.98848 -18520703.79347  19428416.5614   19428421.9984
       963.9424        751.1244
  22586699.0554  -11069965.66347  -8338274.11045  22586696.5594   22586705.1694
      1561.3274       1216.6154
  18774459.2754  -41151607.53549 -31773035.70447  18774456.6964   18774461.7404
      -417.1514       -325.0534
  23000511.3344   -7820608.33647  -5784078.47445  23000508.6744   23000518.1704
      3796.8884       2958.6064
  22618442.4674  -20521996.11047 -15668536.06945  22618440.3544   22618447.8054
     -2033.4554      -1584.5124
  19131741.0894  -36985108.05349 -28516589.31847  19131738.6484   19131744.0284
      1831.0234       1426.7694
  18895046.0944   -5670689.77349  -4182405.58647  18895043.4524   18895049.5214
      1926.4904       1501.1604
  20038248.1744  -27442330.19148 -20710768.46247  20038246.1654   20038252.6924
      2999.2434       2337.0704
 00  7 14  2 51 29.9940000  0  8G22G 4G20G27G25G 1G16G19
  19422976.3324  -23833341.36648 -18542991.33247  19422973.5464   19422979.0954
       937.3164        730.3754
  22577833.8624  -11116550.23047  -8374573.72545  22577831.9594   22577839.4174
      1538.7544       1199.0274
  18776891.2294  -41138828.13549 -31763077.74847  18776888.6764   18776893.3874
      -440.2164       -343.0254
  22978846.7704   -7934452.34647  -5872787.86345  22978844.6494   22978854.7994
      3787.3304       2951.1614
  22630050.3364  -20460990.70047 -15620999.45145  22630048.7884   22630056.1584
     -2038.9364      -1588.7834
  19121305.2014  -37039946.91149 -28559320.86947  19121302.9644   19121308.3404
      1819.5014       1417.7934
  18884096.9354   -5728228.96549  -4227241.29947  18884094.2524   18884100.1004
      1904.0824       1483.7004
  20021153.3334  -27532165.13148 -20780769.65047  20021151.0024   20021157.2904
      2984.3154       2325.4374
 00  7 14  2 51 59.9940000  0  8G22G 4G20G27G25G 1G16G19
  19417660.0434  -23861277.76648 -18564759.93347  19417657.4954   19417663.1524
       925.1844        720.9224
  22569071.4174  -11162591.19547  -8410449.76645  22569070.0854   22569078.6754
      1530.6694       1192.7324
  18779429.1814  -41125490.37949 -31752684.72247  18779426.7554   18779431.7674
      -448.7744       -349.6934
  22957210.5544   -8048144.83947  -5961379.18545  22957208.4354   22957220.6724
      3792.3614       2955.0804
  22641664.5784  -20399954.08247 -15573438.49845  22641663.5454   22641672.0334
     -2029.9434      -1581.7734
  19110910.0984  -37094573.29449 -28601886.87147  19110907.7514   19110913.2264
      1822.4714       1420.1084
  18873249.9184   -5785228.74449  -4271656.69347  18873247.4764   18873253.1654
      1896.1104       1477.4884
  20004118.1504  -27621685.28348 -20850525.53547  20004115.9024   20004122.0644
      2983.8774       2325.0964
 00  7 14  2 52 29.9940000  0  8G22G 4G20G27G25G 1G16G19
  19412448.1734  -23888666.97848 -18586102.15847  19412445.4674   19412450.9234
       902.4124        703.1774
  22560391.9664  -11208206.90447  -8445994.43145  22560390.3634   22560398.2104
      1512.0184       1178.1934
  18782050.9424  -41111713.88149 -31741949.81747  18782048.1894   18782053.3084
      -467.9084       -364.6024
  22935582.3174   -8161803.76747  -6049944.36645  22935580.6294   22935591.5204
      3786.6844       2950.6604
  22653263.1714  -20339006.23547 -15525946.73045  22653262.2724   22653269.4734
     -2031.4804      -1582.9714
  19100532.9364  -37149105.29649 -28644379.31647  19100530.6794   19100536.2944
      1814.7654       1414.1024
  18862484.0234   -5841806.24849  -4315743.05347  18862481.1724   18862487.0934
      1877.4844       1462.9744
  19987120.1794  -27711009.03048 -20920128.37147  19987118.0174   19987124.0414
      2972.7904       2316.4574
 00  7 14  2 52 59.9940000  0  8G22G 4G20G27G25G 1G16G19
  19407369.2124  -23915355.19248 -18606898.14347  19407366.5154   19407372.3544
       878.8784        684.8414
  22551822.1724  -11253243.56147  -8481087.90445  22551820.0864   22551827.7954
      1492.5684       1163.0414
  18784784.9964  -41097345.55149 -31730753.74347  18784782.5444   18784787.1954
      -487.8104       -380.1114
  22913990.1034   -8275274.68947  -6138363.06245  22913988.2574   22913998.4424
      3780.2754       2945.6644
  22664873.8264  -20277994.44547 -15478405.12645  22664872.4474   22664880.1214
     -2033.8044      -1584.7794
  19090203.4484  -37203388.35149 -28686677.79047  19090201.0954   19090206.4914
      1806.3074       1407.5124
  18851827.4644   -5897806.12549  -4359379.31647  18851824.7684   18851830.5484
      1858.0504       1447.8324
  19970189.5514  -27799982.25348 -20989458.06847  19970187.2484   19970192.5414
      2960.9534       2307.2334
 00  7 14  2 53 29.9940000  0  8G22G 4G20G27G25G 1G16G19
  19402419.7284  -23941366.45148 -18627166.63747  19402416.9484   19402422.4834
       857.1594        667.9164
  22543357.9564  -11297725.54547  -8515749.16945  22543355.3364   22543362.9094
      1474.8214       1149.2104
  18787627.2664  -41082410.53249 -31719116.05747  18787624.5564   18787629.3514
      -505.8104       -394.1394
  22892428.8034   -8388581.13747  -6226653.60145  22892426.4274   22892436.7564
      3775.5224       2941.9594
  22676491.1194  -20216944.49747 -15430833.77845  22676489.9374   22676496.6004
     -2034.1244      -1585.0344
  19079916.3844  -37257446.09649 -28728800.69047  19079914.2754   19079919.4894
      1799.6134       1402.2964
  18841275.8834   -5953251.21149  -4402583.27047  18841273.5854   18841279.5244
      1840.3524       1434.0404
  19953320.0314  -27888628.92548 -21058533.31147  19953317.8714   19953323.8434
      2950.8814       2299.3854
 00  7 14  2 53 59.9940000  0  8G22G 4G20G27G25G 1G16G19
  19397587.3284  -23966757.92948 -18646952.17847  19397584.9694   19397590.7844
       836.9204        652.1464
  22534987.1614  -11341710.16747  -8550022.87145  22534985.6854   22534992.6854
      1458.7704       1136.7124
  18790565.9174  -41066967.43449 -31707082.47547  18790563.3084   18790568.1964
      -522.2914       -406.9804
  22870888.1424   -8501780.09747  -6314860.38245  22870885.6834   22870895.2434
      3772.4564       2939.5674
  22688105.3364  -20155915.03347 -15383278.37845  22688102.7824   22688110.7194
     -2033.0594      -1584.1984
  19069661.9484  -37311335.33449 -28770792.28947  19069659.6264   19069664.7514
      1794.4544       1398.2754
  18830820.1194   -6008197.45649  -4445398.51847  18830817.6614   18830823.5704
      1824.1764       1421.4354
  19936502.5864  -27977006.30748 -21127398.72447  19936500.4404   19936506.1384
      2942.3704       2292.7544
 00  7 14  2 54 29.9940000  0  8G22G 4G20G27G25G 1G16G19
  19392879.3374  -23991499.20148 -18666231.07347  19392876.8444   19392882.7374
       814.1754        634.4234
  22526717.7684  -11385167.07147  -8583885.38545  22526715.7924   22526723.8874
      1440.0324       1122.1074
  18793606.6974  -41050986.78449 -31694630.03847  18793604.1704   18793608.9914
      -541.2774       -421.7734
  22849372.8694   -8614840.52147  -6402959.22145  22849369.7684   22849380.1014
      3766.7034       2935.0884
  22699720.3044  -20094876.76147 -15335716.12045  22699718.2154   22699725.7944
     -2034.3794      -1585.2254
  19059445.0974  -37365025.00649 -28812628.38847  19059442.8244   19059448.1644
      1786.6784       1392.2164
  18820465.2764   -6062613.20449  -4487800.38947  18820462.8704   18820468.9154
      1805.3584       1406.7734
  19919742.1284  -28065083.65548 -21196030.34747  19919739.7024   19919745.3994
      2931.2224       2284.0674
 00  7 14  2 54 59.9940000  0  8G22G 4G20G27G25G 1G16G19
  19388295.6064  -24015589.76248 -18685002.91947  19388292.8974   19388298.0444
       791.5494        616.7904
  22518550.0344  -11428095.30647  -8617335.93845  22518547.9404   22518554.5924
      1421.4704       1107.6304
  18796749.8814  -41034468.47849 -31681758.65247  18796747.4054   18796752.3134
      -560.1914       -436.5134
  22827883.3194   -8727760.69247  -6490948.78645  22827881.2814   22827892.4984
      3761.0524       2930.6814
  22711336.0884  -20033829.89047 -15288147.18545  22711335.2104   22711342.2674
     -2035.5954      -1586.1714
  19049266.5784  -37418513.65749 -28854307.84747  19049264.2574   19049269.7094
      1778.9664       1386.2064
  18810212.3494   -6116495.85649  -4529786.86547  18810209.5464   18810215.2134
      1786.6184       1392.1694
  19903038.8114  -28152859.76048 -21264427.26547  19903036.5164   19903042.7294
      2920.2344       2275.5044
 00  7 14  2 55 29.9940000  0  8G22G 4G20G27G25G 1G16G19
  19383824.5814  -24039083.10648 -18703309.40147  19383821.9084   19383827.6734
       767.6374        598.1584
  22510469.0284  -11470548.27047  -8650416.16245  22510467.2964   22510476.8434
      1401.6344       1092.1784
  18799985.0804  -41017466.80849 -31668510.61647  18799982.6864   18799987.4804
      -580.2614       -452.1504
  22806412.2034   -8840593.61547  -6578870.34545  22806410.4604   22806420.8094
      3754.1684       2925.3254
  22722945.3834  -19972829.25947 -15240614.29445  22722942.8964   22722950.7414
     -2038.0044      -1588.0544
  19039115.8434  -37471854.04049 -28895871.76347  19039113.2854   19039119.4214
      1769.9884       1379.2114
  18800049.7444   -6169897.57849  -4571398.59047  18800047.1964   18800053.1694
      1766.5944       1376.5674
  19886382.5114  -28240388.10748 -21332631.11347  19886380.5654   19886386.5304
      2907.9844       2265.9604
 00  7 14  2 55 59.9940000  0  8G22G 4G20G27G25G 1G16G19
  19379490.8554  -24061856.61348 -18721054.97347  19379488.2814   19379494.2464
       748.7004        583.4024
  22502505.4224  -11512403.73147  -8683030.80445  22502502.9664   22502510.5514
      1386.7464       1080.5794
  18803335.8974  -40999860.48349 -31654791.42347  18803333.1604   18803338.0114
      -595.3244       -463.8884
  22784981.3354   -8953216.10447  -6666627.94245  22784978.7424   22784989.6584
      3752.1044       2923.7174
  22734568.1234  -19911753.34147 -15193022.71945  22734566.0314   22734573.6844
     -2035.4614      -1586.0694
  19029016.4624  -37524923.00849 -28937224.18647  19029014.4054   19029020.6044
      1766.0534       1376.1434
  18790003.0334   -6222694.24649  -4612538.84747  18790000.5664   18790006.4264
      1751.4434       1364.7624
  19869796.6184  -28327545.73048 -21400546.07447  19869794.4704   19869800.7704
      2900.6714       2260.2614
 00  7 14  2 56 29.9940000  0  8G22G 4G20G27G25G 1G16G19
  19375267.7814  -24084050.36248 -18738348.78547  19375264.8834   19375270.8624
       726.3014        565.9484
  22494627.0744  -11553802.11347  -8715289.27745  22494625.4004   22494633.1414
      1368.4864       1066.3544
  18806774.1104  -40981790.74849 -31640711.13447  18806771.6934   18806776.6454
      -613.8124       -478.2944
  22763562.6444   -9065767.92647  -6754330.46645  22763560.6354   22763570.7414
      3746.7854       2919.5644
  22746177.4814  -19850744.02347 -15145483.02445  22746175.9254   22746182.9044
     -2036.3014      -1586.7254
  19018943.1294  -37577860.10549 -28978473.85247  19018940.9934   19018947.0874
      1758.5794       1370.3204
  18780044.9384   -6275025.08149  -4653316.12147  18780042.3064   18780048.1224
      1732.7864       1350.2234
  19853254.5444  -28414472.70348 -21468281.30347  19853252.6374   19853258.9804
      2889.8964       2251.8644
 00  7 14  2 56 59.9940000  0  8G22G 4G20G27G25G 1G16G19
  19371182.9244  -24105515.11048 -18755074.54647  19371180.3494   19371186.2294
       708.6924        552.2274
  22486864.4504  -11594593.88147  -8747075.06945  22486862.7834   22486870.6654
      1355.0134       1055.8534
  18810329.3334  -40963108.98849 -31626153.93647  18810326.7094   18810331.6724
      -627.5214       -488.9784
  22742187.4094   -9178098.72647  -6841860.73645  22742184.8244   22742194.2004
      3746.0904       2919.0264
  22757802.3114  -19789652.32947 -15097879.16045  22757801.2404   22757808.8574
     -2032.2894      -1583.6014
  19008923.4714  -37630515.01549 -29019503.64347  19008921.2084   19008927.1444
      1755.8714       1368.2104
  18770204.2234   -6326739.01549  -4693612.68947  18770201.5234   18770207.5804
      1718.9044       1339.4064
  19836784.8624  -28501019.24348 -21535720.09847  19836783.0944   19836789.5974
      2883.9384       2247.2224
 00  7 14  2 57 29.9940000  0  8G22G 4G20G27G25G 1G16G19
  19367215.2654  -24126365.49348 -18771321.57547  19367212.7194   19367218.4314
       684.2694        533.1964
  22479196.6424  -11634893.12547  -8778477.07045  22479194.9654   22479201.7244
      1334.5944       1039.9384
  18813978.8194  -40943930.33949 -31611209.53947  18813976.2754   18813981.1064
      -647.9984       -504.9324
  22720831.6414   -9290322.19447  -6929307.39345  22720829.2864   22720838.7974
      3738.5684       2913.1634
  22769421.7174  -19728593.92847 -15050301.22245  22769419.2604   22769427.2844
     -2035.1484      -1585.8254
  18998935.9284  -37683001.10649 -29060401.86947  18998933.4684   18998939.0774
      1746.2724       1360.7304
  18760458.8564   -6377948.55949  -4733516.21847  18760456.3414   18760462.5744
      1698.1364       1323.2214
  19820367.4224  -28587299.29948 -21602951.24947  19820364.9354   19820371.2104
      2871.1044       2237.2204
 00  7 14  2 57 59.9940000  0  8G22G 4G20G27G25G 1G16G19
  19363370.0674  -24146571.57348 -18787066.55447  19363367.5264   19363373.2444
       663.4564        516.9784
  22471626.8044  -11674669.90947  -8809471.93345  22471625.5064   22471633.2884
      1317.8454       1026.8894
  18817728.5584  -40924226.01649 -31595855.53347  18817726.0224   18817730.7974
      -664.8584       -518.0714
  22699502.8824   -9402407.58547  -7016646.47246  22699500.6384   22699509.9954
      3734.6094       2910.0804
  22781040.0194  -19667539.86447 -15002726.67545  22781037.8234   22781045.7164
     -2034.3654      -1585.2234
  18988985.8704  -37735287.72549 -29101144.66447  18988983.5754   18988989.2434
      1740.2544       1356.0424
  18750816.0554   -6428622.87849  -4773002.68947  18750813.4264   18750819.6574
      1680.9304       1309.8154
  19804004.5694  -28673282.67248 -21669951.21347  19804002.5314   19804009.1854
      2861.8524       2230.0134
 00  7 14  2 58 29.9940000  0  8G22G 4G20G27G25G 1G16G19
  19359642.5594  -24166161.99048 -18802331.80147  19359639.7484   19359645.2324
       641.0054        499.4844
  22464152.7124  -11713953.39947  -8840082.42745  22464150.4324   22464157.7224
      1299.4964       1012.5904
  18821572.5344  -40904025.57349 -31580114.96547  18821569.8674   18821575.1244
      -683.3264       -532.4614
  22678193.6944   -9514383.12347  -7103899.96345  22678191.3614   22678200.8294
      3728.9604       2905.6744
  22792652.6834  -19606519.81047 -14955178.59645  22792649.9754   22792656.9644
     -2035.1114      -1585.7964
  18979068.5084  -37787402.95049 -29141753.90247  18979066.3564   18979071.8574
      1732.6014       1350.0794
  18741270.0364   -6478788.79849  -4812093.00447  18741267.3094   18741273.2844
      1661.9954       1295.0604
  19787693.2954  -28758997.94148 -21736742.26447  19787691.4144   19787698.0434
      2850.9914       2221.5484
 00  7 14  2 58 59.9940000  0  8G22G 4G20G27G25G 1G16G19
  19356034.4834  -24185123.04648 -18817106.63447  19356031.5684   19356037.0714
       622.5854        485.1324
  22456772.8144  -11752730.01247  -8870297.95045  22456770.6464   22456779.0684
      1285.1354       1001.4014
  18825513.2284  -40883316.56349 -31563978.11747  18825510.6154   18825515.5014
      -697.6844       -543.6484
  22656909.3814   -9626234.57447  -7191056.74645  22656906.4914   22656916.6874
      3727.3874       2904.4544
  22804259.7604  -19545521.55547 -14907647.50645  22804257.3704   22804265.1234
     -2031.8494      -1583.2664
  18969187.0954  -37839332.36749 -29182218.36347  18969184.7494   18969190.2244
      1728.9564       1347.2384
  18731822.9404   -6528431.39249  -4850775.53247  18731820.4364   18731826.9044
      1647.1444       1283.4884
  19771436.4484  -28844430.89449 -21803313.32847  19771434.3054   19771441.1274
      2844.1394       2216.2094
 00  7 14  2 59 29.9940000  0  8G22G 4G20G27G25G 1G16G19
  19352556.1474  -24203398.96848 -18831347.59947  19352553.5624   19352558.9644
       597.3064        465.4334
  22449500.4794  -11790943.48447  -8900074.67645  22449498.7114   22449506.8924
      1263.9274        984.8774
  18829561.5724  -40862043.58749 -31547401.79247  18829559.0624   18829563.4744
      -718.9144       -560.1914
  22635658.4804   -9737904.92147  -7278072.41845  22635656.8604   22635665.4314
      3718.9294       2897.8604
  22815874.1384  -19484489.57647 -14860090.14145  22815871.5614   22815879.0824
     -2035.3774      -1586.0084
  18959352.0654  -37891018.76749 -29222493.46447  18959349.2174   18959354.4154
      1718.3964       1339.0104
  18722487.0294   -6577493.30649  -4889005.58147  18722484.3384   18722490.8534
      1625.2754       1266.4484
  19755243.1634  -28929525.00849 -21869620.37847  19755241.3254   19755248.1084
      2830.3714       2205.4834
 00  7 14  2 59 59.9940000  0  8G22G 4G20G27G25G 1G16G19
  19349196.1204  -24221057.16548 -18845107.22147  19349193.2814   19349198.5764
       579.4824        451.5444
  22442323.7354  -11828660.93747  -8929464.89045  22442322.2294   22442329.3854
      1250.0954        974.1014
  18833704.1334  -40840274.80149 -31530439.12347  18833701.6434   18833706.3374
      -732.6804       -570.9204
  22614430.2494   -9849460.34047  -7364998.52945  22614428.1894   22614437.9404
      3717.7844       2896.9724
  22827481.7164  -19423491.76647 -14812559.39145  22827479.2624   22827486.1404
     -2031.4524      -1582.9434
  18949549.0624  -37942528.27649 -29262630.71747  18949546.9644   18949552.5084
      1715.2714       1336.5734
  18713249.2214   -6626040.08549  -4926834.22247  18713246.4544   18713252.2234
      1610.8414       1255.2004
  19739102.3794  -29014347.12149 -21935715.49047  19739100.1134   19739106.8494
      2824.0584       2200.5644
 00  7 14  3  0 29.9940000  0  8G22G 4G20G27G25G 1G16G19
  19345957.4154  -24238077.81748 -18858370.05247  19345954.6454   19345959.7844
       560.1544        436.4814
  22435243.9584  -11865862.71447  -8958453.29445  22435242.1064   22435249.9664
      1234.9114        962.2734
  18837944.5794  -40817991.22649 -31513075.32247  18837942.1774   18837946.9724
      -747.8724       -582.7574
  22593227.7584   -9960880.23147  -7451819.03045  22593225.4404   22593234.8954
      3715.2034       2894.9594
  22839085.8314  -19362509.24447 -14765040.56945  22839083.5654   22839091.6254
     -2029.0204      -1581.0604
  18939785.3984  -37993840.41249 -29302614.17547  18939782.9294   18939788.1304
      1710.6114       1332.9434
  18704113.0664   -6674050.12649  -4964244.63147  18704110.3244   18704115.9474
      1594.8584       1242.7464
  19723016.7994  -29098877.11749 -22001582.97147  19723014.6934   19723021.0974
      2816.2834       2194.5054
 00  7 14  3  0 59.9940000  0  8G22G 4G20G27G25G 1G16G19
  19342824.6194  -24254537.66248 -18871195.88647  19342822.2434   19342828.0154
       540.5394        421.1994
  22428247.8854  -11902625.61647  -8987099.71245  22428246.5804   22428254.7014
      1219.3714        950.1584
  18842268.5754  -40795270.92549 -31495371.21047  18842265.8664   18842270.6044
      -763.3234       -594.7964
  22572036.4404  -10072240.66847  -7538593.20746  22572034.0684   22572044.0494
      3712.3784       2892.7564
  22850672.2624  -19301620.05247 -14717594.47145  22850670.4474   22850678.4174
     -2026.7404      -1579.2814
  18930044.2424  -38045031.03249 -29342502.95147  18930041.7544   18930046.7734
      1705.6324       1329.0644
  18695064.1034   -6721599.15049  -5001295.80447  18695061.7224   18695068.0254
      1578.5674       1230.0524
  19706972.3234  -29183191.78549 -22067282.66547  19706970.1094   19706976.5854
      2808.1854       2188.1954
 00  7 14  3  1 29.9930000  0  8G22G 4G20G27G25G 1G16G19
  19339821.4134  -24270322.00648 -18883495.36347  19339818.5964   19339824.4264
       517.5024        403.2494
  22421358.1894  -11938834.41847  -9015314.36745  22421356.4584   22421364.4264
      1200.3594        935.3504
  18846696.4234  -40772001.34749 -31477239.09347  18846693.6854   18846698.6614
      -782.2134       -609.5154
  22550878.5084  -10183422.94647  -7625228.55946  22550876.5304   22550886.3384
      3705.9334       2887.7304
  22862262.7814  -19240712.97447 -14670134.41945  22862260.8954   22862267.7164
     -2027.9984      -1580.2624
  18920348.1634  -38095983.27149 -29382205.97747  18920345.7674   18920350.7814
      1697.1544       1322.4574
  18686126.0354   -6768569.84249  -5037896.32547  18686123.5054   18686129.8114
      1558.7744       1214.6294
  19690991.2274  -29267173.47049 -22132722.87647  19690988.9044   19690995.3154
      2796.6154       2179.1804
 00  7 14  3  1 59.9930000  0  8G22G 4G20G27G25G 1G16G19
  19336942.4164  -24285451.08848 -18895284.24947  19336939.7544   19336945.2504
       495.2584        385.9154
  22414569.0394  -11974510.19347  -9043113.67245  22414567.1524   22414575.1294
      1182.1884        921.1874
  18851225.7444  -40748200.43049 -31458692.94947  18851223.0684   18851227.5004
      -800.2284       -623.5534
  22529751.3284  -10294452.45448  -7711744.86046  22529748.8794   22529758.1594
      3700.3494       2883.3854
  22873854.0234  -19179803.23547 -14622672.29745  22873852.0084   22873859.0834
     -2028.3924      -1580.5624
  18910693.3774  -38146718.26449 -29421739.73047  18910691.1394   18910696.3064
      1689.4774       1316.4754
  18677293.9674   -6814982.64249  -5074062.12547  18677291.3524   18677297.5694
      1539.7354       1199.7924
  19675068.5004  -29350846.03549 -22197922.22147  19675066.2794   19675072.9204
      2785.8404       2170.7834
 00  7 14  3  2 29.9930000  0  8G22G 4G20G27G25G 1G16G19
  19334188.2634  -24299924.60348 -18906562.30247  19334185.4274   19334190.8454
       472.6774        368.3204
  22407881.3344  -12009651.64747  -9070496.62545  22407879.7114   22407888.0914
      1163.6064        906.7074
  18855855.4064  -40723869.91149 -31439734.12847  18855852.8544   18855857.5624
      -818.6504       -637.9084
  22508652.8964  -10405324.36748  -7798138.37446  22508650.6704   22508659.3664
      3694.2774       2878.6534
  22885444.8294  -19118893.13447 -14575209.90145  22885442.9054   22885449.7704
     -2029.1334      -1581.1414
  18901081.2414  -38197232.83549 -29461101.71647  18901078.6354   18901083.7454
      1681.3344       1310.1314
  18668569.0414   -6860834.38549  -5109790.74247  18668566.2634   18668572.6724
      1520.2124       1184.5814
  19659205.3644  -29434206.11049 -22262878.08347  19659203.2064   19659209.8074
      2774.6194       2162.0394
 00  7 14  3  2 59.9930000  0  8G22G 4G20G27G25G 1G16G19
  19331554.9204  -24313761.51648 -18917344.30347  19331552.1134   19331558.0684
       448.9724        349.8484
  22401294.2294  -12044277.98147  -9097478.20545  22401292.1424   22401299.0004
      1144.0004        891.4274
  18860582.3614  -40699029.67149 -31420378.12747  18860579.7634   18860584.6644
      -838.0944       -653.0604
  22487579.8094  -10516056.99548  -7884423.36146  22487577.6264   22487587.5984
      3687.2104       2873.1434
  22897031.6534  -19058002.87547 -14527762.97745  22897029.1314   22897037.2214
     -2030.9914      -1582.5874
  18891506.7434  -38247545.08949 -29500306.05347  18891504.3934   18891509.6764
      1672.1114       1302.9424
  18659946.8974   -6906142.67249  -5145095.88547  18659944.3754   18659950.8324
      1499.6154       1168.5304
  19643398.4064  -29517271.90549 -22327604.64247  19643396.2224   19643402.7324
      2762.3374       2152.4684
 00  7 14  3  3 29.9930000  0  8G22G 4G20G27G25G 1G16G19
  19329033.6234  -24327012.77948 -18927669.95547  19329030.7334   19329036.2784
       430.8944        335.7614
  22394791.9444  -12078440.09047  -9124098.02545  22394790.3764   22394798.0974
      1129.9394        880.4724
  18865396.0584  -40673731.89049 -31400665.59547  18865393.6414   18865398.4214
      -851.8854       -663.8064
  22466525.4584  -10626700.52548  -7970638.93646  22466523.0674   22466532.6094
      3685.6344       2871.9154
  22908604.7044  -18997184.60147 -14480372.15745  22908602.3034   22908610.9004
     -2027.0284      -1579.5104
  18881961.9614  -38297705.25849 -29539391.87947  18881959.3804   18881964.7184
      1668.4334       1300.0754
  18651418.8704   -6950956.99849  -5180016.12547  18651416.4564   18651422.6794
      1484.5684       1156.8054
  19627638.1974  -29600094.21549 -22392141.45247  19627635.9974   19627642.4384
      2755.6764       2147.2774
 00  7 14  3  3 59.9930000  0  8G22G 4G20G27G25G 1G16G19
  19326638.1734  -24339599.62048 -18937477.87247  19326635.5764   19326641.2524
       401.9244        313.1874
  22388394.3554  -12112059.47147  -9150294.94745  22388393.3094   22388400.8344
      1104.9854        861.0224
  18870312.0754  -40647898.37449 -31380535.60347  18870309.6664   18870314.6374
      -876.5774       -683.0474
  22445502.1994  -10737175.09448  -8056722.81646  22445499.9574   22445508.6624
      3673.1354       2862.1754
  22920179.2894  -18936359.49947 -14432976.00545  22920177.3384   22920184.9424
     -2034.1284      -1585.0384
  18872460.4064  -38347633.18849 -29578296.75447  18872458.0994   18872463.5354
      1653.8394       1288.7064
  18643000.9944   -6995196.73249  -5214488.63147  18642998.1884   18643003.7724
      1458.5574       1136.5364
  19611938.7224  -29682593.97249 -22456426.92447  19611936.7004   19611942.9684
      2738.0804       2133.5654
 00  7 14  3  4 29.9930000  0  8G22G 4G20G27G25G 1G16G19
  19324366.1594  -24351541.14849 -18946782.95047  19324363.2874   19324368.8454
       388.7784        302.9434
  22382095.8564  -12145154.64247  -9176083.39145  22382094.2924   22382102.5534
      1095.8514        853.9054
  18875326.2194  -40621548.83549 -31360003.52747  18875323.6314   18875329.0184
      -885.3984       -689.9204
  22424508.5574  -10847498.50947  -8142688.95246  22424506.7054   22424515.1474
      3676.3884       2864.7104
  22931751.4254  -18875546.68747 -14385589.40745  22931750.0234   22931757.6344
     -2025.3394      -1578.1834
  18863000.1304  -38397346.32949 -29617034.25347  18862997.9864   18863003.2044
      1655.0494       1289.6474
  18634688.1594   -7038879.49449  -5248527.12747  18634685.4114   18634691.4324
      1448.3014       1128.5464
  19596297.7474  -29764789.09049 -22520475.01747  19596295.6284   19596301.8604
      2736.2654       2132.1544
 00  7 14  3  4 59.9930000  0  8G22G 4G20G27G25G 1G16G19
  19322200.7644  -24362917.95948 -18955647.99047  19322198.1784   19322203.6074
       368.7544        287.3424
  22375883.2764  -12177805.82247  -9201525.86345  22375881.2794   22375890.3344
      1079.9414        841.5104
  18880423.2264  -40594764.29449 -31339132.48947  18880420.7404   18880425.7774
      -901.0664       -702.1284
  22403528.3744  -10957750.11648  -8228599.12046  22403526.2814   22403535.0194
      3672.8764       2861.9754
  22943306.1214  -18814827.39247 -14338275.70045  22943304.1764   22943312.5904
     -2023.4074      -1576.6814
  18853565.9674  -38446923.76749 -29655666.00747  18853563.6144   18853568.7004
      1649.2974       1285.1654
  18626466.2614   -7082083.36249  -5282192.46347  18626463.8814   18626470.0944
      1431.1554       1115.1844
  19580699.3184  -29846759.54849 -22584348.06047  19580697.0864   19580703.3364
      2727.5894       2125.3944
 00  7 14  3  5 29.9930000  0  7G22G 4G20G27G 1G16G19
  19320179.5774  -24373540.88749 -18963925.59047  19320177.0154   19320182.3414
       341.3404        265.9804
  22369791.0664  -12209824.07447  -9226475.14145  22369788.5714   22369797.1184
      1056.5414        823.2764
  18885639.0634  -40567356.81649 -31317776.03247  18885636.4634   18885641.2844
      -924.0934       -720.0714
  22382598.5224  -11067739.73948  -8314305.13346  22382595.7264   22382604.7514
      3661.8334       2853.3684
  18844193.6914  -38496175.08949 -29694043.64547  18844191.5224   18844196.6094
      1636.1514       1274.9234
  18618372.8714   -7124618.52749  -5315336.73447  18618370.0754   18618375.7654
      1406.5554       1096.0174
  19565179.7894  -29928315.46649 -22647898.08547  19565177.6164   19565184.0164
      2711.4694       2112.8314
 00  7 14  3  5 59.9930000  0  7G22G 4G20G27G 1G16G19
  19318287.0194  -24383488.22549 -18971676.75347  19318283.9214   19318289.3954
       322.1944        251.0594
  22363803.4544  -12241287.69847  -9250992.23045  22363801.6174   22363809.7434
      1041.3674        811.4494
  18890958.0134  -40539405.51149 -31295995.83247  18890955.2664   18890960.3354
      -938.8544       -731.5734
  22361702.3344  -11177544.64348  -8399867.21546  22361700.1084   22361709.0954
      3658.9724       2851.1434
  18834869.0894  -38545177.45249 -29732227.28947  18834866.7084   18834871.8504
      1631.1764       1271.0464
  18610391.8164   -7166561.39749  -5348019.47147  18610388.9244   18610394.1394
      1390.1354       1083.2224
  19549723.8344  -30009534.80049 -22711185.82147  19549721.7464   19549728.1694
      2703.5874       2106.6904
 00  7 14  3  6 29.9930000  0  7G22G 4G20G27G 1G16G19
  19316500.7984  -24392869.99548 -18978987.21747  19316498.2944   19316503.9674
       301.7774        235.1504
  22357900.7924  -12272306.64947  -9275162.83145  22357898.8464   22357905.8094
      1024.9694        798.6794
  18896358.9354  -40511021.08849 -31273878.13947  18896356.5464   18896361.6614
      -954.8714       -744.0554
  22340821.4634  -11287273.74548  -8485370.24346  22340819.5124   22340828.3794
      3654.8664       2847.9424
  18825570.8534  -38594039.52149 -29770301.61947  18825568.4714   18825573.9614
      1624.8674       1266.1304
  18602501.5684   -7208020.52449  -5380325.27547  18602498.8674   18602504.9304
      1372.3944       1069.3974
  19534311.7364  -30090526.73649 -22774296.35847  19534309.4754   19534315.6724
      2694.4094       2099.5374
 00  7 14  3  6 59.9930000  0  7G22G 4G20G27G 1G16G19
  19314837.2474  -24401617.36149 -18985803.34247  19314834.1274   19314839.4444
       283.0954        220.5944
  22352095.4134  -12302811.62047  -9298932.95445  22352093.7364   22352101.1844
      1010.3184        787.2604
  18901856.2814  -40482135.06249 -31251369.59547  18901853.5584   18901858.7584
      -969.0904       -755.1344
  22319968.9144  -11396856.69548  -8570759.39146  22319966.6384   22319975.2864
      3652.4364       2846.0484
  18816312.6894  -38642690.80249 -29808211.70047  18816310.3204   18816315.7484
      1620.3194       1262.5864
  18594717.5734   -7248924.82149  -5412198.75247  18594715.0374   18594721.1174
      1356.3474       1056.8934
  19518955.7294  -30171221.02148 -22837174.98047  19518953.6524   19518959.8064
      2686.9684       2093.7394
 00  7 14  3  7 29.9930000  0  7G22G 4G20G27G 1G16G19
  19313275.4394  -24409825.75449 -18992199.49047  19313272.3494   19313277.4674
       264.7984        206.3364
  22346370.0884  -12332897.71647  -9322376.65245  22346368.2214   22346376.2914
       996.0744        776.1674
  18907429.8564  -40452843.53949 -31228545.08147  18907427.3684   18907432.6114
      -982.9324       -765.9214
  22299125.2094  -11506387.62148  -8656108.00846  22299123.4404   22299132.0074
      3650.3654       2844.4374
  18807077.0204  -38691224.74249 -29846030.34147  18807074.8604   18807080.2474
      1616.0244       1259.2394
  18587021.8504   -7289368.16049  -5443713.04047  18587019.2564   18587025.1304
      1340.6294       1044.6454
  19503638.7414  -30251712.39848 -22899895.48647  19503636.6984   19503642.6844
      2679.8424       2088.1884
 00  7 14  3  7 59.9930000  0  7G22G 4G20G27G 1G16G19
  19311844.9994  -24417341.06449 -18998055.57047  19311842.1124   19311847.4804
       237.9554        185.4194
  22340752.9244  -12362410.94247  -9345373.97145  22340751.6614   22340760.2914
       973.2664        758.3954
  18913110.3754  -40422993.24149 -31205285.14247  18913107.7434   18913112.9964
     -1005.2654       -783.3224
  22278322.2514  -11615711.55548  -8741295.32846  22278320.0714   22278328.2004
      3639.7484       2836.1644
  18797893.4294  -38739485.99549 -29883636.49947  18797891.0554   18797896.6844
      1603.1994       1249.2454
  18579443.1404   -7329194.70949  -5474746.70947  18579440.5704   18579446.2204
      1316.3094       1025.6944
  19488389.6134  -30331846.42148 -22962337.52747  19488387.5654   19488393.4634
      2664.2014       2075.9994
 00  7 14  3  8 29.9930000  0  7G22G 4G20G27G 1G16G19
  19310534.3274  -24424226.32749 -19003420.70947  19310531.6034   19310537.3204
       219.8454        171.3084
  22335234.2524  -12391414.60047  -9367974.22245  22335232.9474   22335240.4184
       959.1304        747.3704
  18918884.8704  -40392648.38749 -31181639.82947  18918882.3064   18918887.3084
     -1018.8664       -793.9214
  22257546.3454  -11724890.47248  -8826369.65546  22257543.9014   22257551.4574
      3637.7034       2834.5674
  18788749.4884  -38787536.32649 -29921078.30047  18788747.2624   18788752.7014
      1599.0274       1245.9954
  18571970.1814   -7368466.16049  -5505347.83847  18571967.4374   18571973.1644
      1300.6894       1013.5244
  19473196.8234  -30411685.30448 -23024549.59547  19473194.7344   19473200.6164
      2657.2624       2070.5924
 00  7 14  3  8 59.9930000  0  7G22G 4G20G27G 1G16G19
  19309351.2514  -24430444.55149 -19008266.07747  19309348.5164   19309353.7854
       196.4244        153.0594
  22329819.7584  -12419871.34647  -9390148.30945  22329817.6224   22329826.4184
       939.6544        732.1974
  18924760.7944  -40361772.44049 -31157580.67647  18924758.2664   18924763.0234
     -1037.7224       -808.6144
  22236803.7224  -11833885.81048  -8911300.93146  22236801.6974   22236810.5884
      3630.3934       2828.8704
  18779653.7094  -38835336.97949 -29958325.54247  18779651.4014   18779656.3724
      1589.4934       1238.5644
  18564610.2264   -7407143.66749  -5535486.15647  18564607.5234   18564613.0544
      1279.6394        997.1214
  19458067.6314  -30491191.32749 -23086502.29347  19458065.4924   19458071.6374
      2644.9554       2061.0014
 00  7 14  3  9 29.9930000  0  7G22G 4G20G27G 1G16G19
  19308290.3724  -24436017.05949 -19012608.28347  19308287.7384   19308293.5464
       176.7024        137.6904
  22324504.1234  -12447801.82447  -9411912.30745  22324502.3714   22324512.3884
       923.9704        719.9734
  18930733.1184  -40330387.16549 -31133124.64347  18930730.5104   18930735.6684
     -1052.9044       -820.4444
  22216094.0204  -11942717.13448  -8996104.41146  22216092.1794   22216100.4604
      3626.7084       2826.0024
  18770601.5514  -38882907.26749 -29995393.28047  18770599.2514   18770604.1334
      1583.5844       1233.9614
  18557359.5634   -7445246.29549  -5565176.51447  18557356.8554   18557362.4234
      1262.2904        983.6014
  19442997.5694  -30570384.59049 -23148211.28947  19442995.4294   19443001.6094
      2636.3154       2054.2714
