     2.10           OBSERVATION DATA    G (GPS)             RINEX VERSION / TYPE
teqc  2000Feb29     CORS/NGS/NOAA       20000716 00:48:29UTCPGM / RUN BY / DATE
HP-UX 10.20|PA-RISC|cc A.10.32.03|=+|=|                     COMMENT
BIT 2 OF LLI FLAGS DATA COLLECTED UNDER A/S CONDITION       COMMENT
van1                                                        MARKER NAME
xxx                                                         MARKER NUMBER
CORS/NGS/NOAA       U.S. Coast Guard                        OBSERVER / AGENCY
05399               ASHTECH   Z-XII3    RD00                REC # / TYPE / VERS
10913               ASH700829.3                             ANT # / TYPE
 -2665274.3948 -4513294.0773  3622149.8540                  APPROX POSITION XYZ
        0.0000        0.0000        0.0000                  ANTENNA: DELTA H/E/N
     1     1                                                WAVELENGTH FACT L1/2
     7    C1    L1    L2    P1    P2    D1    D2            # / TYPES OF OBSERV
    30.0000                                                 INTERVAL
 SNR is mapped to RINEX snr flag value [1-9]                COMMENT
  L1: 1 -> 1;  90 -> 5; 210 -> 9                            COMMENT
  L2: 1 -> 1; 150 -> 5; 250 -> 9                            COMMENT
teqc windowed: delta = 86400.000 sec                        COMMENT
  2000     7    15     0     4    0.0000000     GPS         TIME OF FIRST OBS
                                                            END OF HEADER
 00  7 15  0  4  0.0000000  0  6G15G25G11G21G29G 1
  22777081.4094   -5656358.00147  -4393634.47345  22777079.0564   22777088.8734
     -3917.5784      -3052.6514
  20712994.2944  -21629956.47449 -15812561.86147  20712992.7964   20712997.9624
      -190.1494       -148.1684
  20873944.8964  -18846887.31249 -14440285.19247  20873943.3324   20873948.4064
      -495.7914       -386.3304
  23125686.1254   -5856153.16247  -3913397.39846  23125684.2524   23125693.2354
     -2675.5014      -2084.8024
  23433704.3854    -799578.74048   -377853.49746  23433702.7884   23433710.2734
     -2752.3844      -2144.7124
  24217528.9634   -7091831.86747  -5328387.19346  24217526.8174   24217537.0894
      2222.8624       1732.0984
 00  7 15  0  4 30.0000000  0  7G20G15G25G11G21G29G 1
  22864893.0124  -11642733.98848  -8700872.36946  22864891.1534   22864897.0944
      2520.2784       1963.8544
  22799454.7334   -5538787.86847  -4302021.51745  22799452.7784   22799461.6004
     -3921.9614      -3056.0694
  20714119.9574  -21624039.93749 -15807951.54547  20714118.6874   20714123.6834
      -205.8134       -160.3754
  20876820.7784  -18831776.29749 -14428510.38047  20876819.0284   20876823.9334
      -513.1484       -399.8544
  23140976.0724   -5775805.95847  -3850789.30446  23140974.2664   23140982.7894
     -2682.4994      -2090.2544
  23449408.1024    -717056.55748   -313550.57546  23449406.5794   23449413.2864
     -2750.6554      -2143.3654
  24204841.8654   -7158495.27348  -5380332.44246  24204839.8994   24204851.3974
      2219.7804       1729.6914
 00  7 15  0  5  0.0000000  0  7G20G15G25G11G21G29G 1
  22850519.0994  -11718269.30148  -8759730.98746  22850517.3964   22850523.6534
      2514.6224       1959.4464
  22821869.2864   -5420995.73247  -4210235.58645  22821867.1834   22821876.9084
     -3931.6204      -3063.5904
  20715353.1174  -21617562.03349 -15802903.80047  20715351.5794   20715356.4824
      -226.8444       -176.7614
  20879812.6714  -18816052.55149 -14416258.12147  20879810.9704   20879816.1314
      -535.9224       -417.6024
  23156322.5124   -5695157.76247  -3787946.66345  23156320.5874   23156329.7024
     -2694.7924      -2099.8314
  23465118.7824    -634495.66048   -249217.46246  23465117.1014   23465124.8894
     -2754.2034      -2146.1294
  24192190.4784   -7224975.20747  -5432134.72146  24192188.4824   24192200.5734
      2211.4434       1723.1904
 00  7 15  0  5 30.0000000  0  7G20G15G25G11G21G29G 1
  22836170.7304  -11793674.16248  -8818487.95546  22836168.1784   22836174.7064
      2514.6964       1959.5024
  22844332.2854   -5302955.71547  -4118256.50645  22844330.5844   22844339.5264
     -3935.3494      -3066.5024
  20716697.9224  -21610494.63749 -15797396.70747  20716696.3534   20716701.3434
      -242.0024       -188.5744
  20882926.9604  -18799687.68849 -14403506.28347  20882925.2194   20882930.2614
      -552.8164       -430.7664
  23171732.3094   -5614180.53947  -3724847.64546  23171729.9584   23171739.8734
     -2701.3384      -2104.9344
  23480842.5524    -551868.02148   -184832.36646  23480841.2474   23480848.0014
     -2751.9514      -2144.3764
  24179579.2664   -7291242.77747  -5483771.49345  24179578.0974   24179589.9724
      2208.8164       1721.1474
 00  7 15  0  6  0.0000000  0  7G20G15G25G11G21G29G 1
  22821827.2424  -11869046.92648  -8877219.90746  22821825.1454   22821831.4364
      2509.0634       1955.1094
  22866821.8294   -5184770.15947  -4026164.00245  22866819.8774   22866829.5604
     -3944.7384      -3073.8144
  20718135.3834  -21602937.50549 -15791508.00547  20718134.2464   20718139.3934
      -262.8634       -204.8304
  20886143.7944  -18782781.95149 -14390332.99247  20886142.0664   20886147.3374
      -575.3964       -448.3624
  23187185.1434   -5532974.64647  -3661570.42446  23187183.3974   23187193.1484
     -2713.5014      -2114.4134
  23496559.6634    -469274.00648   -120473.43946  23496558.2204   23496565.4454
     -2755.4144      -2147.0764
  24166990.8044   -7357397.84147  -5535320.66145  24166989.5834   24167000.5144
      2200.4504       1714.6314
 00  7 15  0  6 30.0000000  0  7G20G15G25G11G21G29G 1
  22807514.8184  -11944258.61848  -8935826.34646  22807512.4874   22807519.4824
      2506.5034       1953.1164
  22889363.5234   -5066314.62447  -3933861.14045  22889361.5504   22889371.3354
     -3950.8454      -3078.5774
  20719690.9784  -21594763.76849 -15785138.83747  20719689.6424   20719694.9074
      -280.6004       -218.6514
  20889488.0294  -18765208.19349 -14376639.16347  20889486.4544   20889491.5564
      -594.8344       -463.5074
  23202705.5564   -5451412.64547  -3598015.74545  23202703.9754   23202713.8304
     -2722.5124      -2121.4314
  23512294.0984    -386586.83448    -56041.93846  23512292.9044   23512300.0874
     -2755.6474      -2147.2554
  24154448.0614   -7423312.88947  -5586682.82145  24154446.3904   24154456.3814
      2195.3184       1710.6354
 00  7 15  0  7  0.0000000  0  7G20G15G25G11G21G29G 1
  22793218.5714  -12019388.56948  -8994369.09346  22793216.2394   22793222.5554
      2502.9784       1950.3694
  22911940.3954   -4947672.57247  -3841412.94645  22911939.2114   22911948.0594
     -3957.7904      -3083.9854
  20721348.4994  -21586054.67349 -15778352.50547  20721346.9644   20721352.1614
      -299.2054       -233.1474
  20892944.0224  -18747047.87849 -14362488.27447  20892942.2824   20892947.5074
      -615.1594       -479.3444
  23218278.8654   -5369575.42247  -3534246.60445  23218277.0934   23218286.7104
     -2732.4544      -2129.1784
  23528031.5824    -303887.75848      8398.83946  23528030.1964   23528038.3604
     -2756.8374      -2148.1794
  24141935.4774   -7489068.54547  -5637920.81545  24141933.9954   24141942.9694
      2189.2354       1705.8934
 00  7 15  0  7 30.0000000  0  7G20G15G25G11G21G29G 1
  22778923.3464  -12094506.35448  -9052902.36246  22778921.4484   22778927.8374
      2505.1024       1952.0244
  22934538.8114   -4828917.70847  -3748876.84545  22934536.8424   22934546.3974
     -3958.9514      -3084.8964
  20723094.0954  -21576881.48049 -15771204.53947  20723092.5964   20723097.7244
      -312.0994       -243.1944
  20896497.4374  -18728372.13349 -14347935.75447  20896495.9604   20896501.4864
      -629.7364       -490.7024
  23233890.6974   -5287534.61147  -3470318.81345  23233888.9964   23233899.0014
     -2736.7114      -2132.4974
  23543757.5864    -221248.21548     72793.19946  23543756.2674   23543763.4364
     -2752.2994      -2144.6484
  24129438.5094   -7554735.55047  -5689089.69745  24129436.5944   24129447.4624
      2188.8164       1705.5664
 00  7 15  0  8  0.0000000  0  7G20G15G25G11G21G29G 1
  22764630.3164  -12169618.77048  -9111431.43846  22764628.1274   22764634.5234
      2499.9974       1948.0464
  22957157.0554   -4710061.07147  -3656261.43945  22957154.6074   22957164.5544
     -3967.1974      -3091.3194
  20724926.3144  -21567252.91649 -15763701.73647  20724924.9314   20724929.9524
      -332.1514       -258.8194
  20900147.8054  -18709189.82849 -14332988.51347  20900146.2274   20900151.7144
      -651.5194       -507.6764
  23249540.5344   -5205298.54847  -3406238.87245  23249538.2174   23249548.1354
     -2748.1054      -2141.3794
  23559470.1884    -138677.29748    137134.12446  23559468.6344   23559476.6174
     -2754.8404      -2146.6264
  24116956.8894   -7620322.32947  -5740196.01045  24116954.9944   24116966.6244
      2181.2534       1699.6674
 00  7 15  0  8 30.0000000  0  7G20G15G25G11G21G29G 1
  22750373.2334  -12244537.73048  -9169809.79146  22750371.3084   22750377.3384
      2495.9974       1944.9294
  22979829.2034   -4590918.95747  -3563423.58945  22979827.3994   22979836.6804
     -3974.1714      -3096.7554
  20726880.6404  -21556983.07349 -15755699.24347  20726879.1474   20726884.1324
      -351.0354       -273.5344
  20903930.2374  -18689314.87749 -14317501.55247  20903928.4144   20903933.6304
      -672.0934       -523.7094
  23265262.2214   -5122681.02847  -3341861.70345  23265259.9124   23265269.0704
     -2758.3144      -2149.3344
  23575205.1724     -55988.85348    201566.62246  23575203.7684   23575210.7274
     -2756.3134      -2147.7754
  24104527.6244   -7685642.35847  -5791094.48546  24104526.0864   24104536.9574
      2174.8214       1694.6584
 00  7 15  0  9  0.0000000  0  7G20G15G25G11G21G29G 1
  22736133.1004  -12319371.93948  -9228122.10346  22736130.8424   22736136.8154
      2492.5284       1942.2284
  23002533.0214   -4471604.49147  -3470451.43645  23002531.7964   23002541.4624
     -3980.5174      -3101.6944
  20728935.7354  -21546183.09249 -15747283.65647  20728934.3034   20728939.1094
      -369.3594       -287.8134
  20907822.8854  -18668858.24149 -14301561.32647  20907821.1234   20907826.2644
      -692.1414       -539.3304
  23281034.8334   -5039792.61247  -3277273.43645  23281032.8284   23281042.8184
     -2767.9874      -2156.8674
  23590941.1224      26706.15748    266004.23946  23590939.7614   23590947.1914
     -2757.1834      -2148.4564
  24092127.5494   -7750805.70248  -5841870.87746  24092125.7334   24092136.4884
      2168.9894       1690.1104
 00  7 15  0  9 30.0000000  0  7G20G15G25G11G21G29G 1
  22721914.0584  -12394092.69048  -9286345.99046  22721912.3234   22721917.9884
      2490.4164       1940.5794
  23025276.1334   -4352093.24047  -3377325.93945  23025274.5294   23025283.7884
     -3985.3704      -3105.4754
  20731096.8404  -21534825.76149 -15738433.77447  20731095.5444   20731100.4794
      -386.2404       -300.9674
  20911831.2104  -18647793.11549 -14285146.95647  20911829.6234   20911834.8724
      -710.6744       -553.7724
  23296864.0604   -4956606.89747  -3212453.53145  23296862.8054   23296872.6674
     -2776.1964      -2163.2674
  23606684.2884     109434.73748    330467.99546  23606683.4754   23606690.8064
     -2756.5844      -2147.9834
  24079762.4894   -7815785.17948  -5892504.01546  24079760.6634   24079770.4604
      2164.5314       1686.6454
 00  7 15  0 10  0.0000000  0  7G20G15G25G11G21G29G 1
  22707702.6614  -12468774.85748  -9344539.82846  22707700.9704   22707706.5364
      2488.3584       1938.9784
  23048040.0464   -4232464.19747  -3284108.67245  23048038.5374   23048049.0244
     -3989.9934      -3109.0754
  20733349.4084  -21522987.98749 -15729209.52147  20733348.0354   20733353.0574
      -402.9724       -314.0054
  20915941.2954  -18626196.29849 -14268318.28047  20915939.6174   20915944.6304
      -729.1274       -568.1514
  23312737.0014   -4873200.43747  -3147461.61045  23312734.8754   23312744.1594
     -2784.3054      -2169.5844
  23622419.1934     192119.64448    394897.73246  23622417.7404   23622424.9764
     -2755.8794      -2147.4384
  24067417.5274   -7880656.97447  -5943053.27646  24067416.2304   24067425.1614
      2160.2104       1683.2774
 00  7 15  0 10 30.0000000  0  7G20G15G25G11G21G29G 1
  22693500.5624  -12543405.12048  -9402693.20846  22693498.9084   22693505.0734
      2485.6224       1936.8454
  23070829.5324   -4112708.18547  -3190792.46445  23070828.1544   23070837.2604
     -3995.1194      -3113.0734
  20735695.7684  -21510658.65049 -15719602.22747  20735694.3274   20735699.4174
      -420.2954       -327.5034
  20920154.0024  -18604056.73849 -14251066.68647  20920152.4154   20920157.5974
      -748.2024       -583.0134
  23328653.0924   -4789561.75447  -3082288.72545  23328651.4254   23328660.0764
     -2792.9954      -2176.3514
  23638147.5394     274772.57248    459302.53046  23638146.2684   23638153.6534
     -2755.7134      -2147.3054
  24055095.1074   -7945409.33947  -5993509.47545  24055092.5614   24055102.0704
      2155.2774       1679.4314
 00  7 15  0 11  0.0000000  0  7G20G15G25G11G21G29G 1
  22679313.8064  -12617958.88848  -9460786.98846  22679311.3554   22679317.6714
      2485.6354       1936.8564
  23093646.0154   -3992805.20447  -3097361.73945  23093644.6194   23093654.4964
     -3997.4354      -3114.8844
  20738139.6494  -21497815.34849 -15709594.44047  20738138.3114   20738143.4474
      -434.8934       -338.8774
  20924474.6394  -18581351.94349 -14233374.65047  20924473.0144   20924477.9954
      -764.4734       -595.6934
  23344617.5314   -4705667.88347  -3016916.99645  23344615.4554   23344624.9154
     -2798.8834      -2180.9434
  23653874.5704     357415.77048    523699.76146  23653872.9564   23653879.7884
     -2752.8504      -2145.0754
  24042799.1614   -8010019.17947  -6043854.60445  24042797.5404   24042807.4304
      2153.0624       1677.7044
 00  7 15  0 11 30.0000000  0  7G20G15G25G11G21G29G 1
  22665143.8614  -12692419.94748  -9518808.52146  22665141.8284   22665147.4894
      2478.8544       1931.5744
  23116493.2744   -3872743.31247  -3003807.18345  23116491.4654   23116501.7284
     -4006.2884      -3121.7754
  20740684.0554  -21484443.96949 -15699175.16647  20740682.6894   20740687.7484
      -456.1034       -355.4064
  20928905.5504  -18558067.70849 -14215231.10747  20928903.9084   20928908.7524
      -787.4104       -613.5654
  23360632.5464   -4621505.34547  -2951335.92845  23360631.2124   23360641.2964
     -2811.4784      -2190.7574
  23669600.4334     440063.48248    588100.49446  23669599.2924   23669607.2164
     -2756.6244      -2148.0174
  24030534.4304   -8074471.77647  -6094077.19945  24030532.2524   24030543.1814
      2144.1784       1670.7844
 00  7 15  0 12  0.0000000  0  7G20G15G25G11G21G29G 1
  22650997.8064  -12766760.51448  -9576736.18546  22650995.6454   22651000.8914
      2476.5054       1929.7404
  23139375.3604   -3752498.63847  -2910110.19245  23139372.8774   23139384.1484
     -4010.6564      -3125.1814
  20743333.9974  -21470518.75549 -15688324.33147  20743332.4964   20743337.4814
      -472.8724       -368.4734
  20933451.4794  -18534178.51749 -14196616.17047  20933449.8954   20933454.8094
      -805.9014       -627.9744
  23376705.2734   -4537047.44847  -2885524.69945  23376703.4494   23376712.6454
     -2819.6894      -2197.1574
  23685333.7474     522741.69947    652525.00146  23685332.7444   23685340.0064
     -2755.9464      -2147.4864
  24018304.9824   -8138740.69848  -6144156.67446  24018302.8464   24018313.7914
      2139.7594       1667.3394
 00  7 15  0 12 30.0000000  0  7G20G15G25G11G21G29G 1
  22636862.9444  -12841037.40448  -9634614.22046  22636861.1154   22636866.6914
      2472.3274       1926.4864
  23162280.5494   -3632132.72447  -2816318.75745  23162278.5614   23162289.1134
     -4016.6764      -3129.8684
  20746078.0394  -21456098.77149 -15677087.96647  20746076.6154   20746081.5174
      -491.3494       -382.8694
  20938101.0754  -18509743.67849 -14177576.04947  20938099.5724   20938104.5894
      -826.0724       -643.6924
  23392821.4794   -4452353.43347  -2819529.48745  23392819.5694   23392829.7944
     -2829.5484      -2204.8384
  23701062.5274     605391.38648    716927.26946  23701060.9644   23701068.3654
     -2757.0004      -2148.3084
  24006099.2874   -8202884.53948  -6194138.71646  24006097.3814   24006107.5744
      2133.5624       1662.5124
 00  7 15  0 13  0.0000000  0  7G20G15G25G11G21G29G 1
  22622753.9104  -12915180.66148  -9692388.12546  22622751.9284   22622757.7794
      2472.0354       1926.2594
  23185221.8454   -3511580.02547  -2722381.77045  23185219.3944   23185230.0044
     -4018.6514      -3131.4084
  20748929.2124  -21441116.54549 -15665413.48347  20748927.8384   20748932.6584
      -505.9074       -394.2134
  20942867.6794  -18484695.47149 -14158057.98047  20942866.0294   20942871.1914
      -842.3534       -656.3784
  23408996.6934   -4367355.23747  -2753297.24445  23408994.7394   23409004.0494
     -2835.4834      -2209.4664
  23716797.2984     688080.23048    781360.08746  23716795.8144   23716803.5054
     -2754.0814      -2146.0354
  23993929.3484   -8266834.88448  -6243969.98146  23993927.3374   23993937.5104
      2131.3064       1660.7484
 00  7 15  0 13 30.0000000  0  7G20G15G25G11G21G29G 1
  22608655.4004  -12989268.07048  -9750118.50846  22608653.5454   22608659.5404
      2465.1604       1920.9034
  23208182.6904   -3390922.68347  -2628363.23545  23208180.2324   23208189.7144
     -4027.1134      -3138.0004
  20751871.8624  -21425651.94449 -15653363.12947  20751870.5304   20751875.4684
      -526.9894       -410.6414
  20947735.7364  -18459114.01849 -14138124.39547  20947734.1274   20947739.2644
      -865.1174       -674.1164
  23425213.8254   -4282132.53947  -2686890.07245  23425211.9744   23425221.7354
     -2847.9444      -2219.1704
  23732524.7344     770728.50148    845761.25546  23732523.3734   23732531.3904
     -2757.7874      -2148.9214
  23981780.7614   -8330671.21048  -6293712.40646  23981779.1134   23981789.0364
      2122.5144       1653.9014
 00  7 15  0 14  0.0000000  0  7G20G15G25G11G21G29G 1
  22594597.8364  -13063139.22448  -9807680.39446  22594596.0194   22594602.1214
      2460.7254       1917.4474
  23231191.1054   -3270004.59147  -2534141.52745  23231189.1314   23231199.7754
     -4032.9604      -3142.5624
  20754936.6824  -21409547.06049 -15640813.85347  20754935.1404   20754940.0244
      -545.5494       -425.1044
  20952735.1804  -18432841.22749 -14117652.10947  20952733.7754   20952738.9044
      -885.3264       -689.8644
  23441504.1384   -4196527.90047  -2620185.27945  23441502.4194   23441512.1704
     -2857.9094      -2226.9404
  23748274.8094     853494.58548    910254.23746  23748273.3914   23748281.6284
     -2758.8614      -2149.7594
  23969685.0794   -8394234.59447  -6343242.15645  23969683.6784   23969692.9704
      2116.0854       1648.8954
 00  7 15  0 14 30.0000000  0  7G20G15G25G11G21G29G 1
  22580567.6364  -13136870.99048  -9865133.65146  22580565.2354   22580571.5634
      2455.1624       1913.1124
  23254236.9084   -3148906.80347  -2439779.78545  23254234.8754   23254243.9874
     -4039.7884      -3147.8834
  20758108.0004  -21392880.78549 -15627827.12647  20758106.6904   20758111.5804
      -565.0824       -440.3254
  20957851.5264  -18405956.18549 -14096702.73647  20957849.7754   20957855.0894
      -906.6204       -706.4564
  23457852.5724   -4110619.47547  -2553243.76645  23457850.1244   23457860.0584
     -2868.8754      -2235.4794
  23764031.6904     936299.71248    974777.62746  23764030.1034   23764038.6504
     -2761.0804      -2151.4834
  23957625.7864   -8457603.31247  -6392620.18745  23957624.0784   23957633.7184
      2108.8544       1643.2534
 00  7 15  0 15  0.0000000  0  7G20G15G25G11G21G29G 1
  22566558.9054  -13210488.55848  -9922497.93546  22566556.7974   22566562.6844
      2450.8264       1909.7354
  23277309.9714   -3027659.15347  -2345301.27145  23277307.8954   23277317.6884
     -4045.1744      -3152.0794
  20761381.3404  -21375680.92249 -15614424.61947  20761379.6634   20761384.6044
      -583.3644       -454.5704
  20963078.7254  -18378486.84449 -14075298.07247  20963077.0624   20963082.2394
      -926.5594       -721.9944
  23474252.1054   -4024434.35947  -2486086.66045  23474250.3504   23474260.0244
     -2878.6164      -2243.0724
  23779792.0384    1019116.73248   1039310.26646  23779790.5394   23779797.7164
     -2761.9314      -2152.1514
  23945599.4014   -8520804.27047  -6441867.52646  23945597.7714   23945607.0174
      2102.7504       1638.5014
 00  7 15  0 15 30.0000000  0  7G20G15G25G11G21G29G 1
  22552589.1244  -13283899.30048  -9979701.05446  22552586.9814   22552593.1294
      2446.1904       1906.1194
  23300426.4424   -2906173.50947  -2250637.31745  23300425.5344   23300435.5414
     -4050.8354      -3156.4884
  20764773.0594  -21357856.80749 -15600535.67647  20764771.4584   20764776.4194
      -601.8774       -468.9954
  20968434.3844  -18350342.82849 -14053367.68147  20968432.7214   20968438.0744
      -946.7004       -737.6884
  23490722.6024   -3937882.15047  -2418643.48945  23490721.0374   23490730.5514
     -2888.5324      -2250.7954
  23795570.9674    1102035.77248   1103922.44546  23795569.6354   23795577.1454
     -2763.0024      -2152.9894
  23933622.2994   -8583746.36048  -6490913.15346  23933620.4454   23933630.0734
      2096.4164       1633.5624
 00  7 15  0 16  0.0000000  0  7G20G15G25G11G21G29G 1
  22538630.6104  -13357249.61748 -10036857.08746  22538628.6144   22538634.6714
      2443.6704       1904.1554
  23323561.6534   -2784600.32947  -2155905.17145  23323559.5624   23323569.7294
     -4054.1884      -3159.1034
  20768255.1184  -21339557.33149 -15586276.32947  20768253.8114   20768258.7334
      -618.2244       -481.7334
  20973890.1184  -18321673.00149 -14031027.57747  20973888.3744   20973893.6654
      -964.7154       -751.7264
  23507234.4764   -3851111.67547  -2351030.24745  23507232.7054   23507242.9744
     -2896.2764      -2256.8324
  23811341.4374    1184908.87747   1168498.85446  23811339.8454   23811346.4354
     -2761.9494      -2152.1704
  23921667.0114   -8646577.43248  -6539872.28146  23921664.9004   23921673.5684
      2092.2134       1630.2884
 00  7 15  0 16 30.0000000  0  7G20G15G25G11G21G29G 1
  22524702.9564  -13430443.07648 -10093890.91146  22524700.7894   22524706.4014
      2435.6874       1897.9364
  23346730.6884   -2662847.71447  -2061033.19645  23346729.2244   23346738.9784
     -4062.8674      -3165.8634
  20771845.4644  -21320689.11349 -15571573.80847  20771844.0534   20771849.0954
      -639.8954       -498.6204
  20979463.7514  -18292383.55349 -14008204.64747  20979462.0394   20979467.3504
      -988.1194       -769.9624
  23523806.2994   -3764028.82947  -2283173.62745  23523804.8564   23523814.4774
     -2909.3994      -2267.0574
  23827120.6774    1267830.04647   1233112.70946  23827118.9734   23827126.8704
     -2766.3454      -2155.5894
  23909748.2814   -8709203.21348  -6588671.41646  23909745.9124   23909756.8824
      2082.6624       1622.8484
 00  7 15  0 17  0.0000000  0  7G20G15G25G11G21G29G 1
  22510815.4394  -13503419.60948 -10150755.69146  22510813.3244   22510819.3034
      2428.7644       1892.5424
  23369944.8534   -2540859.93247  -1965977.93945  23369942.3844   23369952.6204
     -4070.3114      -3171.6704
  20775555.1584  -21301193.85349 -15556382.68747  20775553.8464   20775558.6364
      -660.4194       -514.6134
  20985166.2984  -18262416.70349 -13984853.87647  20985164.6844   20985169.8844
     -1010.3514       -787.2864
  23540448.3124   -3676575.74147  -2215028.49145  23540446.5694   23540455.9694
     -2921.3914      -2276.4044
  23842919.5264    1350857.57347   1297809.39346  23842918.5534   23842926.7524
     -2769.4634      -2158.0214
  23897880.9114   -8771565.03948  -6637264.86146  23897878.9804   23897889.8514
      2074.1464       1616.2154
 00  7 15  0 17 30.0000000  0  7G20G15G25G11G21G29G 1
  22496958.7074  -13576236.16148 -10207495.80546  22496956.7454   22496962.7594
      2424.9364       1889.5594
  23393191.4624   -2418698.39747  -1870787.32945  23393188.9094   23393200.2274
     -4074.4864      -3174.9144
  20779373.0544  -21281131.33049 -15540749.53447  20779371.6484   20779376.6264
      -677.8184       -528.1714
  20990986.6684  -18231832.22749 -13961021.83147  20990984.8704   20990989.9964
     -1029.3664       -802.1044
  23557149.4664   -3588810.89547  -2146640.44245  23557147.6704   23557157.3234
     -2930.2574      -2283.3164
  23858728.6604    1433932.40948   1362542.93746  23858727.2964   23858735.8864
     -2769.5614      -2158.0974
  23886052.2714   -8833721.62448  -6685698.37846  23886050.5074   23886060.7794
      2068.8704       1612.1024
 00  7 15  0 18  0.0000000  0  7G20G15G25G11G21G29G 1
  22483133.0714  -13648891.86048 -10264110.58346  22483130.9844   22483137.0294
      2420.3304       1885.9714
  23416469.7604   -2296366.67147  -1775464.11845  23416467.9374   23416479.1104
     -4079.3784      -3178.7274
  20783298.7714  -21260503.12249 -15524675.58947  20783297.2034   20783301.9294
      -695.8404       -542.2124
  20996923.6794  -18200631.92149 -13936709.92247  20996922.0004   20996927.2684
     -1049.1114       -817.4894
  23573909.6274   -3500735.65147  -2078010.53045  23573907.7864   23573917.4064
     -2939.8874      -2290.8174
  23874546.8454    1517053.10548   1427312.21046  23874545.3144   23874552.8174
     -2770.3114      -2158.6844
  23874264.5054   -8895673.78348  -6733972.62346  23874262.2674   23874271.5324
      2062.8684       1607.4224
 00  7 15  0 18 30.0000000  0  7G20G15G25G11G21G29G 1
  22469322.7644  -13721464.79048 -10320660.87346  22469320.5984   22469326.8164
      2418.5094       1884.5504
  23439766.6104   -2173947.38847  -1680072.68245  23439764.2374   23439775.0774
     -4081.2664      -3180.1984
  20787316.2914  -21239389.83349 -15508223.66047  20787314.9264   20787319.4464
      -711.0444       -554.0604
  21002962.8034  -18168896.35849 -13911980.93147  21002961.0474   21002966.1504
     -1065.9774       -830.6304
  23590713.1844   -3412430.53847  -2009201.49545  23590711.8834   23590721.6814
     -2946.4994      -2295.9684
  23890357.6494    1600139.84148   1492055.06446  23890356.1594   23890363.8414
     -2768.1934      -2157.0344
  23862498.2984   -8957501.23348  -6782149.70246  23862496.5874   23862505.5204
      2059.6314       1604.9004
 00  7 15  0 19  0.0000000  0  7G20G15G25G11G21G29G 1
  22455525.9394  -13793967.86448 -10377156.71746  22455523.7764   22455530.2934
      2415.9704       1882.5704
  23463075.5214   -2051457.82447  -1584626.44145  23463073.5354   23463083.3914
     -4083.6864      -3182.0924
  20791423.1994  -21217806.85449 -15491405.74147  20791421.9664   20791426.5414
      -726.8574       -566.3834
  21009100.5814  -18136641.46349 -13886847.26547  21009098.9224   21009104.0794
     -1083.4854       -844.2744
  23607558.7744   -3323910.48547  -1940224.97445  23607556.8194   23607566.4924
     -2953.8504      -2301.6984
  23906158.7604    1683177.34547   1556759.53946  23906157.6174   23906165.5214
     -2766.7374      -2155.9004
  23850753.5154   -9019218.75648  -6830241.12046  23850751.9234   23850761.1234
      2055.8224       1601.9344
 00  7 15  0 19 30.0000000  0  7G20G15G25G11G21G29G 1
  22441744.0574  -13866389.49548 -10433589.09946  22441742.1784   22441748.3654
      2412.1394       1879.5874
  23486399.4254   -1928890.55247  -1489119.65645  23486397.3184   23486407.6484
     -4087.3824      -3184.9664
  20795621.4584  -21195745.19749 -15474214.82547  20795620.2024   20795625.0214
      -743.8684       -579.6384
  21015339.1994  -18103858.13149 -13861301.82847  21015337.3934   21015342.5554
     -1102.1254       -858.7984
  23624445.7844   -3235166.41347  -1871073.89545  23624444.2904   23624453.4924
     -2962.3724      -2308.3314
  23921952.5604    1766175.52047   1621433.38645  23921951.2204   23921959.0324
     -2766.4684      -2155.6884
  23839031.5904   -9080816.35748  -6878239.06246  23839029.5394   23839039.3414
      2050.7464       1597.9794
 00  7 15  0 20  0.0000000  0  7G20G15G25G11G21G29G 1
  22427986.2804  -13938687.02348 -10489924.79246  22427984.4334   22427990.3864
      2407.5284       1875.9934
  23509744.9924   -1806207.56847  -1393522.74245  23509743.3954   23509753.6514
     -4091.5984      -3188.2494
  20799918.3694  -21173164.96749 -15456619.83147  20799917.0134   20799921.8344
      -761.5944       -593.4494
  21021685.5864  -18070506.37349 -13835313.46147  21021683.8474   21021689.2874
     -1121.5064       -873.8994
  23641383.4294   -3146158.02747  -1801716.87445  23641382.0684   23641392.4854
     -2971.6324      -2315.5504
  23937746.0774    1849174.56247   1686107.86945  23937744.9444   23937753.4094
     -2766.9714      -2156.0764
  23827340.4314   -9142253.11448  -6926111.66046  23827338.7884   23827348.5484
      2044.9304       1593.4444
 00  7 15  0 20 30.0000000  0  7G20G15G25G11G21G29G 1
  22414249.1594  -14010875.55748 -10546175.55046  22414247.5314   22414253.5534
      2404.8724       1873.9254
  23533110.4044   -1683428.28047  -1297850.78345  23533107.6954   23533118.7354
     -4093.7384      -3189.9144
  20804310.2974  -21150083.86649 -15438634.54947  20804308.9954   20804313.8114
      -777.2844       -605.6774
  21028136.7574  -18036604.31249 -13808896.28647  21028135.0734   21028140.7324
     -1138.8484       -887.4124
  23658369.0604   -3056902.70147  -1732167.41445  23658366.6914   23658377.1224
     -2978.8414      -2321.1714
  23953538.3014    1932157.48947   1750769.81445  23953536.8224   23953544.5014
     -2765.3654      -2154.8294
  23815676.4894   -9203545.83448  -6973872.02746  23815674.4664   23815684.8744
      2041.1304       1590.4824
 00  7 15  0 21  0.0000000  0  7G20G15G25G11G21G29G 1
  22400529.5784  -14082973.96648 -10602356.07446  22400527.5384   22400533.3644
      2400.1554       1870.2514
  23556488.0784   -1560576.43847  -1202122.27645  23556485.7474   23556495.7714
     -4097.8284      -3193.1084
  20808793.4514  -21126523.67349 -15420275.94447  20808792.3034   20808797.1774
      -794.8944       -619.3994
  21034688.6624  -18002173.61549 -13782067.18947  21034687.1064   21034692.4624
     -1158.1224       -902.4324
  23675396.8874   -2967421.69147  -1662442.11545  23675395.6584   23675404.7174
     -2987.9994      -2328.3094
  23969322.5694    2015103.23648   1815402.80046  23969321.5564   23969328.7434
     -2765.8274      -2155.1894
  23804036.5464   -9264715.47348  -7021536.48546  23804034.8934   23804044.1124
      2035.3494       1585.9824
 00  7 15  0 21 30.0000000  0  7G20G15G25G11G21G29G 1
  22386834.5924  -14154939.89748 -10658433.37146  22386832.5464   22386838.5794
      2396.8934       1867.7074
  23579886.6664   -1437613.81647  -1106307.44045  23579884.1094   23579894.7664
     -4100.3104      -3195.0394
  20813375.8704  -21102444.26449 -15401512.76047  20813374.6324   20813379.4664
      -811.0524       -631.9884
  21041348.8654  -17967174.49849 -13754795.16947  21041347.3094   21041352.7244
     -1175.8984       -916.2834
  23692474.4984   -2877674.80247  -1592509.62245  23692472.8554   23692483.5594
     -2995.7484      -2334.3454
  23985107.4024    2098052.23248   1880038.29146  23985106.0074   23985113.8734
     -2764.8244      -2154.4054
  23792427.5884   -9325720.95248  -7069073.07546  23792425.8374   23792433.8834
      2031.0134       1582.6074
 00  7 15  0 22  0.0000000  0  8G20G22G15G25G11G21G29G 1
  22373170.4504  -14226744.69448 -10714385.11546  22373168.6414   22373174.5904
      2390.1254       1862.4324
  24619339.1484   -1272740.76956   -979794.62744  24619337.5644   24619351.7614
      2877.3854       2242.1054
  23603311.2384   -1314516.58747  -1010387.73445  23603308.8694   23603320.4984
     -4106.0994      -3199.5454
  20818061.5774  -21077820.25149 -15382325.21047  20818060.2934   20818065.2924
      -830.5064       -647.1474
  21048122.0174  -17931581.49249 -13727060.37847  21048120.3624   21048125.7894
     -1197.0184       -932.7424
  23709608.6214   -2787635.76647  -1522349.48545  23709606.5114   23709617.4024
     -3006.7994      -2342.9584
  24000897.4054    2181030.99047   1944696.95945  24000896.4364   24000903.7644
     -2767.1264      -2156.2024
  23780854.3894   -9386535.88448  -7116461.15646  23780852.6104   23780862.3744
      2023.3274       1576.6144
 00  7 15  0 22 30.0000000  0  8G20G22G15G25G11G21G29G 1
  22359547.2614  -14298335.54648 -10770170.13546  22359545.2864   22359551.4834
      2384.1674       1857.7894
  24602914.9964   -1359053.81346  -1047051.22144  24602911.6364   24602928.7574
      2878.2014       2242.7514
  23626772.0104   -1191236.29047   -914325.37745  23626769.3914   23626780.6204
     -4110.9124      -3203.2954
  20822860.8064  -21052601.59549 -15362674.30147  20822859.3304   20822864.1204
      -849.1034       -661.6404
  21055017.6644  -17895344.62849 -13698823.87747  21055016.0904   21055021.4884
     -1217.2404       -948.4984
  23726808.6104   -2697254.08747  -1451922.38645  23726807.2464   23726816.1794
     -3016.9814      -2350.8944
  24016702.3834    2264090.24147   2009418.39645  24016701.4204   24016709.1404
     -2768.5674      -2157.3204
  23769327.4824   -9447109.10948  -7163660.88846  23769325.7624   23769335.4574
      2016.5214       1571.3044
 00  7 15  0 23  0.0000000  0  8G20G22G15G25G11G21G29G 1
  22345950.6364  -14369788.28248 -10825847.54146  22345948.3474   22345954.1194
      2378.3774       1853.2804
  24586476.2664   -1445435.23346  -1114361.06444  24586473.0744   24586489.4044
      2879.4874       2243.7254
  23650250.2504   -1067852.93647   -818182.71845  23650248.0664   23650259.0344
     -4115.5334      -3206.8954
  20827757.8534  -21026866.14649 -15342620.69447  20827756.6024   20827761.4374
      -867.5134       -675.9844
  21062021.2254  -17858542.47749 -13670146.89447  21062019.5714   21062024.6144
     -1237.2104       -964.0594
  23744058.2664   -2606607.60947  -1381288.93545  23744056.3194   23744065.9314
     -3026.9694      -2358.6624
  24032509.5864    2347152.36547   2074142.03745  24032508.4814   24032515.5644
     -2769.8314      -2158.3034
  23757832.1584   -9507518.19348  -7210732.71546  23757830.4864   23757840.0384
      2009.8344       1566.1014
 00  7 15  0 23 30.0000000  0  8G20G22G15G25G11G21G29G 1
  22332401.9834  -14440986.97848 -10881326.99646  22332400.2144   22332405.5014
      2371.3024       1847.7654
  24570048.7614   -1531768.09646  -1181633.24444  24570047.2144   24570055.9334
      2879.1054       2243.4664
  23673769.4534    -944255.34547   -721873.13245  23673767.1834   23673778.6814
     -4121.1584      -3211.2794
  20832775.1054  -21000501.39149 -15322076.72247  20832773.7074   20832778.4984
      -887.0204       -691.1854
  21069153.2294  -17821062.46849 -13640941.70947  21069151.7594   21069156.8714
     -1258.3984       -980.5704
  23761379.2284   -2515583.31747  -1310361.09145  23761377.3284   23761387.7244
     -3038.1454      -2367.3754
  24048337.8194    2430330.84647   2138956.34845  24048336.4874   24048344.7634
     -2772.3084      -2160.2384
  23746389.4274   -9567649.27048  -7257587.95446  23746387.9554   23746396.7834
      2001.9984       1559.9954
 00  7 15  0 24  0.0000000  0  8G20G22G15G25G11G21G29G 1
  22318873.5934  -14512080.69448 -10936724.64746  22318871.3354   22318876.6214
      2369.0054       1845.9754
  24553601.0184   -1618200.87646  -1248983.23644  24553598.8834   24553609.2554
      2883.6764       2247.0194
  23697301.7504    -820597.00647   -625516.19445  23697299.8584   23697310.5774
     -4121.9314      -3211.8814
  20837882.8424  -20973659.26849 -15301160.76847  20837881.5224   20837886.2544
      -901.6844       -702.6134
  21076385.5004  -17783056.34349 -13611326.57047  21076383.9794   21076389.2614
     -1274.6264       -993.2154
  23778743.3364   -2424332.74347  -1239256.92445  23778740.7274   23778751.6864
     -3044.4324      -2372.2794
  24064159.9034    2513474.57647   2203743.58246  24064158.5094   24064166.3824
     -2769.9074      -2158.3654
  23734971.2914   -9627653.04948  -7304343.98346  23734969.1744   23734978.0164
      1999.0014       1557.6594
 00  7 15  0 24 30.0000000  0  8G20G22G15G25G11G21G29G 1
  22305352.6864  -14583133.17748 -10992090.17346  22305350.6394   22305355.7764
      2368.5494       1845.6224
  24537120.8514   -1704796.25246  -1316459.86244  24537120.4744   24537134.2124
      2889.9534       2251.9054
  23720831.4484    -696946.17047   -529165.08545  23720829.8024   23720841.3294
     -4120.6744      -3210.9074
  20843069.0014  -20946406.01649 -15279924.46047  20843067.5974   20843072.6024
      -914.4244       -712.5384
  21083705.5534  -17744590.81749 -13581353.45247  21083703.9574   21083709.0224
     -1289.0004      -1004.4154
  23796138.2984   -2332922.10147  -1168028.01945  23796136.8134   23796148.0794
     -3048.8064      -2375.6874
  24079962.0954    2596517.89347   2268452.58145  24079960.3524   24079968.9544
     -2765.6174      -2155.0254
  23723564.3444   -9687595.09848  -7351051.92946  23723562.5354   23723571.7984
      1997.9154       1556.8134
 00  7 15  0 25  0.0000000  0  8G20G22G15G25G11G21G29G 1
  22291839.5704  -14654139.85548 -11047420.00346  22291837.6644   22291843.5314
      2364.5114       1842.4724
  24520611.6214   -1791548.30446  -1384058.53144  24520608.5934   24520625.0014
      2892.6474       2254.0094
  23744359.2904    -573302.84547   -432819.87445  23744358.4134   23744370.7504
     -4122.8874      -3212.6324
  20848333.7194  -20918739.81249 -15258366.37547  20848332.3784   20848337.1194
      -930.6804       -725.2074
  21091113.2604  -17705664.54349 -13551021.30947  21091111.4154   21091116.5814
     -1306.8554      -1018.3284
  23813564.2604   -2241348.86147  -1096672.44045  23813562.4794   23813573.4764
     -3056.7174      -2381.8554
  24095746.5454    2679463.22647   2333085.23445  24095745.1564   24095753.3984
     -2764.8204      -2154.4004
  23712169.8234   -9747472.76248  -7397709.69146  23712168.0634   23712176.8924
      1993.2964       1553.2124
 00  7 15  0 25 30.0000000  0  8G20G22G15G25G11G21G29G 1
  22278365.3924  -14724948.35248 -11102595.39946  22278363.4294   22278369.3084
      2355.3694       1835.3514
  24504102.3784   -1878303.11546  -1451659.35445  24504102.3574   24504115.1444
      2890.1824       2252.0894
  23767916.6064    -449518.95147   -336365.12245  23767913.5634   23767926.1954
     -4130.0284      -3218.2014
  20853705.7304  -20890511.48149 -15236370.26847  20853704.2764   20853708.7084
      -951.8434       -741.6964
  21098636.5074  -17666128.18549 -13520213.77847  21098634.8074   21098639.9814
     -1329.6174      -1036.0654
  23831050.2994   -2149463.05047  -1025073.28045  23831048.6204   23831059.0224
     -3069.6034      -2391.8904
  24111540.0504    2762460.97547   2397758.69545  24111538.6694   24111547.1184
     -2769.0224      -2157.6724
  23700816.0504   -9807135.41748  -7444199.93246  23700814.3624   23700823.3154
      1983.6384       1545.6854
 00  7 15  0 26  0.0000000  0  8G20G22G15G25G11G21G29G 1
  22264941.6314  -14795492.00448 -11157564.43446  22264939.4864   22264945.1354
      2346.6624       1828.5674
  24487608.1654   -1964993.46147  -1519209.93645  24487605.6404   24487618.0474
      2888.2014       2250.5434
  23791510.2354    -325532.76047   -239752.71745  23791508.3414   23791518.7474
     -4136.5484      -3223.2784
  20859196.1154  -20861657.48349 -15213886.62647  20859194.9374   20859199.4254
      -972.5774       -757.8514
  21106288.1004  -17625918.56349 -13488881.62747  21106286.4794   21106291.5124
     -1351.9094      -1053.4354
  23848607.1954   -2057200.69347   -953180.73445  23848606.2564   23848616.3094
     -3082.0174      -2401.5684
  24127355.3334    2845575.63947   2462523.25345  24127354.2264   24127362.8374
     -2772.7854      -2160.6114
  23689516.0854   -9866518.44948  -7490472.28046  23689514.3754   23689523.4504
      1974.4304       1538.5144
 00  7 15  0 26 30.0000000  0  8G20G22G15G25G11G21G29G 1
  22251558.2344  -14865819.04248 -11212364.67546  22251556.5594   22251562.3264
      2340.8614       1824.0444
  24471114.7604   -2051666.99946  -1586747.43245  24471111.4834   24471123.7564
      2889.0864       2251.2144
  23815132.2974    -201397.04847   -143023.77645  23815131.0364   23815141.5784
     -4140.0064      -3225.9754
  20864796.4014  -20832228.86149 -15190955.22347  20864795.0894   20864799.6414
      -990.2274       -771.6064
  21114058.0784  -17585086.85149 -13457064.73047  21114056.4384   21114061.7074
     -1371.1734      -1068.4454
  23866226.3514   -1964613.30047   -881034.90845  23866224.5574   23866234.3764
     -3091.4194      -2408.8924
  24143186.5244    2928756.58547   2527339.53045  24143184.6444   24143191.5034
     -2773.5574      -2161.2074
  23678259.0564   -9925672.17248  -7536565.95046  23678257.5744   23678266.3334
      1968.2534       1533.6994
 00  7 15  0 27  0.0000000  0  8G20G22G15G25G11G21G29G 1
  22238201.3364  -14936011.24848 -11267059.85846  22238199.5984   22238205.1574
      2337.0824       1821.1024
  24454606.5124   -2138404.02446  -1654334.47444  24454603.8764   24454615.8884
      2891.7734       2253.3264
  23838767.1334     -77197.61847    -46245.22745  23838765.1304   23838776.6894
     -4141.4074      -3227.0644
  20870489.8544  -20802310.33949 -15167642.08147  20870488.4764   20870493.0844
     -1005.8134       -783.7514
  21121930.0774  -17543717.92549 -13424829.22547  21121928.4394   21121934.1674
     -1388.3204      -1081.8084
  23883891.0084   -1871784.17547   -808700.69245  23883889.7664   23883900.3404
     -3098.7054      -2414.5684
  24159011.2674    3011920.43247   2592142.49145  24159009.7594   24159017.6704
     -2772.2124      -2160.1614
  23667030.0624   -9984680.07548  -7582545.98746  23667028.2764   23667037.1754
      1964.1374       1530.4934
 00  7 15  0 27 30.0000000  0  8G20G22G15G25G11G21G29G 1
  22224886.3884  -15005980.61748 -11321581.39946  22224884.4664   22224890.5834
      2328.6864       1814.5594
  24438105.3504   -2225115.19346  -1721901.35544  24438102.6294   24438115.6064
      2889.9674       2251.9184
  23862429.4534      47148.82347     50647.86345  23862427.1544   23862439.6684
     -4147.2104      -3231.5864
  20876292.6914  -20771816.74849 -15143880.83647  20876291.3484   20876295.9604
     -1025.9004       -799.4034
  21129920.4544  -17501726.99849 -13392109.05047  21129918.9404   21129924.6394
     -1409.9784      -1098.6824
  23901617.7734   -1778628.37047   -736111.92945  23901616.7664   23901627.4264
     -3110.4964      -2423.7574
  24174850.1334    3095152.90647   2656998.86645  24174848.7844   24174856.9684
     -2775.4644      -2162.6944
  23655845.1934  -10043455.99748  -7628345.23946  23655843.4574   23655852.5354
      1955.4474       1523.7194
 00  7 15  0 28  0.0000000  0  8G20G22G15G25G11G21G29G 1
  22211601.2724  -15075795.18648 -11375982.31446  22211599.2564   22211604.9644
      2322.9024       1810.0544
  24421598.0384   -2311867.39046  -1789500.19044  24421596.8744   24421607.5254
      2890.7504       2252.5134
  23886106.2364     171569.40847    147598.75145  23886103.9494   23886115.4174
     -4150.2064      -3233.9264
  20882190.9494  -20740819.69349 -15119727.28447  20882189.7034   20882194.2994
     -1043.2784       -812.9434
  21138016.2884  -17459185.56149 -13358959.90547  21138014.4594   21138020.0334
     -1428.9064      -1113.4324
  23919393.2554   -1685216.64447   -663323.75245  23919391.7484   23919402.8804
     -3119.6784      -2430.9044
  24190688.1924    3178383.86247   2721854.07045  24190687.2254   24190695.1534
     -2776.0164      -2163.1314
  23644691.4354  -10102069.89748  -7674018.24746  23644690.1484   23644698.7164
      1949.4874       1519.0754
 00  7 15  0 28 30.0000000  0  8G20G22G15G25G11G21G29G 1
  22198362.3114  -15145365.99548 -11430193.29046  22198360.4064   22198366.1284
      2314.8374       1803.7674
  24405099.3074   -2398570.79746  -1857060.90844  24405097.5884   24405109.1104
      2889.0874       2251.2224
  23909813.1004     296148.71347    244673.33945  23909810.9594   23909822.3204
     -4155.2714      -3237.8724
  20888201.9044  -20709232.90249 -15095114.19847  20888200.5714   20888205.0614
     -1062.8074       -828.1624
  21146232.6964  -17416007.62949 -13325314.79247  21146231.0104   21146236.7374
     -1450.0114      -1129.8774
  23937235.2804   -1591462.29647   -590268.61545  23937232.8694   23937243.8214
     -3130.9814      -2439.7114
  24206542.4004    3261700.33547   2786775.89645  24206541.3024   24206549.6744
     -2778.7434      -2165.2524
  23633585.4104  -10160434.78848  -7719497.22546  23633583.6554   23633592.4294
      1941.2324       1512.6434
 00  7 15  0 29  0.0000000  0  8G20G22G15G25G11G21G29G 1
  22185174.1054  -15214674.18948 -11484199.63646  22185171.9364   22185177.2254
      2307.2984       1797.8944
  24388611.8134   -2485205.77746  -1924568.34445  24388609.8424   24388622.5234
      2888.0174       2250.3964
  23933553.1504     420901.17147    341882.82145  23933551.0984   23933563.1574
     -4159.8974      -3241.4694
  20894327.6434  -20677040.66049 -15070029.33047  20894326.2954   20894330.8304
     -1081.7044       -842.8864
  21154573.4214  -17372177.77049 -13291161.68547  21154571.7404   21154577.1244
     -1470.4164      -1145.7794
  23955144.7064   -1497348.42047   -516933.32045  23955143.1084   23955153.6554
     -3141.6714      -2448.0534
  24222416.9104    3345119.01547   2851777.36445  24222415.1454   24222423.9394
     -2780.8554      -2166.9044
  23622529.0994  -10218533.97948  -7764769.17646  23622527.1774   23622535.8744
      1933.6374       1506.7294
 00  7 15  0 29 30.0000000  0  8G20G22G15G25G11G21G29G 1
  22172005.3794  -15283873.58048 -11538121.19246  22172003.5014   22172009.4924
      2304.4704       1795.6894
  24372111.1544   -2571925.07947  -1992141.53045  24372107.3034   24372121.4414
      2891.5754       2253.1714
  23957295.1064     545668.28547    439103.71645  23957291.8134   23957304.9844
     -4159.4394      -3241.1114
  20900538.9944  -20644399.78549 -15044594.87147  20900537.6294   20900542.0964
     -1095.8164       -853.8834
  21163008.2704  -17327853.24449 -13256623.11547  21163006.4954   21163011.8814
     -1486.0834      -1157.9854
  23973092.9194   -1403031.91147   -443440.13445  23973090.5044   23973101.2494
     -3147.5934      -2452.6564
  24238281.3414    3428483.89447   2916736.94845  24238279.9444   24238287.0484
     -2778.2904      -2164.8994
  23611493.0344  -10276523.09248  -7809955.32646  23611491.7944   23611500.6114
      1930.8164       1504.5254
 00  7 15  0 30  0.0000000  0  8G20G22G15G25G11G21G29G 1
  22158869.8914  -15352901.37748 -11591909.04846  22158868.1224   22158873.5104
      2296.7774       1789.6944
  24355605.3114   -2658664.46846  -2059730.38444  24355604.0554   24355612.4614
      2890.2984       2252.1624
  23981051.9084     670507.94847    536381.15245  23981049.8714   23981061.6664
     -4163.8074      -3244.5204
  20906846.7504  -20611250.54749 -15018764.29447  20906845.7354   20906850.2214
     -1114.7004       -868.5974
  21171548.3104  -17282974.74549 -13221652.88347  21171546.7214   21171551.8514
     -1506.4604      -1173.8634
  23991090.1234   -1308452.98247   -369742.45645  23991088.6824   23991098.3334
     -3158.2904      -2461.0034
  24254146.1284    3511855.43047   2981701.72945  24254144.7984   24254153.2434
     -2780.4674      -2166.5944
  23600490.7054  -10334341.57548  -7855008.54246  23600489.2044   23600498.1174
      1923.2144       1498.6054
 00  7 15  0 30 30.0000000  0  8G20G22G15G25G11G21G29G 1
  22145778.0604  -15421698.41448 -11645517.08546  22145775.9004   22145781.4814
      2289.3354       1783.8964
  24339105.0964   -2745363.59546  -2127287.86344  24339103.0654   24339117.8454
      2889.2804       2251.3864
  24004832.1824     795475.01547    633757.85945  24004829.4904   24004842.3534
     -4167.6384      -3247.4944
  20913262.5154  -20577537.09749 -14992494.07247  20913261.1964   20913265.8004
     -1133.1934       -883.0074
  21180204.5904  -17237486.41349 -13186207.45647  21180203.0114   21180207.8854
     -1526.5044      -1189.4824
  24009148.7184   -1213555.37047   -295796.45345  24009147.1564   24009158.5174
     -3168.5874      -2469.0124
  24270023.0654    3595291.18147   3046716.52745  24270021.6794   24270030.5834
     -2782.3304      -2168.0474
  23589531.9934  -10391932.02948  -7899884.07146  23589530.3224   23589538.9454
      1915.8814       1492.8894
 00  7 15  0 31  0.0000000  0  8G20G22G15G25G11G21G29G 1
  22132705.2364  -15490395.93548 -11699047.57846  22132703.4364   22132708.6094
      2288.3524       1783.1294
  24322590.3214   -2832152.82046  -2194915.56544  24322587.2974   24322600.6894
      2894.3674       2255.3534
  24028610.8224     920433.75747    731128.07645  24028609.6774   24028620.3694
     -4164.9584      -3245.4154
  20919759.6504  -20543393.85049 -14965888.94347  20919758.4214   20919762.7814
     -1145.1334       -892.3134
  21188951.1894  -17191522.76949 -13150391.66047  21188949.5534   21188954.5904
     -1539.9224      -1199.9394
  24027242.4724   -1118472.59347   -221706.18345  24027241.1994   24027250.8304
     -3172.4184      -2472.0144
  24285886.9764    3678657.66447   3111677.32445  24285885.5464   24285894.5274
     -2777.5934      -2164.3514
  23578590.8104  -10449427.70748  -7944685.78446  23578589.0424   23578597.4494
      1915.0994       1492.2794
 00  7 15  0 31 30.0000000  0  8G20G22G15G25G11G21G29G 1
  22119663.0464  -15558931.22548 -11752451.65046  22119660.9714   22119666.8684
      2280.0814       1776.6844
  24306069.8414   -2918968.68946  -2262564.05745  24306066.6844   24306079.8894
      2892.5034       2253.8974
  24052400.5054    1045442.13747    828536.97345  24052398.0114   24052409.0184
     -4169.4624      -3248.9284
  20926350.0444  -20508761.57549 -14938902.75147  20926348.6504   20926353.1184
     -1164.2494       -907.2064
  21197799.4634  -17145024.54849 -13114159.30947  21197797.8484   21197803.2154
     -1560.5464      -1216.0094
  24045383.0064   -1023144.20947   -147424.53745  24045381.0764   24045392.5364
     -3183.3904      -2480.5574
  24301750.1024    3762015.51647   3176631.37945  24301748.9494   24301756.8014
     -2780.1854      -2166.3774
  23567679.5704  -10506767.85148  -7989366.28946  23567677.8914   23567685.5364
      1907.0464       1486.0064
 00  7 15  0 32  0.0000000  0  8G20G22G15G25G11G21G29G 1
  22106669.2584  -15627216.74148 -11805661.10046  22106667.2234   22106672.1514
      2272.7604       1770.9814
  24289560.6944   -3005722.37046  -2330164.00145  24289557.7884   24289568.9484
      2891.4344       2253.0604
  24076213.5104    1170583.35347    926049.39045  24076211.0614   24076222.6054
     -4172.8844      -3251.5844
  20933049.6854  -20473555.55649 -14911469.48847  20933048.3144   20933052.5974
     -1182.3054       -921.2774
  21206765.3224  -17097907.97549 -13077445.12647  21206763.8324   21206769.1584
     -1580.1334      -1231.2704
  24063586.4434    -927485.66347    -72885.64145  24063584.4634   24063595.8994
     -3193.3744      -2488.3434
  24317627.0874    3845449.96747   3241645.16945  24317625.4234   24317634.0354
     -2781.6454      -2167.5074
  23556813.6054  -10563866.85448  -8033858.87546  23556812.1304   23556820.2454
      1900.0494       1480.5544
 00  7 15  0 32 30.0000000  0  8G20G22G15G25G11G21G29G 1
  22093697.8674  -15695382.04148 -11858776.88446  22093695.9244   22093701.1284
      2272.6684       1770.9104
  24273039.2384   -3092541.93047  -2397815.29045  24273036.5434   24273048.7394
      2897.5044       2257.7764
  24100025.9194    1295722.97547   1023560.57645  24100024.7644   24100037.2254
     -4168.7154      -3248.3394
  20939832.9484  -20437908.71549 -14883692.73147  20939831.5504   20939836.0284
     -1193.0174       -929.6244
  21215823.6454  -17050306.08949 -13040352.78347  21215822.1154   21215827.4464
     -1592.2924      -1240.7454
  24081827.3544    -831629.36147      1807.36945  24081825.8264   24081836.9674
     -3195.9784      -2490.3664
  24333493.1494    3928829.65847   3306616.27245  24333492.3684   24333501.4074
     -2775.9264      -2163.0594
  23545968.3384  -10620856.63048  -8078266.32946  23545966.6424   23545976.0404
      1900.4014       1480.8254
 00  7 15  0 33  0.0000000  0  8G20G22G15G25G11G21G29G 1
  22080736.2814  -15763494.02648 -11911851.11046  22080734.7524   22080739.6704
      2267.4944       1766.8774
  24256491.4314   -3179493.33747  -2465569.35145  24256490.2214   24256501.5004
      2898.4454       2258.5194
  24123825.5524    1420789.67947   1121014.89045  24123824.4404   24123835.9324
     -4169.5974      -3249.0284
  20946686.8424  -20401891.32949 -14855627.23547  20946685.5094   20946690.0524
     -1208.7224       -941.8614
  21224960.9944  -17002289.18749 -13002937.04847  21224959.2974   21224964.8034
     -1609.4854      -1254.1424
  24100092.3024    -735645.25847     76599.98045  24100090.9274   24100102.4184
     -3203.6024      -2496.3154
  24349336.7864    4012085.24347   3371490.60446  24349335.5204   24349344.4814
     -2775.0834      -2162.3964
  23535129.9874  -10677806.16048  -8122642.42346  23535128.6474   23535138.8914
      1895.6824       1477.1524
 00  7 15  0 33 30.0000000  0  8G20G22G15G25G11G21G29G 1
  22067809.7504  -15831425.94848 -11964785.03846  22067807.7814   22067812.6484
      2261.7504       1762.4024
  24239945.3464   -3266449.00746  -2533326.78844  24239943.8514   24239952.5054
      2898.9574       2258.9154
  24147635.4414    1545905.62147   1218507.57745  24147632.2844   24147644.8664
     -4170.9594      -3250.0854
  20953634.5994  -20365380.03149 -14827176.87247  20953633.3454   20953637.8514
     -1224.8324       -954.4144
  21234200.5934  -16953733.98949 -12965101.86547  21234199.0744   21234204.5314
     -1627.0924      -1267.8624
  24118405.8244    -639408.54647    151589.42845  24118404.9764   24118416.1694
     -3211.7134      -2502.6304
  24365180.2244    4095341.63347   3436365.61045  24365179.2484   24365186.8624
     -2774.8764      -2162.2364
  23524325.6894  -10734590.53448  -8166889.83346  23524324.1324   23524332.4044
      1890.4984       1473.1124
 00  7 15  0 34  0.0000000  0  8G20G22G15G25G11G21G29G 1
  22054916.5654  -15899176.19648 -12017577.39146  22054914.7644   22054920.4274
      2256.1054       1758.0044
  24223397.6774   -3353406.36946  -2601085.51745  24223394.9144   24223407.5674
      2899.3514       2259.2184
  24171452.2174    1671067.95547   1316036.44045  24171451.0334   24171463.1544
     -4172.0554      -3250.9544
  20960676.1484  -20328376.03649 -14798342.59247  20960674.8934   20960679.7514
     -1240.8364       -966.8844
  21243542.5344  -16904642.60649 -12926848.87647  21243541.0744   21243546.3294
     -1644.5074      -1281.4334
  24136767.5734    -542920.92647    226774.39745  24136765.9334   24136776.4194
     -3219.6694      -2508.8184
  24381024.2944    4178598.46647   3501240.98945  24381022.3364   24381030.6564
     -2774.4244      -2161.8864
  23513551.7254  -10791210.00748  -8211008.79046  23513549.8564   23513558.0244
      1885.3624       1469.1094
 00  7 15  0 34 30.0000000  0  9G20G22G15G25G11G21G16G29G 1
  22042055.8914  -15966759.38648 -12070239.56346  22042054.2274   22042059.8254
      2249.4824       1752.8424
  24206847.0034   -3440378.73947  -2668855.93345  24206846.6934   24206856.9804
      2898.7274       2258.7284
  24195275.7694    1796257.45447   1413586.45845  24195274.2734   24195286.1394
     -4173.7744      -3252.2884
  20967808.1744  -20290897.60749 -14769138.61947  20967806.9674   20967811.5884
     -1257.6514       -979.9884
  21252982.8204  -16855033.28249 -12888192.28947  21252981.2684   21252986.9034
     -1662.7484      -1295.6464
  24155173.0784    -446200.10947    302141.07845  24155170.9574   24155183.6924
     -3228.3934      -2515.6334
  24700140.1484   -1604702.79456  -1038541.26144  24700139.1054   24700147.0664
      2820.5084       2197.7934
  24396864.4584    4261838.70547   3566103.43445  24396863.1084   24396870.6794
     -2774.8584      -2162.2254
  23502805.6804  -10847681.53548  -8255012.45246  23502803.7884   23502811.4424
      1879.4634       1464.5114
 00  7 15  0 35  0.0000000  0  9G20G22G15G25G11G21G16G29G 1
  22029233.0604  -16034145.90248 -12122748.49846  22029230.9554   22029236.3184
      2242.0344       1747.0374
  24190299.8174   -3527335.10046  -2736613.84244  24190296.9654   24190307.0764
      2897.2304       2257.5674
  24219109.2364    1921499.11847   1511177.12245  24219108.2904   24219119.8074
     -4176.5234      -3254.4284
  20975035.2564  -20252918.34249 -14739544.38747  20975034.0564   20975038.6934
     -1275.1914       -993.6554
  21262526.9284  -16804880.10149 -12849111.92447  21262525.3394   21262530.7664
     -1681.7524      -1310.4544
  24173628.2894    -349218.50847    377710.93645  24173626.9854   24173638.2614
     -3237.9024      -2523.0304
  24684039.0574   -1689317.82246  -1104474.96645  24684037.0614   24684046.7044
      2819.5594       2197.0554
  24412705.1434    4345090.00647   3630974.52445  24412703.9764   24412713.1754
     -2776.1344      -2163.2194
  23492092.0664  -10903977.76748  -8298879.54046  23492090.5214   23492098.4114
      1872.7174       1459.2584
 00  7 15  0 35 30.0000000  0  9G20G22G15G25G11G21G16G29G 1
  22016450.8844  -16101315.34548 -12175088.28346  22016449.1144   22016454.5184
      2237.6574       1743.6264
  24173758.4394   -3614254.18346  -2804342.69945  24173756.6544   24173769.7234
      2898.9144       2258.8834
  24242955.3384    2046808.29847   1608820.39145  24242952.7274   24242965.1554
     -4175.7784      -3253.8434
  20982360.9454  -20214421.52849 -14709546.87247  20982359.7374   20982364.4284
     -1289.5064      -1004.8114
  21272177.5104  -16754166.45849 -12809594.83747  21272175.7414   21272181.0184
     -1697.4864      -1322.7164
  24192136.0574    -251959.37047    453497.01645  24192133.5224   24192146.0044
     -3244.2364      -2527.9634
  24667942.4784   -1773912.68247  -1170392.91145  24667940.9484   24667949.9904
      2821.8614       2198.8504
  24428552.9234    4428370.44547   3695868.22545  24428550.7784   24428560.8404
     -2774.1724      -2161.6944
  23481415.9754  -10960080.39048  -8342595.77346  23481414.5484   23481421.6154
      1869.1754       1456.4934
 00  7 15  0 36  0.0000000  0  9G20G22G15G25G11G21G16G29G 1
  22003686.2384  -16168396.12848 -12227358.97547  22003684.4144   22003689.8834
      2233.7044       1740.5484
  24157201.1404   -3701263.58947  -2872141.97345  24157199.9464   24157211.0214
      2900.8704       2260.4054
  24266787.8884    2172052.14047   1706412.73845  24266786.0984   24266797.9384
     -4174.4314      -3252.7924
  20989759.9384  -20175538.98449 -14679248.78447  20989758.8284   20989763.4204
     -1303.3254      -1015.5784
  21281908.9734  -16703024.40549 -12769743.92347  21281907.6744   21281912.9284
     -1712.6774      -1334.5534
  24210671.1304    -154553.29947    529397.61945  24210668.8874   24210679.4284
     -3250.1854      -2532.6044
  24651824.6474   -1858615.85647  -1236395.30145  24651822.3734   24651831.3684
      2824.4684       2200.8764
  24444382.5844    4511549.83247   3760683.19645  24444381.3204   24444389.9644
     -2771.7854      -2159.8314
  23470751.5514  -11016119.64948  -8386262.62346  23470750.0284   23470758.4454
      1866.1154       1454.1124
 00  7 15  0 36 30.0000000  0  9G20G22G15G25G11G21G16G29G 1
  21990951.2834  -16235316.01048 -12279504.29746  21990949.1214   21990955.2504
      2229.3624       1737.1664
  24140640.8864   -3788290.08147  -2939954.53245  24140638.0724   24140650.3424
      2902.4624       2261.6434
  24290621.7304    2297298.58347   1804007.10845  24290619.1174   24290631.9144
     -4173.5684      -3252.1114
  20997245.5404  -20136201.57749 -14648596.26347  20997244.4394   20997248.9074
     -1317.3884      -1026.5354
  21291735.8594  -16651385.42249 -12729505.79047  21291734.3054   21291739.5354
     -1728.1644      -1346.6194
  24229248.8704     -56930.93247    605466.78445  24229248.3804   24229257.9684
     -3256.2104      -2537.3124
  24635698.0544   -1943356.21447  -1302426.65445  24635696.5514   24635705.7514
      2826.7364       2202.6514
  24460205.6984    4594697.98747   3825473.88045  24460204.0744   24460212.3734
     -2769.6834      -2158.1874
  23460112.7284  -11072025.59448  -8429825.59946  23460111.1814   23460119.7624
      1862.7434       1451.4874
 00  7 15  0 37  0.0000000  0  9G20G22G15G25G11G21G16G29G 1
  21978238.7914  -16302119.94548 -12331559.26646  21978236.9854   21978242.9214
      2223.8654       1732.8804
  24124069.0234   -3875377.10047  -3007814.33045  24124066.5024   24124078.5604
      2902.9104       2262.0064
  24314446.6954    2422497.96647   1901564.82245  24314444.5674   24314457.3594
     -4173.4484      -3252.0264
  21004809.0254  -20096457.80949 -14617627.09847  21004807.7504   21004811.8384
     -1332.5134      -1038.3214
  21301647.9914  -16599298.11849 -12688918.31847  21301646.2574   21301651.5514
     -1744.7184      -1359.5204
  24247858.4774      40859.44247    681666.83245  24247855.8364   24247868.0714
     -3263.4234      -2542.9164
  24619554.8904   -2028179.72547  -1368522.78445  24619552.6014   24619564.4874
      2827.8734       2203.5344
  24476013.0254    4677768.04147   3890203.69545  24476012.0384   24476021.0424
     -2768.6384      -2157.3724
  23449491.5734  -11127845.19148  -8473321.29046  23449489.5644   23449498.0194
      1858.2904       1448.0124
 00  7 15  0 37 30.0000000  0  9G20G22G15G25G11G21G16G29G 1
  21965561.5884  -16368739.22548 -12383470.34446  21965559.5404   21965565.3214
      2218.5704       1728.7554
  24107497.1844   -3962454.69246  -3075666.79144  24107495.7174   24107507.5334
      2903.3554       2262.3344
  24338275.6694    2547714.30247   1999135.74345  24338273.0644   24338285.6414
     -4173.0854      -3251.7364
  21012461.6344  -20056242.52049 -14586290.51247  21012460.4004   21012464.7194
     -1347.3104      -1049.8524
  21311657.0164  -16546697.72249 -12647931.03147  21311655.6764   21311661.0634
     -1760.8814      -1372.1134
  24266511.9514     138884.25847    758049.60145  24266509.1904   24266521.8874
     -3270.3514      -2548.3214
  24603409.1264   -2113018.19447  -1434630.48145  24603408.3134   24603418.3654
      2829.2004       2204.5694
  24491818.5614    4760826.64147   3954924.57145  24491817.2104   24491825.4944
     -2767.3774      -2156.3984
  23438898.2674  -11183511.86248  -8516697.80846  23438896.6914   23438904.4694
      1854.0364       1444.6964
 00  7 15  0 38  0.0000000  0  9G20G22G15G25G11G21G16G29G 1
  21952913.5254  -16435205.85648 -12435262.47746  21952911.6924   21952916.7414
      2213.6704       1724.9374
  24090922.7044   -4049554.07746  -3143536.15844  24090921.6104   24090934.0244
      2904.2344       2263.0234
  24362098.6804    2672910.87247   2096691.28045  24362096.0544   24362109.5274
     -4172.1224      -3250.9994
  21020197.2754  -20015591.23549 -14554614.19147  21020196.0744   21020200.4414
     -1361.6114      -1060.9964
  21321757.3734  -16493620.23449 -12606571.99247  21321755.8674   21321761.5284
     -1776.4994      -1384.2834
  24285202.3204     237108.24247    834587.51645  24285201.1224   24285214.3084
     -3276.6864      -2553.2544
  24587260.5554   -2197904.44647  -1500775.51545  24587257.8794   24587264.6814
      2831.0344       2205.9974
  24507615.2874    4843839.63747   4019609.92445  24507613.5064   24507622.6564
     -2765.7134      -2155.0954
  23428327.3994  -11239059.90348  -8559981.89546  23428325.5924   23428334.4724
      1850.3394       1441.8204
 00  7 15  0 38 30.0000000  0  9G20G22G15G25G11G21G16G29G 1
  21940295.0024  -16501514.27948 -12486931.33847  21940293.4464   21940298.9954
      2207.1374       1719.8454
  24074344.7694   -4136668.61547  -3211417.31145  24074343.4314   24074356.3354
      2903.5134       2262.4684
  24385919.6174    2798088.80047   2194232.26645  24385918.7224   24385930.9944
     -4172.7664      -3251.4924
  21028016.5524  -19974501.78949 -14522596.44447  21028015.2334   21028019.7634
     -1377.4364      -1073.3274
  21331948.9434  -16440063.59149 -12564839.58847  21331947.5484   21331953.2194
     -1793.7724      -1397.7444
  24303932.6354     335533.76147    911282.45545  24303930.6544   24303941.9324
     -3284.7194      -2559.5174
  24571098.0114   -2282833.65247  -1566954.14345  24571095.7134   24571102.2224
      2831.1784       2206.1144
  24523403.7864    4926810.58847   4084262.46045  24523403.3514   24523410.7684
     -2765.4824      -2154.9124
  23417780.2314  -11294485.82948  -8603170.83046  23417778.7734   23417785.8864
      1845.0454       1437.6984
 00  7 15  0 39  0.0000000  0  9G20G22G15G25G11G21G16G29G 1
  21927708.9054  -16567658.53248 -12538472.26947  21927706.8474   21927711.7474
      2202.1684       1715.9754
  24057767.2084   -4223791.34447  -3279304.91145  24057765.1294   24057777.1144
      2904.2574       2263.0514
  24409736.2724    2923249.45047   2291759.77745  24409734.9264   24409749.2994
     -4171.5414      -3250.5394
  21035919.3254  -19932971.84049 -14490235.44747  21035918.1064   21035922.4754
     -1391.5074      -1084.2914
  21342232.2414  -16386025.82149 -12522732.27947  21342230.7034   21342236.1454
     -1809.1894      -1409.7554
  24322702.2844     434164.31947    988137.18445  24322701.0854   24322711.7014
     -3290.9514      -2564.3734
  24554928.1064   -2367800.26347  -1633161.84845  24554926.7254   24554935.4264
      2833.0054       2207.5284
  24539185.6884    5009743.19647   4148885.22945  24539184.8754   24539192.7824
     -2763.6464      -2153.4944
  23407257.1084  -11349785.73748  -8646261.57546  23407255.4754   23407262.8194
      1841.3654       1434.8304
 00  7 15  0 39 30.0000000  0  9G20G22G15G25G11G21G16G29G 1
  21915162.3124  -16633588.21248 -12589846.01046  21915160.4804   21915165.7664
      2193.7094       1709.3824
  24041197.3664   -4310870.55347  -3347158.58845  24041194.6744   24041206.3294
      2901.4844       2260.8874
  24433559.4704    3048438.43447   2389309.36245  24433557.6814   24433571.1244
     -4173.7254      -3252.2514
  21043914.9684  -19890954.62649 -14457494.76647  21043913.7264   21043917.9774
     -1409.0074      -1097.9274
  21352616.1294  -16331460.76149 -12480214.09147  21352614.5294   21352619.6544
     -1827.9444      -1424.3704
  24341519.7784     533047.16147   1065188.50245  24341518.8674   24341528.8934
     -3300.6094      -2571.9044
  24538760.1064   -2452755.32147  -1699360.47445  24538758.2314   24538768.7904
      2831.4234       2206.3014
  24554969.8934    5092685.69447   4213515.71945  24554968.8014   24554976.0774
     -2765.2734      -2154.7524
  23396766.5254  -11404911.68048  -8689216.75946  23396765.1594   23396773.2274
      1834.3364       1429.3494
 00  7 15  0 40  0.0000000  0  9G20G22G15G25G11G21G16G29G 1
  21902648.5014  -16699348.58248 -12641087.81047  21902646.6544   21902652.0654
      2188.6504       1705.4404
  24024626.2334   -4397950.11647  -3415012.56545  24024624.1944   24024633.8844
      2901.9904       2261.2894
  24457379.6854    3173605.86547   2486842.17145  24457377.0404   24457390.4424
     -4172.4134      -3251.2234
  21051993.8934  -19848498.56149 -14424412.12147  21051992.7004   21051997.2484
     -1422.9994      -1108.8314
  21363090.4984  -16276417.17649 -12437323.02447  21363089.0064   21363094.0554
     -1843.2964      -1436.3334
  24360375.2504     632133.60347   1142398.47445  24360373.2774   24360385.4244
     -3306.8064      -2576.7154
  24522587.4824   -2537744.54847  -1765585.61545  24522585.4734   24522596.8134
      2832.9984       2207.5304
  24570746.4714    5175590.81647   4278117.06645  24570744.6644   24570753.2824
     -2763.3634      -2153.2684
  23386300.9184  -11459910.83048  -8732073.13846  23386299.1494   23386307.1384
      1830.7104       1426.5234
 00  7 15  0 40 30.0000000  0  9G20G22G15G25G11G21G16G29G 1
  21890161.1834  -16764969.43948 -12692220.90047  21890159.4164   21890164.7704
      2186.0344       1703.4014
  24008046.7954   -4485059.27546  -3482889.59744  24008044.9684   24008055.4564
      2905.0704       2263.6904
  24481185.7864    3298717.21446   2584331.34445  24481182.9964   24481196.0974
     -4168.3294      -3248.0314
  21060150.1674  -19805637.37049 -14391013.80047  21060148.8434   21060153.5644
     -1434.4224      -1117.7324
  21373649.6964  -16220928.69049 -12394085.28547  21373647.9624   21373653.2194
     -1856.0284      -1446.2564
  24379263.8434     731391.72747   1219742.22945  24379261.5384   24379274.4184
     -3310.3964      -2579.5054
  24506404.2614   -2622798.65747  -1831861.44145  24506402.4014   24506410.3814
      2837.2984       2210.8804
  24586508.3554    5258426.46147   4342664.23245  24586507.6154   24586516.3384
     -2759.0104      -2149.8724
  23375852.5354  -11514815.24748  -8774855.70346  23375850.8704   23375858.8024
      1829.6394       1425.6894
 00  7 15  0 41  0.0000000  0  9G20G22G15G25G11G21G16G29G 1
  21877709.7594  -16830402.61248 -12743207.74647  21877707.9764   21877713.4154
      2180.3834       1699.0014
  23991474.4524   -4572148.83846  -3550751.38644  23991474.1784   23991482.2614
      2904.9564       2263.5864
  24504988.7574    3423815.91946   2681810.59445  24504988.4164   24505004.0014
     -4167.2974      -3247.2274
  21068391.8454  -19762326.45149 -14357265.04347  21068390.5764   21068395.4234
     -1448.7244      -1128.8754
  21384301.4914  -16164951.47749 -12350466.72147  21384300.0054   21384305.6154
     -1871.6544      -1458.4304
  24398192.1474     830866.32947   1297254.66845  24398191.3334   24398202.5924
     -3316.8534      -2584.5534
  24490216.0064   -2707869.70747  -1898150.52445  24490214.6434   24490221.8194
      2838.4034       2211.7424
  24602267.6774    5341238.83247   4407193.23745  24602265.8234   24602275.8484
     -2757.5844      -2148.7604
  23365430.8704  -11569579.03948  -8817528.69246  23365429.3664   23365438.1154
      1825.5664       1422.5164
 00  7 15  0 41 30.0000000  0  9G20G22G15G25G11G21G16G29G 1
  21865272.3224  -16895760.70648 -12794136.08847  21865270.7424   21865276.1944
      2175.8654       1695.4774
  23974885.1814   -4659330.23547  -3618684.67845  23974883.0364   23974894.0674
      2906.0554       2264.4664
  24528774.3944    3548784.90547   2779188.70645  24528772.0914   24528785.1234
     -4164.8544      -3245.3354
  21076697.2904  -19718681.79049 -14323256.22947  21076696.0074   21076700.4134
     -1461.8304      -1139.0884
  21395024.8424  -16108601.99249 -12306558.07847  21395023.2074   21395028.5204
     -1885.9974      -1469.6064
  24417141.7724     930441.64647   1374845.50545  24417139.2144   24417151.9144
     -3322.2874      -2588.7814
  24474001.2724   -2793071.43947  -1964541.43145  24474000.2104   24474007.6384
      2840.7834       2213.5874
  24617997.7754    5423913.26547   4471614.70045  24617996.8754   24618007.2784
     -2754.9544      -2146.7144
  23355015.5274  -11624316.90248  -8860181.48346  23355013.7974   23355021.0824
      1822.7274       1420.3064
 00  7 15  0 42  0.0000000  0  9G20G22G15G25G11G21G16G29G 1
  21852860.6394  -16960983.84348 -12844959.26747  21852859.0964   21852864.4104
      2173.0724       1693.3004
  23958290.3764   -4746541.99347  -3686641.66845  23958289.1824   23958299.1804
      2908.6504       2266.4804
  24552540.5324    3673679.39447   2876508.85845  24552539.1484   24552551.8634
     -4160.5734      -3241.9964
  21085076.5924  -19674647.28249 -14288943.63347  21085075.3644   21085079.8494
     -1473.0444      -1147.8264
  21405828.7164  -16051824.50949 -12262315.93547  21405827.2244   21405833.0244
     -1898.4824      -1479.3354
  24436121.1384    1030174.43747   1452559.10445  24436119.9394   24436129.9704
     -3325.7954      -2591.5224
  24457773.4524   -2878344.55347  -2030987.92645  24457770.6934   24457781.3174
      2844.7984       2216.7164
  24633717.6734    5506507.32547   4535973.59645  24633717.2244   24633723.9914
     -2750.5824      -2143.3094
  23344614.6044  -11678971.19648  -8902769.15846  23344612.6734   23344620.6884
      1821.6864       1419.4914
 00  7 15  0 42 30.0000000  0  8G20G22G15G25G11G16G29G 1
  21840468.1964  -17026108.29648 -12895705.55147  21840466.3974   21840471.4274
      2166.0424       1687.8244
  23941681.4004   -4833819.21747  -3754649.66545  23941679.2724   23941690.9214
      2907.1094       2265.2774
  24576285.5724    3798458.74747   2973739.22145  24576282.0434   24576296.7234
     -4160.4884      -3241.9134
  21093523.1344  -19630262.64749 -14254358.20647  21093521.7724   21093526.1084
     -1488.3954      -1159.7884
  21416706.9154  -15994659.21149 -12217771.59147  21416705.3784   21416711.1404
     -1915.0744      -1492.2644
  24441526.2524   -2963726.26447  -2097519.01245  24441523.9424   24441533.8434
      2844.7404       2216.6684
  24649412.5744    5588982.87747   4600240.27945  24649411.0964   24649417.5754
     -2750.2934      -2143.0864
  23334222.2764  -11733580.46948  -8945321.75046  23334220.7294   23334228.9264
      1816.4584       1415.4184
 00  7 15  0 43  0.0000000  0  8G20G22G15G25G11G16G29G 1
  21828115.8874  -17091019.71448 -12946285.83247  21828113.9724   21828119.0134
      2162.0154       1684.6874
  23925080.7424   -4921046.86647  -3822619.02945  23925078.5154   23925090.6654
      2908.5434       2266.3844
  24600030.0004    3923232.54546   3070965.28645  24600027.7814   24600040.7884
     -4157.0974      -3239.2854
  21102056.9554  -19585417.51449 -14219413.95247  21102055.6664   21102059.7124
     -1500.6204      -1169.3144
  21427679.6544  -15936995.89449 -12172839.18047  21427678.1844   21427683.9964
     -1928.5604      -1502.7724
  24425279.8124   -3049102.68047  -2164045.96145  24425277.4274   24425287.7214
      2847.6224       2218.9264
  24665106.0004    5671451.90047   4664501.88545  24665105.0864   24665112.6744
     -2747.0234      -2140.5344
  23323860.2234  -11788032.61648  -8987751.88646  23323858.9754   23323867.3274
      1814.3284       1413.7584
 00  7 15  0 43 30.0000000  0  8G20G22G15G25G11G16G29G 1
  21815788.8044  -17155798.33448 -12996762.63447  21815787.0814   21815792.3004
      2155.6454       1679.7214
  23908475.0884   -5008304.34246  -3890611.60045  23908472.8484   23908484.9804
      2907.5634       2265.6214
  24623755.4134    4047915.79447   3168120.84745  24623752.5344   24623767.1074
     -4156.0734      -3238.4974
  21110662.3124  -19540196.08849 -14184176.48547  21110661.0584   21110664.7804
     -1515.0164      -1180.5314
  21438731.5914  -15878918.86549 -12127584.40247  21438730.1824   21438735.6234
     -1944.1994      -1514.9574
  24409019.2144   -3134555.01447  -2230632.07145  24409017.5824   24409025.1264
      2848.2754       2219.4324
  24680782.4704    5753832.15647   4728694.26145  24680780.8364   24680789.9924
     -2745.9564      -2139.7044
  23313512.5304  -11842410.25248  -9030123.96146  23313511.0454   23313518.8524
      1809.9414       1410.3394
 00  7 15  0 44  0.0000000  0  8G20G22G15G25G11G16G29G 1
  21803500.7434  -17220372.00648 -13047079.73847  21803498.8244   21803504.3594
      2149.3634       1674.8274
  23891880.7804   -5095518.22646  -3958570.26145  23891878.3904   23891888.1074
      2906.7044       2264.9554
  24647478.5984    4172576.20247   3265258.57545  24647476.8304   24647489.2504
     -4154.5234      -3237.2784
  21119352.3684  -19494529.54249 -14148592.16547  21119351.0764   21119354.7594
     -1529.2434      -1191.6194
  21449875.3804  -15820360.07449 -12081954.22447  21449873.8784   21449879.1784
     -1959.6694      -1527.0134
  24392757.5664   -3220011.60347  -2297221.52545  24392755.6444   24392762.7324
      2848.9734       2219.9724
  24696451.4024    5836193.86147   4792872.06345  24696450.1994   24696462.2144
     -2744.6894      -2138.7074
  23303192.6404  -11896643.34748  -9072383.43046  23303191.0124   23303198.4344
      1805.7354       1407.0604
 00  7 15  0 44 30.0000000  0  8G20G22G15G25G11G16G29G 1
  21791250.5054  -17284745.92248 -13097241.18747  21791248.6174   21791254.7394
      2142.9324       1669.8174
  23875293.7394   -5182692.04247  -4026497.73345  23875291.5354   23875299.6834
      2905.5494       2264.0564
  24671194.0734    4297203.69647   3362370.61245  24671191.4144   24671205.9124
     -4153.0534      -3236.1414
  21128125.1654  -19448427.00549 -14112668.11047  21128123.8454   21128127.9524
     -1543.5014      -1202.7284
  21461108.6404  -15761328.95449 -12035955.98947  21461107.0714   21461112.6964
     -1975.0864      -1539.0274
  24376493.0684   -3305478.48747  -2363819.02345  24376491.5764   24376498.1544
      2849.5594       2220.4324
  24712122.4964    5918529.68747   4857029.58845  24712121.2154   24712130.0554
     -2743.5254      -2137.8094
  23292898.6424  -11950739.11648  -9114535.88246  23292896.8794   23292903.9974
      1801.4074       1403.6924
 00  7 15  0 45  0.0000000  0  8G20G22G15G25G11G16G29G 1
  21779039.4524  -17348913.90848 -13147242.16847  21779037.8614   21779043.8784
      2134.7044       1663.4034
  23858712.8814   -5269818.80347  -4094388.54345  23858709.9434   23858720.1874
      2902.6094       2261.7614
  24694903.4714    4421799.61847   3459458.01345  24694902.0874   24694917.0884
     -4153.4504      -3236.4434
  21136981.3374  -19401885.88149 -14076402.30947  21136980.2394   21136984.4934
     -1559.4164      -1215.1304
  21472432.1024  -15701823.33849 -11989588.02847  21472430.6494   21472436.2584
     -1992.2104      -1552.3724
  24360228.5144   -3390950.27247  -2430420.34545  24360225.9594   24360235.6604
      2848.3254       2219.4724
  24727786.9254    6000843.07547   4921169.81945  24727785.6304   24727794.1994
     -2744.2234      -2138.3544
  23282630.9924  -12004694.09248  -9156578.62446  23282629.4624   23282637.5584
      1795.3644       1398.9824
 00  7 15  0 45 30.0000000  0  7G20G22G15G25G11G16G 1
  21766864.3564  -17412893.96448 -13197096.71747  21766862.7094   21766868.5284
      2130.5234       1660.1474
  23842138.0524   -5356915.33547  -4162255.78245  23842136.5484   23842146.8224
      2903.6184       2262.5494
  24718604.1334    4546341.70547   3556503.39845  24718601.9544   24718615.6634
     -4149.4534      -3233.3304
  21145917.2894  -19354928.12849 -14039811.85847  21145916.1064   21145920.2384
     -1571.1814      -1224.2974
  21483841.4474  -15641865.51349 -11942867.69447  21483839.9224   21483845.9094
     -2005.1304      -1562.4374
  24343959.5354   -3476445.60347  -2497039.98245  24343957.5414   24343965.1274
      2851.3074       2221.7954
  23272386.6334  -12058528.33448  -9198527.29146  23272384.8474   23272392.8954
      1793.4804       1397.5124
 00  7 15  0 46  0.0000000  0  7G20G22G15G25G11G16G 1
  21754724.3074  -17476692.56148 -13246809.86547  21754722.5134   21754727.8304
      2122.3354       1653.7674
  23825566.9954   -5443987.54047  -4230103.99545  23825565.5324   23825577.1754
      2900.6644       2260.2644
  24742291.9634    4670818.64846   3653498.23245  24742288.7584   24742300.7204
     -4149.3014      -3233.2234
  21154930.3394  -19307563.80849 -14002904.60047  21154929.0834   21154933.6264
     -1586.7784      -1236.4504
  21495335.1524  -15581466.18449 -11895803.32947  21495333.6164   21495339.4344
     -2021.9134      -1575.5164
  24327684.3374   -3561971.62947  -2563683.55745  24327682.2984   24327690.1614
      2850.1684       2220.9024
  23262163.4314  -12112250.58048  -9240388.68446  23262162.1724   23262169.5474
      1787.6734       1392.9854
 00  7 15  0 46 30.0000000  0  6G20G22G25G11G16G 1
  21742636.8944  -17540214.50148 -13296307.44647  21742635.0144   21742639.9954
      2114.9364       1648.0004
  23809022.0434   -5530938.59947  -4297857.81945  23809019.6584   23809031.5304
      2898.4024       2258.4834
  21164037.9654  -19259701.17949 -13965609.06247  21164036.8034   21164041.8564
     -1601.5134      -1247.9324
  21506930.0724  -15520534.21949 -11848323.92847  21506928.6584   21506934.1364
     -2037.7614      -1587.8654
  24311421.3594   -3647433.41547  -2630277.08545  24311419.6524   24311428.1354
      2849.8814       2220.6794
  23251979.9614  -12165767.73248  -9282090.27746  23251978.0164   23251985.8894
      1782.6694       1389.0914
 00  7 15  0 47  0.0000000  0  6G20G22G25G11G16G 1
  21730580.9984  -17603571.47248 -13345676.48647  21730578.9364   21730583.1784
      2108.1074       1642.6794
  23792477.8784   -5617879.05347  -4365603.43145  23792477.1864   23792485.0104
      2896.8234       2257.2584
  21173218.7234  -19211456.17949 -13928015.56747  21173217.5594   21173222.4544
     -1615.5484      -1258.8694
  21518604.3844  -15459185.71949 -11800519.95447  21518602.9864   21518608.5014
     -2052.9104      -1599.6694
  24295149.0734   -3732944.18447  -2696908.75045  24295146.5834   24295155.9944
      2850.0984       2220.8564
  23241812.6924  -12219194.09448  -9323721.11646  23241811.0064   23241819.1024
      1778.3424       1385.7204
 00  7 15  0 47 30.0000000  0  6G20G22G25G11G16G 1
  21718575.0164  -17666661.72548 -13394837.69747  21718573.0904   21718577.7774
      2103.0314       1638.7254
  23775955.5064   -5704705.99747  -4433260.60245  23775953.3414   23775963.0924
      2896.7154       2257.1744
  21182490.8784  -19162730.97949 -13890047.88947  21182489.7094   21182494.6654
     -1627.6474      -1268.2954
  21530376.6274  -15397323.29849 -11752315.51747  21530375.1594   21530380.5864
     -2066.1494      -1609.9844
  24278886.2074   -3818402.61647  -2763499.64045  24278884.4374   24278894.7154
      2852.2984       2222.5624
  23231682.0164  -12272430.34248  -9365203.81646  23231680.5724   23231688.2954
      1775.8754       1383.7964
 00  7 15  0 48  0.0000000  0  6G20G22G25G11G16G 1
  21706583.9944  -17729671.10648 -13443935.87647  21706582.2494   21706587.8584
      2097.3814       1634.3214
  23759419.0324   -5791604.39647  -4500973.47645  23759416.9624   23759427.1734
      2896.1884       2256.7584
  21191818.9224  -19113715.16349 -13851853.75747  21191817.5514   21191822.4304
     -1640.2164      -1278.0904
  21542210.4764  -15335137.19549 -11703858.86547  21542208.9964   21542214.2924
     -2079.8024      -1620.6244
  24262597.2514   -3903995.08747  -2830194.96545  24262595.6684   24262605.8474
      2853.7314       2223.6834
  23221551.5664  -12325664.22748  -9406684.66846  23221550.4094   23221557.9724
      1772.8694       1381.4514
 00  7 15  0 48 30.0000000  0  6G20G22G25G11G16G 1
  21694626.6854  -17792505.33548 -13492897.57647  21694624.8544   21694630.7364
      2091.3834       1629.6494
  23742886.2704   -5878479.14447  -4568667.89645  23742884.2744   23742895.8994
      2895.1834       2255.9864
  21201218.9584  -19064318.36949 -13813362.75947  21201217.6134   21201221.9984
     -1653.0594      -1288.0974
  21554123.1324  -15272537.24349 -11655079.72747  21554121.5914   21554126.7974
     -2093.7484      -1631.4894
  24246303.3124   -3989627.93047  -2896921.77045  24246301.5204   24246309.4594
      2854.9324       2224.6174
  23211439.8734  -12378803.85048  -9448092.06446  23211438.5284   23211445.5504
      1769.5954       1378.8994
 00  7 15  0 49  0.0000000  0  6G20G22G25G11G16G 1
  21682701.2464  -17855173.72848 -13541730.05647  21682699.5814   21682705.5974
      2085.7124       1625.2294
  23726355.7374   -5965338.15047  -4636349.99845  23726355.1134   23726365.3224
      2894.6504       2255.5674
  21210688.5104  -19014553.62449 -13774585.04547  21210687.3594   21210691.7524
     -1665.3974      -1297.7114
  21566111.3364  -15209537.13649 -11605988.78647  21566109.8984   21566115.3174
     -2107.1504      -1641.9334
  24229998.6534   -4075311.13447  -2963687.85745  24229997.0424   24230004.8544
      2856.4854       2225.8414
  23201343.2384  -12431860.94348  -9489435.16746  23201341.1694   23201350.0474
      1766.7214       1376.6624
 00  7 15  0 49 30.0000000  0  6G20G22G25G11G16G 1
  21670808.5854  -17917673.54048 -13590431.17447  21670806.5774   21670811.9824
      2078.5024       1619.6114
  23709832.2094   -6052177.10447  -4704016.49245  23709830.2204   23709842.6504
      2892.3114       2253.7464
  21220228.5474  -18964421.94049 -13735521.40047  21220227.2464   21220231.6464
     -1679.0934      -1308.3844
  21578175.5314  -15146138.45649 -11556587.26447  21578174.0904   21578179.7584
     -2121.8834      -1653.4134
  24213683.6724   -4161042.92247  -3030491.74545  24213681.9454   24213690.8794
      2856.4804       2225.8274
  23191262.5994  -12484834.94448  -9530713.50146  23191260.8984   23191268.7844
      1762.4164       1373.3074
 00  7 15  0 50  0.0000000  0  6G20G22G25G11G16G 1
  21658948.6444  -17979996.00048 -13638994.10447  21658946.7684   21658952.0544
      2075.4524       1617.2344
  23693314.8724   -6138986.28447  -4771659.81945  23693312.5494   23693320.8594
      2894.1214       2255.1524
  21229838.4614  -18913918.94549 -13696168.42447  21229837.3464   21229841.9974
     -1688.5894      -1315.7844
  21590316.7874  -15082336.79549 -11506871.73647  21590315.1614   21590321.1774
     -2132.4364      -1661.6364
  24197360.9974   -4246815.05247  -3097327.06145  24197359.1344   24197368.5884
      2860.7414       2229.1424
  23181198.8684  -12537719.63148  -9571922.24746  23181197.5444   23181204.6564
      1762.3594       1373.2674
 00  7 15  0 50 30.0000000  0  6G20G22G25G11G16G 1
  21647123.3874  -18042138.48048 -13687416.79047  21647121.6074   21647126.5184
      2068.0394       1611.4584
  23676801.1214   -6225762.40947  -4839277.38445  23676798.9214   23676808.2944
      2891.6734       2253.2494
  21239519.5154  -18863045.44749 -13656526.74947  21239518.1994   21239522.7454
     -1702.2654      -1326.4404
  21602533.9834  -15018134.18049 -11456843.78547  21602532.7114   21602538.4054
     -2147.1124      -1673.0724
  24181031.3474   -4332625.51047  -3164192.19045  24181030.3804   24181039.6914
      2860.6384       2229.0614
  23171152.0904  -12590514.79048  -9613061.25646  23171150.7584   23171158.0854
      1758.0464       1369.9044
 00  7 15  0 51  0.0000000  0  6G20G22G25G11G16G 1
  21635341.2914  -18104052.72348 -13735661.62947  21635339.5764   21635344.9704
      2060.8714       1605.8734
  23660302.9324   -6312456.26147  -4906830.85145  23660299.9064   23660310.7104
      2889.2754       2251.3914
  21249278.6874  -18811757.46249 -13616562.09647  21249277.5004   21249282.5324
     -1715.5884      -1336.8204
  21614836.4324  -14953486.65649 -11406469.14547  21614834.8884   21614840.5504
     -2161.4474      -1684.2434
  24164705.3884   -4418426.52447  -3231050.04445  24164703.6594   24164710.6934
      2860.7714       2229.1734
  23161131.6264  -12643174.44348  -9654094.66746  23161130.0904   23161137.9414
      1753.9594       1366.7204
 00  7 15  0 51 30.0000000  0  6G20G22G25G11G16G 1
  21623607.1204  -18165713.95848 -13783709.31747  21623605.6844   21623611.1874
      2050.3514       1597.6754
  23643824.6164   -6399041.16947  -4974299.44545  23643822.9634   23643833.7044
      2883.4474       2246.8434
  21259121.7544  -18760033.96949 -13576258.08847  21259120.3824   21259125.0664
     -1732.1424      -1349.7224
  21627226.9554  -14888373.73349 -11355731.85747  21627225.3134   21627230.9474
     -2178.9794      -1697.9044
  24148384.3814   -4504194.13147  -3297881.91345  24148382.1454   24148388.6314
      2857.5174       2226.6374
  23151140.7114  -12695675.85348  -9695004.77346  23151139.0284   23151146.7614
      1746.6294       1361.0054
 00  7 15  0 52  0.0000000  0  6G20G22G25G11G16G 1
  21611919.5624  -18227137.61448 -13831571.87747  21611917.4614   21611922.4384
      2044.4494       1593.0774
  23627366.9944   -6485531.64247  -5041694.43245  23627365.4134   23627376.4454
      2882.3544       2245.9814
  21269043.3424  -18707894.53349 -13535629.96947  21269042.0594   21269047.1804
     -1743.9314      -1358.9064
  21639702.0504  -14822815.51149 -11304647.58147  21639700.5864   21639706.1944
     -2191.7384      -1707.8474
  24132066.2104   -4589944.40347  -3364700.21645  24132064.6494   24132072.0904
      2859.0564       2227.8344
  23141176.3834  -12748036.97048  -9735805.53646  23141175.2664   23141182.3004
      1744.0044       1358.9614
 00  7 15  0 52 30.0000000  0  6G20G22G25G11G16G 1
  21600273.4384  -18288339.15848 -13879261.36947  21600271.5714   21600276.2654
      2035.3224       1585.9654
  23610925.0264   -6571941.82047  -5109026.83045  23610922.3254   23610932.9064
      2877.9084       2242.5214
  21279040.9684  -18655358.24649 -13494692.61847  21279039.7244   21279044.3414
     -1758.8104      -1370.5014
  21652258.6654  -14756831.73149 -11253231.70147  21652257.0804   21652262.6134
     -2207.5434      -1720.1604
  24115748.2834   -4675693.40147  -3431517.50245  24115745.3704   24115754.6204
      2857.2624       2226.4294
  23131235.7524  -12800275.73248  -9776510.99346  23131233.8664   23131241.3384
      1738.2654       1354.4894
 00  7 15  0 53  0.0000000  0  6G20G22G25G11G16G 1
  21588676.8454  -18349280.39949 -13926748.02747  21588674.9474   21588679.6774
      2025.6754       1578.4474
  23594503.9234   -6658233.32647  -5176266.76845  23594501.3834   23594510.1954
      2872.9924       2238.6984
  21289120.6544  -18602391.30249 -13453419.68547  21289119.2974   21289123.8494
     -1774.0534      -1382.3794
  21664901.8384  -14690389.05849 -11201458.24247  21664900.4954   21664906.4744
     -2223.7474      -1732.7894
  24099437.3714   -4761403.83247  -3498304.70445  24099435.8564   24099446.0864
      2855.0254       2224.6834
  23121325.0214  -12852356.56148  -9817093.37946  23121323.3164   23121330.9654
      1732.0704       1349.6614
 00  7 15  0 53 30.0000000  0  6G20G22G25G11G16G 1
  21577125.6944  -18409981.40549 -13974047.49347  21577123.8214   21577128.5804
      2020.1384       1574.1324
  23578102.0964   -6744424.59247  -5243428.60945  23578099.3764   23578109.4224
      2872.0054       2237.9274
  21299277.3704  -18549017.66849 -13411829.84947  21299276.0764   21299280.7254
     -1785.0684      -1390.9614
  21677628.7424  -14623511.76649 -11149346.12447  21677626.9454   21677632.7774
     -2235.7024      -1742.1044
  24083131.9784   -4847095.92047  -3565077.64945  24083130.2474   24083138.5064
      2856.8684       2226.1314
  23111440.4094  -12904301.46248  -9857569.84546  23111439.0324   23111446.1584
      1730.0254       1348.0694
 00  7 15  0 54  0.0000000  0  6G20G22G25G11G16G 1
  21565621.7754  -18470431.27748 -14021151.26547  21565619.8034   21565625.4054
      2010.6384       1566.7304
  23561719.6264   -6830503.44847  -5310502.86245  23561718.7694   23561729.4314
      2867.1704       2234.1504
  21309512.6824  -18495230.38749 -13369917.69547  21309511.3724   21309516.1114
     -1799.9064      -1402.5234
  21690439.0034  -14556193.55949 -11096890.43247  21690437.3024   21690443.2474
     -2251.4084      -1754.3434
  24066830.0904   -4932759.80947  -3631828.63945  24066828.6044   24066835.8824
      2854.8934       2224.5884
  23101583.3354  -12956102.12148  -9897933.92346  23101581.6824   23101588.8164
      1724.1444       1343.4864
 00  7 15  0 54 30.0000000  0  6G20G22G25G11G16G 1
  21554169.4504  -18530612.32848 -14068045.56247  21554167.4994   21554173.2594
      2001.7884       1559.8334
  23545365.6574   -6916450.88247  -5377474.70445  23545363.6434   23545373.6964
      2862.9154       2230.8454
  21319829.2144  -18441016.09349 -13327672.80547  21319828.0724   21319832.7044
     -1813.9804      -1413.4914
  21703335.6674  -14488421.46549 -11044081.06647  21703333.9544   21703339.7614
     -2266.3574      -1765.9904
  24050537.5764   -5018378.50147  -3698544.44745  24050535.6334   24050542.5924
      2853.4584       2223.4664
  23091755.7534  -13007743.25848  -9938173.69246  23091754.3044   23091762.2504
      1719.0064       1339.4834
 00  7 15  0 55  0.0000000  0  6G20G22G25G11G16G 1
  21542764.6064  -18590545.23648 -14114746.49447  21542762.7774   21542768.1574
      1994.0574       1553.8104
  23529031.5184   -7002286.54147  -5444359.46145  23529030.1394   23529039.1864
      2859.7554       2228.3774
  21330222.2804  -18386399.03749 -13285114.07447  21330221.0554   21330226.0434
     -1826.7924      -1423.4754
  21716313.8984  -14420220.50049 -10990937.51347  21716312.4274   21716318.0544
     -2280.0604      -1776.6694
  24034249.3704   -5103972.96147  -3765241.33445  24034247.2114   24034255.4584
      2853.2064       2223.2734
  23081954.7764  -13059247.78748  -9978307.01746  23081953.3894   23081960.8024
      1714.9934       1336.3554
 00  7 15  0 55 30.0000000  0  6G20G22G25G11G16G 1
  21531396.7134  -18650284.51248 -14161296.55047  21531394.8374   21531400.4594
      1986.9454       1548.2684
  23512708.5634   -7088064.41547  -5511199.18445  23512705.8934   23512715.3794
      2857.1224       2226.3194
  21340680.7944  -18331438.20849 -13242287.47347  21340679.5104   21340684.7064
     -1838.8494      -1432.8684
  21729362.3344  -14351650.08249 -10937506.07147  21729360.8734   21729366.6274
     -2292.9764      -1786.7314
  24017955.3034   -5189598.46447  -3831962.38245  24017953.5544   24017962.1584
      2853.5804       2223.5634
  23072168.7884  -13110672.76248 -10018378.34246  23072167.2934   23072174.8474
      1711.7424       1333.8234
 00  7 15  0 56  0.0000000  0  6G20G22G25G11G16G 1
  21520084.9024  -18709729.68349 -14207617.43847  21520083.1674   21520088.3954
      1978.3164       1541.5444
  23496415.8474   -7173682.52047  -5577914.42745  23496413.7404   23496423.2574
      2852.8794       2223.0194
  21351223.5064  -18276037.06849 -13199117.77547  21351222.2514   21351226.9084
     -1852.2714      -1443.3284
  21742499.2394  -14282614.08049 -10883711.84347  21742497.8584   21742503.9094
     -2307.2124      -1797.8264
  24001674.2124   -5275155.10247  -3898629.80145  24001672.1084   24001681.9094
      2852.4144       2222.6554
  23062416.8684  -13161919.82648 -10058311.04846  23062415.2294   23062422.4624
      1707.0154       1330.1394
 00  7 15  0 56 30.0000000  0  6G20G22G25G11G16G 1
  21508813.2884  -18768964.70149 -14253774.56947  21508811.2894   21508816.3154
      1970.7054       1535.6134
  23480137.8014   -7259223.40447  -5644569.48845  23480135.5554   23480145.2244
      2849.6884       2220.5394
  21361832.6854  -18220283.58349 -13155673.51847  21361831.7394   21361836.3524
     -1864.5754      -1452.9154
  21755708.2704  -14213201.05749 -10829623.83247  21755706.6594   21755712.5944
     -2320.3234      -1808.0424
  23985390.6384   -5360727.22647  -3965309.25545  23985388.9284   23985396.9204
      2852.3984       2222.6464
  23052681.8524  -13213075.60848 -10098172.59846  23052680.2294   23052687.8684
      1703.4474       1327.3594
 00  7 15  0 57  0.0000000  0  6G20G22G25G11G16G 1
  21497587.7714  -18827953.62749 -14299739.92747  21497585.9544   21497590.9864
      1964.4344       1530.7264
  23463880.1054   -7344649.93647  -5711135.43145  23463878.9314   23463887.6924
      2847.8724       2219.1204
  21372515.9584  -18164145.92949 -13111929.90347  21372514.7354   21372519.0524
     -1875.3664      -1461.3254
  21768994.7074  -14143379.90349 -10775217.79147  21768993.2214   21768999.1084
     -2331.9174      -1817.0764
  23969111.3284   -5446279.67047  -4031973.40045  23969109.1694   23969116.7704
      2853.6654       2223.6354
  23042970.9214  -13264106.56048 -10137936.90846  23042969.3294   23042976.9704
      1701.2384       1325.6364
 00  7 15  0 57 30.0000000  0  6G20G22G25G11G16G 1
  21486400.1384  -18886744.52149 -14345550.98547  21486398.2644   21486403.5714
      1955.2604       1523.5794
  23447637.7464   -7430009.23547  -5777649.01045  23447635.8224   23447645.6334
      2842.9594       2215.2784
  21383261.7444  -18107676.50249 -13067927.76847  21383260.4724   21383265.0374
     -1888.9214      -1471.8854
  21782349.1744  -14073203.37249 -10720534.83947  21782347.6344   21782353.0944
     -2346.2614      -1828.2534
  23952824.7934   -5531861.28147  -4098660.30045  23952822.5244   23952830.2644
      2852.0854       2222.4034
  23033274.2944  -13315063.20548 -10177643.30746  23033272.6914   23033279.9014
      1696.2564       1321.7554
 00  7 15  0 58  0.0000000  0  6G20G22G25G11G16G 1
  21475252.2434  -18945322.89749 -14391196.44047  21475250.7444   21475256.1574
      1949.6744       1519.2264
  23431408.3834   -7515286.18847  -5844098.44645  23431407.0764   23431417.7564
      2841.7034       2214.3124
  21394072.6374  -18050864.66449 -13023658.82347  21394071.4804   21394076.0324
     -1898.7534      -1479.5464
  21795772.8174  -14002661.62149 -10665567.29647  21795771.2724   21795776.7934
     -2356.8484      -1836.5034
  23936536.0984   -5617457.75747  -4165358.75745  23936533.8874   23936542.6404
      2854.1514       2224.0114
  23023594.4984  -13365933.41848 -10217282.35046  23023592.6514   23023599.9634
      1694.8484       1320.6584
 00  7 15  0 58 30.0000000  0  6G20G22G25G11G16G 1
  21464149.8554  -19003667.53249 -14436659.76647  21464148.0794   21464153.2634
      1938.1404       1510.2384
  23415202.6814   -7600458.11147  -5910466.01345  23415200.0554   23415210.2194
      2834.4904       2208.6884
  21404951.9504  -17993693.19449 -12979109.64447  21404950.7174   21404955.4864
     -1914.4074      -1491.7454
  21809269.5024  -13931738.17249 -10610302.32747  21809267.7904   21809273.4804
     -2373.2294      -1849.2684
  23920248.8604   -5703048.76247  -4232052.95945  23920246.6524   23920254.9834
      2850.1274       2220.8794
  23013933.8174  -13416698.33248 -10256839.35746  23013932.2734   23013939.5914
      1687.6374       1315.0374
 00  7 15  0 59  0.0000000  0  6G20G22G25G11G16G 1
  21453117.7304  -19061642.37449 -14481834.94347  21453115.9714   21453120.9484
      1927.0684       1501.6114
  23399041.0694   -7685387.52447  -5976644.60945  23399039.2054   23399048.2674
      2827.6434       2203.3524
  21415924.5784  -17936030.33049 -12934177.56447  21415923.2654   21415928.4514
     -1929.4804      -1503.4904
  21822863.0414  -13860301.62049 -10554637.53947  21822861.7124   21822867.6334
     -2388.9724      -1861.5344
  23903988.0454   -5788498.65147  -4298637.19545  23903986.4034   23903993.8564
      2846.7144       2218.2234
  23004318.4964  -13467224.38348 -10296210.22746  23004317.1034   23004324.7154
      1681.0004       1309.8674
 00  7 15  0 59 30.0000000  0  6G20G22G25G11G16G 1
  21442131.2764  -19119380.25349 -14526825.47947  21442129.2864   21442133.9874
      1920.7524       1496.6884
  23382899.4574   -7770205.97747  -6042736.75545  23382898.1064   23382906.2374
      2825.4584       2201.6564
  21426964.7674  -17878013.08649 -12888969.34747  21426963.4984   21426968.8504
     -1939.6734      -1511.4334
  21836528.4414  -13788489.56549 -10498680.15447  21836526.9454   21836532.9934
     -2399.8744      -1870.0304
  23887728.4004   -5873941.04447  -4365215.59445  23887726.6484   23887734.5664
      2848.0974       2219.2914
  22994723.3384  -13517646.71648 -10335500.27246  22994722.0184   22994729.9144
      1679.1884       1308.4504
 00  7 15  1  0  0.0000000  0  6G20G22G25G11G16G 1
  21431193.2804  -19176856.57649 -14571612.19847  21431191.4694   21431196.8664
      1910.8414       1488.9664
  23366784.6814   -7854887.98847  -6108722.61045  23366782.6954   23366791.9324
      2819.7604       2197.2114
  21438076.5154  -17819620.86549 -12843468.94147  21438075.4044   21438080.4444
     -1953.2924      -1522.0464
  21850269.1554  -13716281.87149 -10442414.48247  21850267.5484   21850273.7654
     -2414.1554      -1881.1584
  23871474.5864   -5959351.46347  -4431769.06945  23871472.8924   23871481.3944
      2845.8544       2217.5434
  22985151.9764  -13567943.03148 -10374692.11146  22985150.5174   22985158.3894
      1673.8334       1304.2814
 00  7 15  1  5 30.0000000  0  5G22G25G11G16G 1
  23191643.0154   -8775260.12347  -6825894.05845  23191641.2694   23191649.7604
      2757.5654       2148.7484
  21565129.8484  -17151956.37649 -12323211.09547  21565128.4854   21565132.6414
     -2090.1824      -1628.7114
  22006465.6084  -12895465.67948  -9802818.18447  22006464.0554   22006470.6924
     -2557.1494      -1992.5814
  23693404.9574   -6895116.43447  -5160935.69945  23693402.7034   23693410.6654
      2825.9614       2202.0494
  22881662.3064  -14111784.16448 -10798463.44846  22881660.8144   22881667.3784
      1623.9814       1265.4364
 00  7 15  1  6  0.0000000  0  6G20G22G25G11G16G 1
  21304235.0144  -19844027.79249 -15091485.63847  21304233.1004   21304238.2264
      1794.1704       1398.0544
  23175921.6704   -8857878.75447  -6890272.06845  23175919.7954   23175929.1634
      2749.9244       2142.8064
  21577099.4124  -17089054.44749 -12274196.61547  21577098.1654   21577102.4204
     -2103.5414      -1639.1224
  22021102.3624  -12818549.89248  -9742883.87347  22021100.9024   22021107.2564
     -2570.8814      -2003.2814
  23677280.4264   -6979847.64847  -5226959.94645  23677278.5894   23677286.9324
      2822.4834       2199.3354
  22872407.0884  -14160421.60548 -10836362.66946  22872405.5494   22872412.4714
      1618.1824       1260.9184
 00  7 15  1  6 30.0000000  0  6G20G22G25G11G16G 1
  21294028.4034  -19897664.53849 -15133280.48847  21294026.4054   21294031.3294
      1780.8524       1387.6754
  23160247.1254   -8940244.73347  -6954453.22845  23160244.9224   23160254.3154
      2740.2844       2135.2844
  21589149.0344  -17025731.46749 -12224854.04747  21589147.8644   21589152.2184
     -2118.7264      -1650.9564
  22035821.6454  -12741200.62848  -9682611.78747  22035820.1464   22035826.3584
     -2586.4814      -2015.4384
  23661180.4254   -7064452.83447  -5292886.00045  23661178.6994   23661186.0754
      2817.0474       2195.1024
  22863188.6434  -14208863.71448 -10874109.67946  22863187.0944   22863194.2334
      1610.5064       1254.9364
 00  7 15  1  7  0.0000000  0  6G20G22G25G11G16G 1
  21283894.7114  -19950917.02249 -15174775.91747  21283892.7044   21283897.4674
      1769.5744       1378.8894
  23144625.2144   -9022335.49747  -7018419.93545  23144623.6354   23144632.5414
      2732.6254       2129.3114
  21601282.4174  -16961969.93749 -12175169.75647  21601281.1464   21601285.8814
     -2131.7524      -1661.1044
  22050626.7594  -12663400.99148  -9621988.76647  22050625.0494   22050631.0564
     -2599.9194      -2025.9084
  23645108.7354   -7148910.44247  -5358697.07045  23645107.2794   23645113.8634
      2813.6444       2192.4484
  22854011.2464  -14257091.32248 -10911689.55246  22854009.8184   22854016.9184
      1604.9434       1250.6034
 00  7 15  1  7 30.0000000  0  6G20G22G25G11G16G 1
  21273814.0494  -20003888.11549 -15216052.07547  21273812.2874   21273817.3014
      1761.5054       1372.5994
  23129038.0084   -9104253.06947  -7082251.66945  23129035.5904   23129044.8374
      2728.1424       2125.8224
  21613478.8954  -16897876.70949 -12125226.99647  21613477.6654   21613482.6844
     -2141.4254      -1668.6424
  22065496.4404  -12585258.85548  -9561098.86347  22065494.9034   22065500.8494
     -2609.9364      -2033.7144
  23629045.8194   -7233323.92747  -5424473.76245  23629043.5914   23629052.2954
      2813.5494       2192.3734
  22844854.5754  -14305209.76848 -10949184.35946  22844852.8844   22844859.8474
      1602.6534       1248.8174
 00  7 15  1  8  0.0000000  0  6G20G22G25G11G16G 1
  21263774.4374  -20056646.63349 -15257162.59247  21263772.6074   21263777.7134
      1755.2364       1367.7174
  23113469.3194   -9186065.21447  -7146001.24845  23113466.7374   23113475.9094
      2725.4154       2123.6934
  21625724.8834  -16833525.21349 -12075082.99547  21625723.5504   21625728.7514
     -2149.1534      -1674.6644
  22080417.4844  -12506848.07248  -9499999.61747  22080416.0644   22080422.1484
     -2617.9864      -2039.9864
  23612977.4674   -7317762.19347  -5490269.73845  23612975.5384   23612983.4424
      2815.2064       2193.6624
  22835705.1384  -14353290.19448 -10986649.56146  22835703.3724   22835710.6184
      1602.2494       1248.5034
 00  7 15  1  8 30.0000000  0  6G20G22G25G11G16G 1
  21253793.5504  -20109096.66349 -15298032.73147  21253791.7564   21253796.8344
      1741.6044       1357.0944
  23097939.1824   -9267674.47947  -7209592.74745  23097937.0544   23097946.1564
      2715.2914       2115.8074
  21638037.3194  -16768823.80549 -12024666.33447  21638036.0364   21638040.8514
     -2164.0994      -1686.3114
  22095407.2104  -12428077.61548  -9438620.11547  22095405.5354   22095411.8244
     -2633.2254      -2051.8624
  23596923.6654   -7402130.24047  -5556011.01046  23596921.4204   23596928.5414
      2809.5534       2189.2604
  22826580.3524  -14401239.34148 -11024012.46446  22826578.8754   22826586.3244
      1594.5814       1242.5294
 00  7 15  1  9  0.0000000  0  6G20G22G25G11G16G 1
  21243875.7984  -20161214.70349 -15338644.16647  21243874.0014   21243879.1804
      1732.7264       1350.1754
  23082452.2034   -9349056.09147  -7273006.86645  23082449.9864   23082459.2104
      2709.8344       2111.5514
  21650419.7474  -16703753.29949 -11973962.05747  21650418.6324   21650422.9744
     -2174.1334      -1694.1294
  22110468.7774  -12348929.06748  -9376945.99247  22110467.2044   22110473.3404
     -2643.5834      -2059.9334
  23580886.3854   -7486404.58448  -5621679.28746  23580884.5974   23580891.5644
      2808.5684       2188.4984
  22817484.8504  -14449036.31948 -11061256.77946  22817483.6284   22817490.8004
      1591.7384       1240.3124
 00  7 15  1  9 30.0000000  0  6G20G22G25G11G16G 1
  21234015.8264  -20213028.06349 -15379018.19147  21234014.2824   21234019.5714
      1722.0744       1341.8754
  23067004.2754   -9430236.21147  -7336263.96445  23067002.6284   23067011.3444
      2702.5934       2105.9114
  21662866.7204  -16638344.80449 -11922994.41547  21662865.3934   21662870.0194
     -2185.8154      -1703.2324
  22125596.3254  -12269434.60448  -9315002.33247  22125594.4744   22125600.6514
     -2655.5324      -2069.2434
  23564862.0814   -7570613.21747  -5687296.36946  23564860.2374   23564867.1054
      2805.9194       2186.4304
  22808412.8714  -14496710.64648 -11098405.55046  22808411.3244   22808418.2154
      1587.1604       1236.7454
 00  7 15  1 10  0.0000000  0  6G20G22G25G11G16G 1
  21224217.0734  -20264524.95349 -15419145.61647  21224215.1814   21224220.0364
      1709.9984       1332.4654
  23051597.4284   -9511202.52747  -7399354.46645  23051595.0444   23051603.1764
      2694.0314       2099.2394
  21675378.6994  -16572591.25049 -11871757.89847  21675377.6344   21675382.2724
     -2198.7614      -1713.3194
  22140790.5974  -12189587.36848  -9252783.78347  22140789.0324   22140795.2814
     -2668.7134      -2079.5134
  23548851.6514   -7654744.41547  -5752853.08145  23548849.7694   23548857.8014
      2801.8504       2183.2574
  22799365.7014  -14544252.93948 -11135451.43646  22799364.1454   22799371.0954
      1581.3314       1232.2054
 00  7 15  1 10 30.0000000  0  6G20G22G25G11G16G 1
  21214482.3684  -20315680.68549 -15459007.20647  21214480.4974   21214485.1594
      1699.2254       1324.0714
  23036235.7534   -9591929.11547  -7462258.19145  23036233.2564   23036241.4934
      2686.5564       2093.4144
  21687960.6934  -16506472.13349 -11820236.52547  21687959.5064   21687964.1164
     -2210.2494      -1722.2724
  22156055.7734  -12109367.78248  -9190275.09047  22156054.3264   22156060.5424
     -2680.4414      -2088.6544
  23532862.1114   -7738774.05047  -5818330.66046  23532860.1484   23532866.9664
      2799.0434       2181.0714
  22790347.9154  -14591640.94948 -11172377.08946  22790346.4734   22790353.6284
      1576.7914       1228.6664
 00  7 15  1 11  0.0000000  0  6G20G22G25G11G16G 1
  21204828.3414  -20366411.03449 -15498537.32447  21204826.5844   21204831.2004
      1685.9064       1313.6924
  23020935.3444   -9672329.99847  -7524908.11945  23020933.6784   23020941.8334
      2676.4884       2085.5714
  21700627.8764  -16439907.91249 -11768368.32347  21700626.6864   21700630.9614
     -2224.2024      -1733.1434
  22171406.7574  -12028696.40348  -9127414.35847  22171405.4824   22171411.9764
     -2694.5774      -2099.6694
  23516906.5854   -7822618.25847  -5883663.77146  23516904.4444   23516911.7244
      2793.7034       2176.9104
  22781375.5674  -14638792.82748 -11209118.75146  22781373.9314   22781380.3184
      1569.8164       1223.2324
 00  7 15  1 11 30.0000000  0  6G20G22G25G11G16G 1
  21195216.6174  -20416921.19449 -15537895.86747  21195214.7594   21195219.2424
      1679.6264       1308.7994
  23005658.7974   -9752609.27647  -7587463.28945  23005656.9214   23005665.8014
      2673.5804       2083.3024
  21713339.4864  -16373107.57249 -11716316.13147  21713338.2614   21713342.8364
     -2230.9244      -1738.3824
  22186804.2894  -11947783.54148  -9064365.46347  22186802.7494   22186808.9944
     -2701.4634      -2105.0334
  23500947.3314   -7906482.47747  -5949012.45346  23500945.3964   23500952.8684
      2795.4544       2178.2804
  22772407.9654  -14685916.35048 -11245838.32746  22772406.5284   22772413.4164
      1569.9934       1223.3704
 00  7 15  1 12  0.0000000  0  7G20G19G22G25G11G16G 1
  21185655.1694  -20467165.44749 -15577047.21247  21185653.5524   21185658.0394
      1668.9294       1300.4644
  24960692.6824   -3992348.93557  -2639812.91645  24960691.8754   24960703.9054
      3069.0614       2391.4524
  22990414.0974   -9832720.25247  -7649887.31445  22990412.1154   22990421.4904
      2666.0964       2077.4724
  21726104.1354  -16306029.98849 -11664047.90947  21726102.8964   21726107.3624
     -2241.8914      -1746.9274
  22202255.2674  -11866588.77148  -9001096.89847  22202253.7054   22202260.3654
     -2712.5704      -2113.6874
  23484993.3434   -7990321.46548  -6014341.47946  23484991.6034   23484999.5134
      2792.7574       2176.1754
  22763454.0974  -14732968.25048 -11282502.08546  22763452.3934   22763459.3344
      1565.7854       1220.0904
 00  7 15  1 12 30.0000000  0  7G20G19G22G25G11G16G 1
  21176152.4454  -20517102.30049 -15615959.02347  21176150.9184   21176155.4334
      1659.8784       1293.4124
  24943176.1924   -4084396.10847  -2711537.63345  24943173.5964   24943188.3924
      3067.0904       2389.9344
  22975209.3824   -9912620.49247  -7712147.12145  22975207.3754   22975216.4414
      2660.1614       2072.8504
  21738928.7164  -16238637.72749 -11611534.48047  21738927.4084   21738932.0314
     -2251.1664      -1754.1554
  22217767.2044  -11785075.15548  -8937579.87947  22217765.6074   22217771.9814
     -2721.9724      -2121.0134
  23469051.6224   -8074093.98848  -6079618.70946  23469049.7714   23469057.9594
      2791.7894       2175.4164
  22754522.1034  -14779909.38548 -11319079.53946  22754520.4944   22754526.9554
      1563.3434       1218.1884
 00  7 15  1 13  0.0000000  0  7G20G19G22G25G11G16G 1
  21166710.1674  -20566721.83149 -15654623.57547  21166708.3544   21166713.4164
      1648.7674       1284.7534
  24925679.4814   -4176339.58547  -2783181.47545  24925677.5474   24925691.9844
      3063.1444       2386.8604
  22960046.5164   -9992298.90847  -7774234.07445  22960044.6914   22960053.5044
      2652.3224       2066.7394
  21751813.3604  -16170925.57549 -11558771.78947  21751812.1964   21751817.3324
     -2262.2434      -1762.7854
  22233340.0374  -11703238.03348  -8873810.77446  22233338.3604   22233344.8334
     -2733.1804      -2129.7484
  23453124.9924   -8157790.53048  -6144836.72646  23453122.8774   23453130.6784
      2788.7204       2173.0264
  22745611.2084  -14826732.33248 -11355564.91246  22745609.8094   22745616.4884
      1558.9344       1214.7514
 00  7 15  1 13 30.0000000  0  7G20G19G22G25G11G16G 1
  21157331.0804  -20616009.57049 -15693029.58847  21157329.4254   21157334.4964
      1636.5584       1275.2414
  24908207.3174   -4268165.14147  -2854733.52345  24908205.4574   24908219.2414
      3058.0074       2382.8494
  22944930.3114  -10071739.49047  -7836135.71845  22944928.5024   22944936.2784
      2643.1544       2059.5974
  21764761.4304  -16102882.87349 -11505751.53347  21764760.3244   21764765.4094
     -2274.3584      -1772.2274
  22248976.3294  -11621067.80548  -8809782.11346  22248974.9104   22248981.5324
     -2745.3664      -2139.2414
  23437215.4714   -8241396.81348  -6209984.42346  23437213.6384   23437220.3524
      2784.5724       2169.7954
  22736725.9624  -14873425.06848 -11391948.80646  22736724.6054   22736731.4624
      1553.4214       1210.4564
 00  7 15  1 14  0.0000000  0  7G20G19G22G25G11G16G 1
  21148026.3754  -20664907.89449 -15731132.15947  21148024.4704   21148029.5224
      1621.5554       1263.5504
  24890765.4224   -4359815.92747  -2926149.36245  24890763.2134   24890777.7054
      3050.1904       2376.7644
  22929869.2554  -10150883.35547  -7897806.16945  22929867.3024   22929875.5384
      2631.1964       2050.2784
  21777782.6364  -16034456.32249 -11452432.17147  21777781.3874   21777786.3404
     -2289.1374      -1783.7424
  22264686.5154  -11538512.03848  -8745453.03746  22264684.8364   22264691.3084
     -2760.1404      -2150.7564
  23421332.6974   -8324855.60648  -6275017.21646  23421331.7324   23421338.9514
      2777.6264       2164.3804
  22727876.0774  -14919932.35348 -11428188.18646  22727874.4724   22727881.9604
      1545.2874       1204.1174
 00  7 15  1 14 30.0000000  0  7G20G19G22G25G11G16G 1
  21138809.1124  -20713343.82249 -15768874.42447  21138807.4424   21138812.3914
      1608.5714       1253.4314
  24873370.4004   -4451219.70047  -2997372.76045  24873370.4364   24873383.4894
      3044.3614       2372.2164
  22914879.0214  -10229656.75647  -7959187.93946  22914877.0524   22914885.3164
      2621.1974       2042.4864
  21790889.9384  -15965577.31149 -11398760.24547  21790888.6414   21790893.5264
     -2301.7034      -1793.5334
  22280482.3804  -11455502.98048  -8680770.75146  22280481.0384   22280487.5224
     -2772.7784      -2160.6054
  23405494.0404   -8408094.15548  -6339878.36646  23405492.1604   23405499.4174
      2772.6824       2160.5294
  22719074.6774  -14966183.76848 -11464228.20546  22719073.2274   22719080.0464
      1539.1884       1199.3654
 00  7 15  1 15  0.0000000  0  7G20G19G22G25G11G16G 1
  21129645.5904  -20761497.76049 -15806396.95347  21129643.7884   21129649.0794
      1603.7154       1249.6484
  24855988.1754   -4542557.61347  -3068544.79645  24855986.8354   24856001.6014
      3046.7034       2374.0504
  22899925.1214  -10308239.31747  -8020420.99446  22899923.2034   22899931.9394
      2619.4724       2041.1444
  21804048.1314  -15896431.09449 -11344880.10247  21804046.9314   21804051.5364
     -2305.9784      -1796.8634
  22296329.8284  -11372225.97848  -8615879.68346  22296328.2474   22296335.1844
     -2777.0454      -2163.9294
  23389660.4974   -8491293.47848  -6404708.94846  23389659.3474   23389667.6424
      2775.9534       2163.0784
  22710287.0314  -15012362.09948 -11500211.26646  22710285.4444   22710292.6664
      1541.4014       1201.0904
 00  7 15  1 15 30.0000000  0  7G20G19G22G25G11G16G 1
  21120524.1894  -20809431.42849 -15843747.84747  21120522.3654   21120527.5464
      1590.3524       1239.2344
  24838608.8594   -4633891.73747  -3139713.87945  24838608.0104   24838621.3264
      3040.6524       2369.3214
  22884996.3254  -10386691.15748  -8081552.18246  22884994.6444   22885002.5094
      2609.0444       2033.0174
  21817244.2764  -15827083.20249 -11290842.81147  21817243.2134   21817248.0904
     -2318.6504      -1806.7414
  22312215.5404  -11288747.59448  -8550831.69646  22312213.8844   22312220.4144
     -2789.6934      -2173.7854
  23373824.4744   -8574515.30548  -6469557.04946  23373823.0394   23373830.7724
      2770.6764       2158.9684
  22701501.3704  -15058531.10248 -11536187.06946  22701499.8034   22701506.4004
      1535.0944       1196.1744
 00  7 15  1 16  0.0000000  0  7G20G19G22G25G11G16G 1
  21111488.4724  -20856914.90649 -15880747.94147  21111486.6054   21111491.6284
      1575.5084       1227.6694
  24821273.7184   -4724993.05547  -3210701.56345  24821271.8384   24821286.3494
      3033.0624       2363.4124
  22870137.0034  -10464781.12448  -8142401.40246  22870134.5334   22870142.9524
      2597.1154       2023.7224
  21830522.2184  -15757308.21049 -11236472.71347  21830521.1744   21830525.9414
     -2332.6604      -1817.6554
  22328181.5954  -11204843.27348  -8485451.80546  22328180.2644   22328186.9974
     -2803.6434      -2184.6524
  23358027.5054   -8657530.06548  -6534243.81146  23358025.7754   23358033.2714
      2763.9374       2153.7164
  22692760.7484  -15104463.72948 -11571978.68546  22692759.1824   22692765.5344
      1527.4024       1190.1814
 00  7 15  1 16 30.0000000  0  7G20G19G22G25G11G16G 1
  21102517.7254  -20904056.98849 -15917482.02047  21102515.8654   21102520.5694
      1565.2584       1219.6814
  24803959.8214   -4815971.26047  -3281593.27545  24803958.4004   24803972.0004
      3030.1074       2361.1074
  22855324.4294  -10542616.68348  -8203052.38946  22855322.8064   22855330.9804
      2589.7324       2017.9694
  21843859.8654  -15687219.31449 -11181858.01847  21843858.6644   21843863.4234
     -2341.9124      -1824.8664
  22344207.6564  -11120626.83748  -8419828.71546  22344206.0004   22344213.3364
     -2812.8494      -2191.8264
  23342248.6804   -8740446.91348  -6598854.30246  23342246.8534   23342254.2524
      2761.8024       2152.0554
  22684043.7874  -15150271.05048 -11607672.66146  22684042.3494   22684049.0994
      1524.4044       1187.8454
 00  7 15  1 17  0.0000000  0  7G20G19G22G25G11G16G 1
  21093616.9294  -20950830.90249 -15953929.21847  21093615.1164   21093619.5024
      1552.1234       1209.4474
  24786675.4584   -4906800.27347  -3352368.74445  24786673.8094   24786687.9254
      3024.3114       2356.5974
  22840566.4844  -10620170.19048  -8263483.57246  22840564.2104   22840573.2424
      2579.4714       2009.9764
  21857261.5244  -15616793.65649 -11126980.91347  21857260.1494   21857265.2054
     -2353.9434      -1834.2404
  22360296.6024  -11036076.47748  -8353945.43046  22360295.3594   22360302.3454
     -2824.7524      -2201.1024
  23326494.7794   -8823238.94048  -6663367.51146  23326492.7144   23326499.3654
      2756.8204       2148.1714
  22675355.5684  -15195928.65548 -11643249.98046  22675354.0764   22675360.4924
      1518.5754       1183.3074
 00  7 15  1 17 30.0000000  0  7G20G19G22G25G11G16G 1
  21084783.3264  -20997252.03549 -15990101.52147  21084781.4244   21084786.2034
      1544.0244       1203.1344
  24769415.6044   -4997496.20747  -3423040.57645  24769414.8874   24769427.9514
      3023.5274       2355.9924
  22825859.7694  -10697456.25448  -8323706.38746  22825857.5544   22825865.4914
      2574.2644       2005.9194
  21870723.3454  -15546051.04449 -11071856.82847  21870722.1144   21870727.1884
     -2360.7804      -1839.5694
  22376446.2384  -10951212.72448  -8287817.93146  22376444.6184   22376451.2924
     -2831.4524      -2206.3244
  23310759.6974   -8905922.18548  -6727795.95446  23310757.4934   23310764.8274
      2756.8414       2148.1894
  22666691.7054  -15241454.48448 -11678724.60946  22666690.2134   22666697.1314
      1517.8944       1182.7714
 00  7 15  1 18  0.0000000  0  7G20G19G22G25G11G16G 1
  21075998.0784  -21043417.71849 -16026074.76647  21075996.2884   21076001.3704
      1532.7854       1194.3794
  24752163.5084   -5088156.72947  -3493684.82545  24752162.7954   24752175.8084
      3019.6224       2352.9424
  22811184.4744  -10774570.57048  -8383795.35046  22811182.5174   22811191.5074
      2565.7934       1999.3154
  21884225.8944  -15475093.27349 -11016565.09147  21884224.7634   21884229.9524
     -2370.5734      -1847.1994
  22392635.5184  -10866137.91848  -8221525.97746  22392634.1754   22392640.7134
     -2841.1174      -2213.8544
  23295027.6524   -8988594.09448  -6792215.55946  23295026.1904   23295033.1514
      2753.7424       2145.7674
  22658035.0894  -15286948.15048 -11714174.18046  22658033.5434   22658040.3164
      1514.1594       1179.8644
 00  7 15  1 18 30.0000000  0  7G20G19G22G25G11G16G 1
  21067277.0404  -21089245.09649 -16061784.39447  21067275.2674   21067280.9934
      1520.4944       1184.8004
  24734934.4184   -5178700.18047  -3564237.87145  24734933.0564   24734944.8104
      3014.7334       2349.1274
  22796559.0874  -10851429.05948  -8443684.96846  22796557.3154   22796565.6324
      2556.1964       1991.8394
  21897784.8474  -15403842.05749 -10961044.69647  21897783.6934   21897788.5464
     -2381.2984      -1855.5554
  22408880.2744  -10780774.34848  -8155009.01046  22408878.4984   22408885.3104
     -2851.6614      -2222.0704
  23279314.3614   -9071172.08748  -6856561.98646  23279312.2304   23279319.3674
      2749.6374       2142.5714
  22649399.1064  -15332329.32548 -11749536.09246  22649397.6694   22649404.8544
      1509.4424       1176.1874
 00  7 15  1 19  0.0000000  0  7G20G19G22G25G11G16G 1
  21058637.5664  -21134644.62949 -16097160.64347  21058635.7974   21058641.9494
      1509.0334       1175.8714
  24717742.6514   -5269037.69847  -3634630.38845  24717741.4774   24717755.0004
      3010.7634       2346.0304
  22781999.1444  -10927941.05748  -8503304.60446  22781997.1984   22782005.8064
      2547.4254       1985.0004
  21911415.5734  -15332211.95249 -10905229.06347  21911414.3404   21911419.4744
     -2391.0524      -1863.1564
  22425194.9354  -10695037.67548  -8088201.31846  22425193.6244   22425200.2404
     -2861.2394      -2229.5344
  23263635.3524   -9153566.70748  -6920765.52346  23263633.1594   23263639.6434
      2746.3174       2139.9854
  22640801.7824  -15377510.78648 -11784742.38846  22640799.9754   22640807.2254
      1505.5934       1173.1884
 00  7 15  1 19 30.0000000  0  7G20G19G22G25G11G16G 1
  21050048.3284  -21179781.68849 -16132332.36147  21050046.5854   21050052.6224
      1497.5374       1166.9114
  24700559.6344   -5359335.18947  -3704991.67145  24700558.4104   24700572.9004
      3006.5524       2342.7524
  22767474.1264  -11004270.99448  -8562782.36646  22767472.3444   22767480.7424
      2538.6064       1978.1294
  21925086.1904  -15260372.60949 -10849250.39247  21925084.9694   21925089.8194
     -2400.7364      -1870.7024
  22441548.4904  -10609098.11248  -8021235.53046  22441546.9974   22441553.9984
     -2870.6504      -2236.8664
  23247958.5674   -9235943.73048  -6984955.35546  23247956.7694   23247963.7734
      2742.9584       2137.3664
  22632210.0744  -15422659.98248 -11819923.54246  22632208.2214   22632215.0644
      1501.8274       1170.2494
 00  7 15  1 20  0.0000000  0  7G20G19G22G25G11G16G 1
  21041537.0434  -21224510.31149 -16167185.82247  21041535.1674   21041540.7284
      1483.7194       1156.1464
  24683411.5044   -5449447.19447  -3775208.48245  24683410.5674   24683422.6164
      3000.2264       2337.8224
  22753011.6414  -11080271.81848  -8622003.67546  22753009.5394   22753017.5624
      2527.3494       1969.3564
  21938823.6084  -15188182.28449 -10792998.22447  21938822.3774   21938827.1144
     -2412.5584      -1879.9134
  22457967.8054  -10522814.91748  -7954001.97946  22457966.3514   22457973.3324
     -2882.2374      -2245.8944
  23232313.8854   -9318157.02048  -7049017.58646  23232312.3774   23232319.2814
      2737.3144       2132.9734
  22623651.6994  -15467633.49148 -11854967.80046  22623650.2964   22623656.3824
      1495.7914       1165.5514
 00  7 15  1 20 30.0000000  0  7G20G19G22G25G11G16G 1
  21033097.2744  -21268862.43849 -16201745.90747  21033095.4504   21033100.6154
      1471.2164       1146.4034
  24666293.2864   -5539406.51947  -3845306.33445  24666291.5504   24666304.6334
      2995.1904       2333.9054
  22738606.0614  -11155973.91248  -8680992.21746  22738604.2494   22738611.6854
      2517.4584       1961.6554
  21952620.4564  -15115677.05649 -10736500.67947  21952619.3894   21952624.7704
     -2422.9474      -1888.0104
  22474445.3274  -10436225.01748  -7886529.42246  22474444.0284   22474450.7134
     -2892.3094      -2253.7424
  23216694.1174   -9400238.96148  -7112977.48246  23216692.1544   23216699.4424
      2732.9514       2129.5714
  22615120.3624  -15512465.72548 -11889901.97446  22615118.7404   22615125.4784
      1491.1864       1161.9634
 00  7 15  1 21  0.0000000  0  7G20G19G22G25G11G16G 1
  21024733.0614  -21312818.28549 -16235997.20747  21024731.3154   21024735.8404
      1461.4494       1138.7934
  24649206.4294   -5629194.28747  -3915270.53645  24649205.3444   24649217.5934
      2992.9234       2332.1414
  22724261.2934  -11231356.45948  -8739731.76346  22724259.2884   22724267.0584
      2510.1464       1955.9554
  21966481.2324  -15042841.86349 -10679746.03247  21966479.9484   21966485.0524
     -2430.4264      -1893.8374
  22490984.1564  -10349313.94748  -7818806.60946  22490982.8674   22490989.9304
     -2899.5354      -2259.3754
  23201103.3674   -9482169.73248  -7176819.59546  23201101.4344   23201108.8894
      2731.3714       2128.3414
  22606619.1334  -15557139.46448 -11924712.65546  22606617.6414   22606624.1044
      1489.3574       1160.5384
 00  7 15  1 21 30.0000000  0  7G20G19G22G25G11G16G 1
  21016430.6854  -21356446.83849 -16269993.48247  21016428.9444   21016433.3544
      1445.7974       1126.5964
  24632139.9224   -5718880.17747  -3985155.39045  24632138.4324   24632150.7294
      2984.8144       2325.8204
  22709964.6904  -11306487.28548  -8798275.16946  22709962.2624   22709969.9734
      2497.0914       1945.7834
  21980390.0134  -14969750.16149 -10622791.50147  21980389.0024   21980393.9914
     -2443.6264      -1904.1214
  22507569.9874  -10262155.66548  -7750891.17646  22507568.7114   22507575.9104
     -2912.4014      -2269.4004
  23185527.5564   -9564018.83448  -7240598.03246  23185525.7104   23185534.3604
      2723.8954       2122.5134
  22598134.4344  -15601725.98748 -11959455.37946  22598132.9024   22598139.0084
      1481.7874       1154.6404
 00  7 15  1 22  0.0000000  0  7G20G19G22G25G11G16G 1
  21008206.7654  -21399664.80249 -16303669.81947  21008205.0364   21008209.0604
      1435.0684       1118.2364
  24615107.4024   -5808381.34847  -4054896.22945  24615106.1574   24615119.4854
      2981.5764       2323.2884
  22695730.8854  -11381282.16848  -8856556.79746  22695729.2664   22695737.2874
      2488.8294       1939.3414
  21994362.8054  -14896322.50749 -10565575.19347  21994361.6634   21994366.7914
     -2451.8154      -1910.5044
  22524217.6244  -10174672.21448  -7682722.37546  22524216.1494   22524223.7414
     -2920.2174      -2275.4914
  23169983.3404   -9645702.78248  -7304247.78646  23169982.0374   23169990.0014
      2721.3714       2120.5444
  22589682.0594  -15646144.13048 -11994066.89546  22589680.5604   22589686.7754
      1479.1224       1152.5624
 00  7 15  1 22 30.0000000  0  7G20G19G22G25G11G16G 1
  21000039.2994  -21442583.38549 -16337112.87047  21000037.5694   21000041.8704
      1424.2724       1109.8214
  24598089.4674   -5897809.67047  -4124580.31345  24598088.5994   24598101.1464
      2978.3724       2320.8064
  22681540.8694  -11455851.20948  -8914662.43146  22681538.8554   22681547.2804
      2480.4434       1932.8094
  22008377.7614  -14822674.53849 -10508187.20747  22008376.5154   22008381.2984
     -2459.9094      -1916.8124
  22540904.9494  -10086979.61048  -7614390.59346  22540903.5864   22540911.0244
     -2927.9044      -2281.4814
  23154449.6604   -9727332.88448  -7367855.61146  23154448.2654   23154455.0984
      2718.7714       2118.5224
  22581239.5194  -15690507.64048 -12028635.83046  22581238.1304   22581244.8414
      1476.5754       1150.5764
 00  7 15  1 23  0.0000000  0  7G20G19G22G25G11G16G 1
  20991951.8934  -21485081.39049 -16370228.19047  20991950.2304   20991954.8664
      1408.0904       1097.2124
  24581108.7284   -5987044.75947  -4194113.83845  24581107.8144   24581120.2024
      2969.7844       2314.1054
  22667417.1094  -11530071.75148  -8972496.51246  22667415.0064   22667423.1304
      2466.6434       1922.0574
  22022456.1094  -14748689.45649 -10450536.53047  22022455.0264   22022459.7694
     -2473.2284      -1927.1884
  22557654.6064   -9998961.91748  -7545805.48246  22557653.1804   22557660.0894
     -2940.8104      -2291.5394
  23138950.0324   -9808788.36848  -7431327.37546  23138948.0004   23138954.4994
      2710.7734       2112.2904
  22572830.8764  -15734697.67848 -12063069.59746  22572829.3384   22572835.8964
      1468.6444       1144.3984
 00  7 15  1 23 30.0000000  0  7G20G19G22G25G11G16G 1
  20983960.8264  -21527074.02649 -16402949.70847  20983959.1414   20983964.3014
      1391.7734       1084.4964
  24564180.4764   -6076002.84147  -4263431.54645  24564179.9284   24564190.4504
      2961.0814       2307.3264
  22653375.8734  -11603857.70148  -9029991.96046  22653373.7084   22653382.0154
      2452.6864       1911.1814
  22036614.6154  -14674286.58449 -10392560.30547  22036613.5714   22036618.2624
     -2486.5664      -1937.5844
  22574480.4274   -9910539.34248  -7476904.87646  22574479.1744   22574486.4354
     -2953.7044      -2301.5854
  23123498.8664   -9889984.34348  -7494596.92146  23123497.1224   23123503.8674
      2702.6314       2105.9464
  22564470.8114  -15778631.69048 -12097303.86046  22564469.3084   22564475.6994
      1460.6754       1138.1874
 00  7 15  1 24  0.0000000  0  7G20G19G22G25G11G16G 1
  20976054.8224  -21568620.62749 -16435323.67147  20976052.9104   20976058.4424
      1379.0964       1074.6214
  24547293.8734   -6164744.05447  -4332580.27345  24547291.9394   24547304.1384
      2956.0744       2303.4294
  22639406.4304  -11677267.59948  -9087194.37746  22639404.4054   22639412.5704
      2442.2794       1903.0744
  22050840.3214  -14599529.89149 -10334308.37747  22050839.0164   22050844.1674
     -2496.0844      -1944.9994
  22591371.8814   -9821776.43948  -7407739.07946  22591370.4654   22591377.0824
     -2962.7704      -2308.6474
  23108085.4374   -9970980.46548  -7557710.72946  23108083.6554   23108090.8004
      2698.1664       2102.4654
  22556147.3754  -15822371.51848 -12131386.81146  22556145.6154   22556152.3824
      1456.4254       1134.8764
 00  7 15  1 24 30.0000000  0  7G20G19G22G25G11G16G 1
  20968223.8754  -21609771.85149 -16467389.54547  20968222.2274   20968227.8174
      1363.7524       1062.6644
  24530437.3504   -6253319.05447  -4401599.41745  24530436.2834   24530449.0424
      2948.4014       2297.4504
  22625498.9774  -11750350.98648  -9144142.39346  22625496.8894   22625504.9904
      2429.2304       1892.9034
  22065122.8644  -14524473.78749 -10275823.14047  22065121.9164   22065126.9994
     -2508.1674      -1954.4154
  22608317.1544   -9732728.87048  -7338351.47246  22608315.5794   22608322.8694
     -2974.3044      -2317.6354
  23092700.5974  -10051826.97448  -7620707.94346  23092699.0884   23092706.4764
      2691.0444       2096.9164
  22547850.7834  -15865970.00748 -12165359.62246  22547849.3294   22547855.9614
      1449.5904       1129.5504
 00  7 15  1 25  0.0000000  0  7G20G19G22G25G11G16G 1
  20960473.1894  -21650500.23949 -16499125.93047  20960471.8314   20960477.8774
      1351.1474       1052.8414
  24513619.7044   -6341701.54847  -4470468.57345  24513618.5294   24513630.5294
      2943.4354       2293.5734
  22611658.9864  -11823079.47548  -9200813.85646  22611657.2454   22611665.9054
      2418.8834       1884.8404
  22079467.3804  -14449095.42849 -10217086.79647  22079466.3094   22079471.3974
     -2517.3404      -1961.5624
  22625320.5124   -9643374.38948  -7268724.71946  22625319.3724   22625326.4514
     -2982.9904      -2324.4064
  23077349.6724  -10132497.07348  -7683567.71446  23077348.1294   23077355.3494
      2686.6684       2093.5064
  22539586.0994  -15909402.19948 -12199202.85346  22539584.3994   22539590.9564
      1445.5994       1126.4404
 00  7 15  1 25 30.0000000  0  7G20G19G22G25G11G16G 1
  20952795.8424  -21690850.62349 -16530567.77047  20952793.9264   20952799.4814
      1338.8624       1043.2684
  24496829.2324   -6429937.05347  -4539223.21745  24496828.3274   24496839.3454
      2938.8714       2290.0264
  22597878.5064  -11895495.95948  -9257242.18546  22597876.5484   22597885.1914
      2408.7814       1876.9694
  22093863.5934  -14373443.68649 -10158137.42747  22093862.2514   22093867.7644
     -2526.0604      -1968.3574
  22642373.7704   -9553762.80148  -7198897.61846  22642372.1094   22642379.3104
     -2991.1704      -2330.7774
  23062024.2634  -10213035.06048  -7746324.52746  23062022.1024   23062029.5744
      2682.5394       2090.2894
  22531343.5674  -15952714.83348 -12232952.92746  22531342.1334   22531348.4974
      1441.9294       1123.5794
 00  7 15  1 26  0.0000000  0  7G20G19G22G25G11G16G 1
  20945198.9054  -21730770.78849 -16561674.37047  20945197.2294   20945202.7454
      1322.9034       1030.8314
  24480074.6864   -6517974.28047  -4607823.33345  24480073.3874   24480086.3074
      2930.7034       2283.6514
  22584167.4554  -11967547.05048  -9313385.80246  22584165.9114   22584173.9314
      2394.9624       1866.2014
  22108320.4324  -14297471.02549 -10098938.00447  22108319.4124   22108324.8944
     -2538.2904      -1977.8874
  22659483.8174   -9463846.99548  -7128833.45546  22659482.4614   22659489.5704
     -3002.8004      -2339.8424
  23046733.2534  -10293389.17048  -7808938.07346  23046731.4644   23046737.9474
      2674.8204       2084.2734
  22523133.3344  -15995858.20048 -12266571.10746  22523131.8594   22523138.6714
      1434.7174       1117.9604
 00  7 15  1 26 30.0000000  0  7G20G19G22G25G11G16G 1
  20937702.3104  -21770167.83249 -16592373.35347  20937700.3404   20937705.5144
      1305.3204       1017.1344
  24463376.3174   -6605720.94947  -4676197.04045  24463376.4394   24463386.6914
      2920.8134       2275.9564
  22570544.2134  -12039139.08848  -9369171.71846  22570542.3244   22570550.6114
      2379.4954       1854.1514
  22122855.4504  -14221088.56949 -10039419.25347  22122854.6044   22122859.4884
     -2552.0484      -1988.6074
  22676668.7094   -9373539.37248  -7058463.98646  22676667.4754   22676674.6214
     -3015.9404      -2350.0784
  23031495.3804  -10373466.16148  -7871335.69346  23031493.2414   23031499.8624
      2665.4254       2076.9564
  22514972.5174  -16038741.79048 -12299986.85746  22514971.0084   22514978.0474
      1425.9664       1111.1414
 00  7 15  1 27  0.0000000  0  7G20G19G22G25G11G16G 1
  20930297.1654  -21809080.67949 -16622695.04147  20930295.4874   20930300.3564
      1288.1354       1003.7404
  24446727.3764   -6693216.66547  -4744375.24845  24446725.9854   24446736.8774
      2911.4544       2268.6584
  22557001.3834  -12110310.26748  -9424629.68846  22556999.2134   22557006.3984
      2364.3884       1842.3764
  22137460.7254  -14144339.46149  -9979614.79747  22137459.4634   22137464.4494
     -2565.2554      -1998.9004
  22693919.8174   -9282883.86748  -6987823.43746  22693918.3714   22693925.9844
     -3028.5164      -2359.8804
  23016302.0004  -10453305.63048  -7933548.22646  23016299.6464   23016307.0774
      2656.4604       2069.9684
  22506854.2384  -16081406.88248 -12333232.35346  22506852.2744   22506858.9824
      1417.6614       1104.6694
 00  7 15  1 27 30.0000000  0  7G20G19G22G25G11G16G 1
  20922975.5864  -21847553.89949 -16652674.15747  20922974.1924   20922978.9514
      1277.4524        995.4174
  24430116.3134   -6780506.87747  -4812393.34745  24430115.1384   24430126.7074
      2908.6434       2266.4694
  22543529.6474  -12181103.83548  -9479793.42746  22543527.5744   22543535.2584
      2355.7914       1835.6794
  22152125.8124  -14067272.60049  -9919562.74247  22152124.6544   22152129.6864
     -2571.7694      -2003.9754
  22711228.2974   -9191930.21048  -6916950.56746  22711226.8914   22711234.1034
     -3034.3904      -2364.4564
  23001144.7924  -10532951.70148  -7995610.03546  23001143.2614   23001150.7364
      2654.0024       2068.0524
  22498767.7714  -16123900.35348 -12366344.10946  22498766.2594   22498772.9584
      1415.9424       1103.3314
 00  7 15  1 28  0.0000000  0  7G20G19G22G25G11G16G 1
  20915717.3964  -21885696.41049 -16682395.58247  20915715.6624   20915720.2884
      1264.7924        985.5514
  24413522.8824   -6867701.14147  -4880336.63845  24413522.1884   24413534.0964
      2903.7694       2262.6564
  22530109.1654  -12251626.98648  -9534746.45546  22530107.0974   22530115.0404
      2345.1354       1827.3744
  22166830.4214  -13990000.80349  -9859350.99047  22166829.3294   22166834.0584
     -2580.1834      -2010.5314
  22728571.5594   -9100792.36048  -6845934.16446  22728570.2444   22728577.3024
     -3042.0744      -2370.4454
  22986005.7634  -10612513.43048  -8057606.14746  22986003.5514   22986010.5734
      2649.5444       2064.5774
  22490693.2634  -16166333.18948 -12399408.62146  22490691.5714   22490697.6854
      1412.3674       1100.5444
 00  7 15  1 28 30.0000000  0  7G20G19G22G25G11G16G 1
  20908522.7364  -21923504.43749 -16711856.37847  20908521.0174   20908525.6124
      1254.2394        977.3294
  24396948.4584   -6954796.39347  -4948202.73145  24396946.7114   24396959.6794
      2901.1184       2260.6034
  22516741.1334  -12321874.64148  -9589484.80346  22516739.0694   22516747.1584
      2336.4904       1820.6404
  22181573.5454  -13912524.73649  -9798980.06947  22181572.3744   22181577.8634
     -2586.3814      -2015.3604
  22745949.4184   -9009471.37548  -6774775.06846  22745947.8594   22745955.3404
     -3047.5374      -2374.6994
  22970882.0114  -10691986.65248  -8119533.28746  22970880.4754   22970887.9264
      2647.1804       2062.7394
  22482629.7754  -16208703.87448 -12432424.71746  22482628.6714   22482634.7364
      1410.8914       1099.3944
 00  7 15  1 29  0.0000000  0  7G20G19G22G25G11G16G 1
  20901401.2044  -21960928.93849 -16741018.31847  20901399.2374   20901404.1344
      1241.5654        967.4534
  24380403.6324   -7041744.27647  -5015954.01945  24380401.9924   24380414.1854
      2896.3164       2256.8584
  22503435.0134  -12391797.19948  -9643969.83146  22503433.2314   22503441.5224
      2325.7644       1812.2814
  22196363.9974  -13834799.97649  -9738415.36547  22196362.9754   22196368.3744
     -2594.4834      -2021.6734
  22763370.0894   -8917923.64048  -6703439.28846  22763368.7824   22763376.0694
     -3054.8824      -2380.4244
  22955784.8204  -10771322.66648  -8181353.51046  22955783.3364   22955790.1314
      2642.7424       2059.2764
  22474588.2364  -16250965.69748 -12465355.98046  22474586.6194   22474592.8994
      1407.4634       1096.7234
 00  7 15  1 29 30.0000000  0  7G20G19G22G25G11G16G 1
  20894352.1054  -21997971.11649 -16769882.34647  20894350.4224   20894355.3824
      1226.6264        955.8124
  24363885.8704   -7128546.67347  -5083592.02845  24363884.4964   24363894.7064
      2889.2744       2251.3784
  22490191.5234  -12461394.84148  -9698201.68146  22490189.4774   22490197.5444
      2312.7294       1802.1224
  22211200.9914  -13756831.59649  -9677660.82947  22211199.7474   22211205.0744
     -2604.6764      -2029.6164
  22780832.7954   -8826155.25048  -6631931.57446  22780831.5204   22780838.9534
     -3064.3254      -2387.7824
  22940713.9544  -10850522.50448  -8243067.64046  22940712.1714   22940718.2114
      2636.0214       2054.0414
  22466566.0794  -16293122.19148 -12498205.16146  22466564.4754   22466571.0214
      1401.7404       1092.2634
 00  7 15  1 30  0.0010000  0  7G20G19G22G25G11G16G 1
  20887397.9114  -22034518.36549 -16798360.71347  20887395.9454   20887400.7564
      1212.7124        944.9704
  24347417.1104   -7215093.37547  -5151030.83045  24347415.8364   24347425.3854
      2883.2914       2246.7104
  22477030.6864  -12530554.81748  -9752092.49846  22477028.8274   22477036.5204
      2300.6494       1792.7124
  22226105.5374  -13678507.38549  -9616629.01947  22226104.3124   22226109.8424
     -2613.7204      -2036.6644
  22798359.6064   -8734054.59048  -6560164.93846  22798358.2084   22798365.4214
     -3072.5794      -2394.2134
  22925689.7774  -10929475.02548  -8304589.04446  22925687.9234   22925694.8844
      2630.2814       2049.5684
  22458584.7314  -16335063.27248 -12530886.48146  22458583.1744   22458589.9454
      1397.1504       1088.6854
 00  7 15  1 30 30.0010000  0  7G20G19G22G25G11G16G 1
  20880520.0164  -22070657.87049 -16826521.36047  20880518.5494   20880523.5924
      1197.5114        933.1284
  24330979.2874   -7301468.95047  -5218336.20745  24330977.3864   24330989.6984
      2875.9574       2240.9924
  22463937.4614  -12599360.41548  -9805707.18646  22463935.3594   22463943.3614
      2287.1674       1782.2054
  22241059.4594  -13599926.40749  -9555397.12847  22241058.2714   22241063.1064
     -2624.0124      -2044.6834
  22815929.9694   -8641722.46448  -6488217.94346  22815928.4524   22815935.7064
     -3082.0204      -2401.5704
  22910696.8214  -11008264.28648  -8365983.22946  22910694.5504   22910701.8394
      2623.2414       2044.0844
  22450627.2454  -16376877.67848 -12563469.10446  22450625.9754   22450632.6834
      1391.3844       1084.1944
 00  7 15  1 31  0.0010000  0  7G20G19G22G25G11G16G 1
  20873721.2924  -22106387.16749 -16854362.36547  20873719.5724   20873724.7034
      1184.8174        923.2344
  24314574.2054   -7387673.55347  -5285508.33845  24314573.3074   24314585.3214
      2871.3444       2237.3984
  22450911.2814  -12667809.34448  -9859043.93746  22450909.8454   22450917.4174
      2276.3464       1773.7744
  22256062.2654  -13521086.58449  -9493963.53047  22256061.0934   22256065.6584
     -2631.5534      -2050.5604
  22833544.7504   -8549157.10148  -6416089.19946  22833543.1734   22833550.3134
     -3088.6754      -2406.7574
  22895734.3274  -11086889.62848  -8427249.66946  22895732.5234   22895740.2814
      2618.7874       2040.6084
  22442694.7044  -16418565.58148 -12595953.14246  22442693.1944   22442699.8214
      1388.2184       1081.7274
 00  7 15  1 31 30.0010000  0  7G20G19G22G25G11G16G 1
  20867001.5324  -22141697.93649 -16881877.24347  20866999.9684   20867005.2854
      1168.6574        910.6414
  24298204.7474   -7473699.41847  -5352541.21145  24298203.5244   24298214.4994
      2863.2024       2231.0584
  22437955.4204  -12735892.20648  -9912095.44146  22437953.5144   22437961.5624
      2261.9044       1762.5194
  22271114.6194  -13441983.66049  -9432324.92147  22271113.4474   22271118.4064
     -2642.4824      -2059.0754
  22851204.3824   -8456355.22348  -6343776.16846  22851202.9034   22851210.2644
     -3098.6774      -2414.5474
  22880805.8424  -11165342.28848  -8488381.58346  22880803.9634   22880810.0904
      2610.8504       2034.4294
  22434786.6974  -16460120.63748 -12628333.66546  22434785.3874   22434792.1204
      1381.6154       1076.5824
 00  7 15  1 32  0.0010000  0  7G20G19G22G25G11G16G 1
  20860368.7324  -22176555.14149 -16909038.69647  20860367.0464   20860371.9914
      1153.9914        899.2134
  24281874.7424   -7559512.23647  -5419408.13545  24281873.4814   24281883.8044
      2856.5314       2225.8574
  22425076.8944  -12803573.18748  -9964833.79346  22425074.9154   22425082.1454
      2248.8954       1752.3834
  22286223.1844  -13362587.29549  -9370457.65847  22286222.0724   22286227.4064
     -2651.7364      -2066.2874
  22868914.6444   -8363287.01348  -6271255.60846  22868913.1204   22868920.3134
     -3107.0504      -2421.0754
  22865915.4564  -11243586.92348  -8549351.39646  22865913.7464   22865921.2544
      2604.3424       2029.3564
  22426910.3404  -16501510.23848 -12660585.26446  22426909.0384   22426915.6834
      1376.6044       1072.6764
 00  7 15  1 32 30.0010000  0  7G20G19G22G25G11G16G 1
  20853809.7034  -22211022.92349 -16935896.70447  20853808.1084   20853812.9394
      1142.8564        890.5374
  24265573.1144   -7645176.87147  -5486159.59945  24265571.6614   24265582.7724
      2853.4854       2223.4824
  22412261.9414  -12870914.88748 -10017307.77946  22412260.1384   22412267.5584
      2239.4364       1745.0144
  22301374.6974  -13282965.24549  -9308414.54247  22301373.6644   22301379.4864
     -2657.3464      -2070.6584
  22886662.9614   -8270021.47548  -6198581.27946  22886661.4864   22886668.2814
     -3111.6754      -2424.6794
  22851053.5104  -11321687.75148  -8610209.12746  22851051.7644   22851059.3424
      2601.4134       2027.0714
  22419053.3844  -16542800.53348 -12692759.48146  22419051.9164   22419058.0674
      1375.1574       1071.5504
 00  7 15  1 33  0.0010000  0  7G20G19G22G25G11G16G 1
  20847333.0014  -22245059.23749 -16962418.50947  20847331.2614   20847336.2224
      1126.3144        877.6484
  24249306.9874   -7730652.15247  -5552763.52145  24249306.2144   24249316.3094
      2845.0034       2216.8794
  22399520.4734  -12937873.81348 -10069483.49046  22399518.3074   22399525.6924
      2224.4884       1733.3654
  22316576.6844  -13203079.93549  -9246166.29547  22316575.5654   22316581.1774
     -2668.2114      -2079.1244
  22904454.9454   -8176521.61948  -6125724.35746  22904453.8564   22904461.0154
     -3121.5614      -2432.3814
  22836227.0144  -11399602.51748  -8670921.89246  22836225.1374   22836231.7274
      2593.0454       2020.5514
  22411222.6594  -16583951.62648 -12724825.23246  22411221.2824   22411227.5714
      1368.3794       1066.2694
 00  7 15  1 33 30.0010000  0  7G20G19G22G25G11G16G 1
  20840943.0104  -22278636.64149 -16988582.71947  20840941.6924   20840946.5244
      1113.6954        867.8154
  24233082.8714   -7815911.14247  -5619198.85345  24233081.5454   24233092.9644
      2840.4394       2213.3244
  22386856.6104  -13004421.51048 -10121338.76646  22386854.8964   22386862.1624
      2213.4594       1724.7724
  22331833.2614  -13122907.98849  -9183694.68047  22331832.0434   22331837.3514
     -2675.0154      -2084.4264
  22922296.5304   -8082765.12848  -6052667.47046  22922294.8324   22922302.5554
     -3127.3604      -2436.9014
  22821440.7964  -11477303.64748  -8731468.18546  22821439.1964   22821446.4224
      2588.5904       2017.0844
  22403423.1184  -16624938.46948 -12756762.99746  22403421.7484   22403427.9714
      1365.6394       1064.1354
 00  7 15  1 34  0.0010000  0  7G20G19G22G25G11G16G 1
  20834609.8234  -22311920.83049 -17014518.44847  20834608.0574   20834612.7624
      1103.2804        859.6994
  24216868.7454   -7901120.33447  -5685595.40546  24216867.0354   24216877.9674
      2838.1554       2211.5454
  22374239.5874  -13070722.92548 -10173002.13546  22374237.6144   22374245.3084
      2204.5514       1717.8314
  22347111.2234  -13042619.26249  -9121132.07747  22347110.1214   22347115.8234
     -2679.4874      -2087.9104
  22940153.6684   -7988922.73248  -5979543.64046  22940152.8364   22940160.4594
     -3130.7704      -2439.5584
  22806664.3234  -11554956.73748  -8791977.04246  22806662.6164   22806670.0384
      2586.3374       2015.3294
  22395622.8224  -16665928.94148 -12788703.59546  22395621.3954   22395627.5174
      1365.1584       1063.7594
 00  7 15  1 34 30.0010000  0  7G20G19G22G25G11G16G 1
  20828346.9734  -22344832.12049 -17040163.61147  20828345.3944   20828349.8774
      1089.7204        849.1334
  24200678.1114   -7986200.65747  -5751891.57145  24200676.9064   24200687.1954
      2832.7794       2207.3554
  22361685.3004  -13136697.30648 -10224410.67346  22361683.3284   22361691.1114
      2192.4874       1708.4304
  22362426.4124  -12962138.04348  -9058419.47247  22362425.2094   22362430.0794
     -2686.9394      -2093.7184
  22958041.7094   -7894919.74948  -5906294.70346  22958040.7184   22958049.1764
     -3137.2064      -2444.5714
  22791911.5604  -11632482.03848  -8852386.32746  22791909.5414   22791916.6604
      2580.9434       2011.1244
  22387836.9274  -16706845.29748 -12820586.44346  22387835.3424   22387841.3074
      1361.5724       1060.9644
 00  7 15  1 35  0.0010000  0  7G20G19G22G25G11G16G 1
  20822171.4864  -22377286.24649 -17065452.54047  20822169.7224   20822174.3554
      1073.9914        836.8774
  24184527.7414   -8071068.76747  -5818022.36445  24184525.8224   24184536.7834
      2825.1754       2201.4284
  22349209.1124  -13202258.93448 -10275497.58046  22349207.0334   22349214.8964
      2178.2654       1697.3464
  22377793.5754  -12881384.55248  -8995494.69447  22377792.1814   22377797.1584
     -2696.4564      -2101.1334
  22975976.4874   -7800677.45348  -5832859.28546  22975975.1374   22975982.4764
     -3145.5974      -2451.1074
  22777199.1134  -11709794.87048  -8912630.05246  22777197.3264   22777204.6334
      2573.3404       2005.2004
  22380080.1124  -16747605.68548 -12852347.75047  22380078.6644   22380085.2014
      1355.9134       1056.5534
 00  7 15  1 35 30.0010000  0  7G20G19G22G25G11G16G 1
  20816086.9224  -22409259.59149 -17090366.83347  20816085.3574   20816090.1764
      1059.1974        825.3494
  24168421.7034   -8155701.85747  -5883970.03345  24168420.4734   24168431.3154
      2818.6454       2196.3394
  22336816.4254  -13267382.62748 -10326243.23846  22336814.6004   22336822.3404
      2164.8964       1686.9294
  22393215.5104  -12800339.05848  -8932342.39747  22393214.3314   22393219.9454
     -2704.8744      -2107.6924
  22993959.4594   -7706176.59548  -5759222.37346  22993957.9694   22993964.8814
     -3152.8604      -2456.7734
  22762531.7924  -11786871.38548  -8972689.63546  22762530.2854   22762537.1644
      2566.7504       2000.0654
  22372357.2694  -16788188.31548 -12883970.54446  22372355.9084   22372362.3084
      1351.2584       1052.9264
 00  7 15  1 36  0.0010000  0  7G20G19G22G25G11G16G 1
  20810087.7474  -22440787.48549 -17114934.02947  20810085.7644   20810090.6674
      1042.3234        812.2014
  24152355.9374   -8240135.78747  -5949762.51745  24152354.2984   24152364.2994
      2809.9604       2189.5734
  22324500.0784  -13332102.83248 -10376674.49146  22324498.4604   22324506.5504
      2149.3814       1674.8414
  22408686.4864  -12719041.01349  -8868993.30947  22408685.4894   22408690.9644
     -2715.2894      -2115.8084
  23011983.8464   -7611457.56448  -5685415.46346  23011982.7074   23011989.8784
     -3162.0754      -2463.9514
  22747903.0004  -11863746.70948  -9032592.44446  22747901.3384   22747908.7234
      2557.9874       1993.2364
  22364661.3354  -16828630.41848 -12915483.84346  22364659.9064   22364666.5224
      1344.5804       1047.7254
 00  7 15  1 36 30.0010000  0  7G20G19G22G25G11G16G 1
  20804172.4874  -22471869.42649 -17139153.72247  20804170.8144   20804176.1134
      1029.5994        802.2854
  24136325.8794   -8324370.97048  -6015400.13646  24136324.7854   24136335.4334
      2805.5204       2186.1114
  22312261.6684  -13396418.44048 -10426790.47946  22312259.8454   22312267.1764
      2138.0104       1665.9824
  22424204.3854  -12637494.04649  -8805450.25747  22424203.3064   22424209.0344
     -2721.3284      -2120.5134
  23030048.8954   -7516525.23648  -5611442.34446  23030047.4764   23030054.6044
     -3166.9604      -2467.7564
  22733312.5654  -11940420.45748  -9092338.18546  22733310.6614   22733317.5734
      2553.3874       1989.6514
  22356992.0614  -16868934.14848 -12946889.31047  22356990.5624   22356997.0984
      1342.1324       1045.8174
 00  7 15  1 37  0.0010000  0  7G20G19G22G25G11G16G 1
  20798345.0994  -22502491.68649 -17163015.22047  20798343.3354   20798348.7034
      1010.9734        787.7714
  24120335.6214   -8408394.37247  -6080872.70445  24120334.6824   24120345.9194
      2795.1604       2178.0404
  22300102.6414  -13460314.26348 -10476579.36046  22300100.4824   22300108.1714
      2120.7214       1652.5074
  22439771.3224  -12555688.65649  -8741705.84247  22439770.2504   22439775.8174
     -2733.1854      -2129.7534
  23048156.4864   -7421370.75048  -5537296.13546  23048154.8374   23048162.7424
     -3177.5834      -2476.0324
  22718762.9144  -12016878.12248  -9151915.54646  22718761.1674   22718768.6784
      2542.9144       1981.4884
  22349351.3794  -16909087.64448 -12978177.71147  22349349.8434   22349356.2874
      1333.8674       1039.3774
 00  7 15  1 37 30.0010000  0  7G20G19G22G25G11G16G 1
  20792618.6574  -22532584.97649 -17186464.53347  20792616.7604   20792622.4264
       995.7734        775.9284
  24104399.6514   -8492137.15647  -6146126.61845  24104398.3634   24104409.2214
      2788.2544       2172.6594
  22288036.4714  -13523719.76548 -10525986.17946  22288034.8444   22288042.5264
      2106.7594       1641.6304
  22455400.2804  -12473559.58848  -8677709.20247  22455399.0344   22455404.1224
     -2741.4714      -2136.2104
  23066318.0914   -7325929.84948  -5462926.74446  23066316.6694   23066324.6774
     -3184.6304      -2481.5234
  22704267.4274  -12093050.41048  -9211270.53646  22704265.8914   22704273.5444
      2535.8164       1975.9584
  22341751.7534  -16949023.70048 -13009296.68347  22341750.3164   22341756.3924
      1329.1044       1035.6644
 00  7 15  1 38  0.0010000  0  7G20G19G22G25G11G16G 1
  20786965.7584  -22562290.11349 -17209611.38747  20786963.9494   20786969.5954
       983.5314        766.3874
  24088490.5554   -8575740.86747  -6211272.17545  24088489.5964   24088499.3404
      2784.3164       2169.5924
  22276037.9214  -13586774.45848 -10575119.65046  22276036.0804   22276043.3784
      2095.7474       1633.0464
  22471062.3794  -12391251.67748  -8613573.21247  22471061.4004   22471066.6234
     -2746.6724      -2140.2634
  23084506.8284   -7230348.33248  -5388447.78146  23084505.5594   23084513.1274
     -3188.5314      -2484.5654
  22689799.8694  -12169077.81048  -9270512.61446  22689798.3974   22689805.9924
      2531.6864       1972.7394
  22334165.8714  -16988885.26648 -13040357.61347  22334164.5064   22334171.1734
      1327.3554       1034.3014
 00  7 15  1 38 30.0010000  0  7G20G19G22G25G11G16G 1
  20781390.9004  -22591584.69649 -17232438.33047  20781389.1894   20781394.9384
       969.4664        755.4274
  24072612.7104   -8659183.79447  -6276292.47445  24072611.0914   24072621.3704
      2778.5644       2165.1134
  22264110.5214  -13649454.88248 -10623961.47546  22264108.4904   22264115.6054
      2082.8844       1623.0244
  22486762.7154  -12308746.23248  -8549283.29047  22486761.8144   22486766.8114
     -2753.5874      -2145.6514
  23102725.1434   -7134608.84648  -5313845.71546  23102723.9574   23102731.7144
     -3194.1094      -2488.9114
  22675364.8284  -12244937.85448  -9329624.29346  22675363.2224   22675370.0414
      2525.6904       1968.0674
  22326598.7794  -17028651.90948 -13071344.57247  22326597.3444   22326604.0084
      1323.8434       1031.5644
 00  7 15  1 39  0.0010000  0  7G20G19G22G25G11G16G 1
  20775904.7814  -22620414.39549 -17254903.02847  20775903.1434   20775908.7134
       951.6584        741.5524
  24056774.0054   -8742412.37847  -6341145.73246  24056772.9384   24056783.4454
      2769.1184       2157.7474
  22252264.1274  -13711705.80348 -10672468.63346  22252262.3184   22252269.7194
      2066.2404       1610.0564
  22502510.5094  -12225993.35548  -8484800.56747  22502509.4424   22502514.6654
     -2764.1074      -2153.8494
  23120982.9614   -7038661.68648  -5239081.84046  23120982.0614   23120990.2954
     -3203.2304      -2496.0184
  22660971.8354  -12320575.42748  -9388562.61946  22660969.8574   22660976.7324
      2515.9794       1960.5014
  22319059.3684  -17068271.26048 -13102216.76347  22319057.9334   22319064.3604
      1316.6374       1025.9494
 00  7 15  1 39 30.0010000  0  7G20G19G22G25G11G16G 1
  20770518.8034  -22648717.50749 -17276957.39847  20770517.2364   20770522.5374
       936.2364        729.5354
  24040988.6604   -8825365.69247  -6405784.45946  24040987.0314   24040997.6654
      2762.1184       2152.2964
  22240511.8724  -13773464.48948 -10720592.23246  22240509.8784   22240517.5554
      2051.9334       1598.9064
  22518315.6874  -12142935.15048  -8420079.92747  22518314.6454   22518320.3664
     -2772.0404      -2160.0314
  23139292.3094   -6942450.19148  -5164111.99346  23139290.8914   23139298.8094
     -3209.8554      -2501.1824
  22646632.6544  -12395928.82548  -9447279.51146  22646630.5464   22646637.3264
      2508.6304       1954.7764
  22311559.5014  -17107683.76948 -13132927.77647  22311558.1644   22311564.4594
      1311.9144       1022.2714
 00  7 15  1 40  0.0010000  0  7G20G19G22G25G11G16G 1
  20765214.3354  -22676593.94549 -17298679.29547  20765212.7694   20765217.8244
       920.0054        716.8874
  24025236.3054   -8908144.40147  -6470287.12845  24025234.4504   24025244.9604
      2754.2784       2146.1824
  22228834.4264  -13834829.22048 -10768408.85346  22228832.6444   22228840.0934
      2036.7924       1587.1084
  22534159.3844  -12059675.73448  -8355202.51047  22534158.3194   22534164.0894
     -2780.6954      -2166.7754
  23157631.6504   -6846079.21048  -5089017.86846  23157630.3344   23157638.1404
     -3217.0824      -2506.8134
  22632327.8914  -12471097.27148  -9505852.27146  22632325.9754   22632333.1764
      2500.4594       1948.4084
  22304078.8794  -17146991.31748 -13163557.00747  22304077.6794   22304084.2824
      1306.4314       1017.9974
 00  7 15  1 40 30.0010000  0  7G20G19G22G25G11G16G 1
  20760021.7724  -22703882.74849 -17319943.29147  20760020.1914   20760024.8964
       901.6144        702.5574
  24009548.3014   -8990588.02247  -6534528.73746  24009547.0194   24009555.8144
      2744.3254       2138.4304
  22217263.0814  -13895637.68148 -10815792.00646  22217261.2604   22217268.4444
      2019.3904       1573.5504
  22550071.7704  -11976058.10148  -8290045.95947  22550070.7614   22550076.0654
     -2791.3544      -2175.0794
  23176030.7314   -6749392.82448  -5013677.97146  23176029.1274   23176036.8094
     -3226.3274      -2514.0184
  22618089.5524  -12545919.88348  -9564155.55246  22618087.9394   22618094.9974
      2490.1074       1940.3424
  22296649.5564  -17186034.92148 -13193980.56047  22296647.9544   22296654.0584
      1298.9014       1012.1294
 00  7 15  1 41  0.0010000  0  7G20G19G22G25G11G16G 1
  20754922.6664  -22730678.46149 -17340823.06647  20754921.0614   20754925.9024
       886.2404        690.5774
  23993904.9364   -9072791.72647  -6598583.40346  23993903.6344   23993912.9214
      2737.3994       2133.0324
  22205779.6424  -13955983.60348 -10862814.73146  22205777.7344   22205784.8804
      2005.0204       1562.3504
  22566033.2364  -11892180.53848  -8224686.85647  22566032.0894   22566037.0174
     -2798.9174      -2180.9734
  23194470.0344   -6652490.43448  -4938169.77646  23194468.7674   23194476.7824
     -3232.3634      -2518.7204
  22603899.4934  -12620490.57648  -9622262.53146  22603897.7944   22603904.3584
      2482.7834       1934.6344
  22289251.8584  -17224911.07448 -13224273.63447  22289250.4184   22289256.2664
      1294.3614       1008.5934
 00  7 15  1 41 30.0010000  0  7G20G19G22G25G11G16G 1
  20749905.9874  -22757043.50349 -17361367.25847  20749904.1274   20749908.5204
       872.7094        680.0324
  23978295.6874   -9154819.04347  -6662500.61946  23978293.8734   23978304.0754
      2732.3654       2129.1094
  22194372.2604  -14015928.72248 -10909525.14946  22194370.6484   22194377.5594
      1992.4974       1552.5944
  22582030.9964  -11808109.66148  -8159177.12747  22582029.8514   22582035.1554
     -2804.4534      -2185.2874
  23212937.9724   -6555439.57448  -4862545.88346  23212936.9244   23212945.0914
     -3236.4284      -2521.8884
  22589745.3414  -12694871.61948  -9680221.73946  22589743.3454   22589750.1624
      2477.2554       1930.3274
  22281873.4384  -17263684.25048 -13254486.46347  22281871.9634   22281877.8314
      1291.8164       1006.6094
 00  7 15  1 42  0.0010000  0  7G20G19G22G25G11G16G 1
  20744963.8754  -22783013.32949 -17381603.48947  20744962.3384   20744966.5484
       858.2834        668.7914
  23962712.4494   -9236705.98248  -6726308.43346  23962711.3114   23962721.5404
      2726.4434       2124.4954
  22183034.3544  -14075507.21648 -10955949.88946  22183032.9014   22183040.4934
      1979.0084       1542.0824
  22598058.4394  -11723884.94448  -8093547.51947  22598057.5034   22598062.6374
     -2810.7874      -2190.2234
  23231427.3834   -6458280.41348  -4786837.59946  23231425.8284   23231433.6914
     -3241.1794      -2525.5904
  22575620.0164  -12769097.68748  -9738060.18546  22575618.3454   22575624.9824
      2470.8534       1925.3394
  22274507.2294  -17302391.89348 -13284648.22947  22274505.9284   22274512.0744
      1288.4084       1003.9534
 00  7 15  1 42 30.0010000  0  7G20G19G22G25G11G16G 1
  20740103.4954  -22808555.00149 -17401506.08747  20740101.7954   20740105.9124
       845.2864        658.6654
  23947162.0544   -9318420.50948  -6789981.88546  23947160.6694   23947171.2934
      2721.9574       2121.0014
  22171773.1424  -14134684.87048 -11002062.27846  22171771.5254   22171779.1204
      1966.8794       1532.6334
  22614120.5484  -11639477.56148  -8027775.57847  22614119.6224   22614125.1384
     -2815.5354      -2193.9204
  23249942.1224   -6360985.11348  -4711023.23346  23249940.7514   23249948.6714
     -3244.3894      -2528.0894
  22561530.8254  -12843135.84748  -9795752.20146  22561529.2344   22561536.3254
      2465.8644       1921.4524
  22267160.1814  -17341003.21848 -13314734.94647  22267158.5424   22267164.3934
      1286.4714       1002.4444
 00  7 15  1 43  0.0010000  0  7G20G19G22G25G11G16G 1
  20735341.3414  -22833579.77549 -17421005.90547  20735339.7814   20735344.1644
       825.4484        643.2074
  23931662.5924   -9399874.11548  -6853452.04146  23931661.3764   23931670.9364
      2710.6754       2112.2114
  22160605.4994  -14193371.23948 -11047791.85846  22160603.9184   22160611.4224
      1947.9074       1517.8494
  22630233.9994  -11554802.14248  -7961794.77547  22630232.9384   22630238.3914
     -2826.9964      -2202.8544
  23268498.5974   -6263469.65848  -4635037.32046  23268497.1804   23268505.5334
     -3254.2224      -2535.7524
  22547494.3234  -12916896.86448  -9853228.26246  22547492.6764   22547499.9104
      2453.9904       1912.1994
  22259847.3224  -17379430.97948 -13344678.62647  22259846.0174   22259851.9964
      1277.8324        995.7114
 00  7 15  1 43 30.0010000  0  7G20G19G22G25G11G16G 1
  20730676.8564  -22858091.98349 -17440106.32247  20730675.2424   20730679.8294
       811.1104        632.0324
  23916210.7254   -9481071.86148  -6916722.84346  23916209.3594   23916218.4044
      2704.9534       2107.7534
  22149531.0394  -14251570.05448 -11093141.52546  22149529.3194   22149536.5704
      1934.3794       1507.3074
  22646396.3194  -11469867.24648  -7895611.78347  22646395.2744   22646401.4724
     -2832.8184      -2207.3894
  23287095.1174   -6165742.98648  -4558886.84646  23287093.8334   23287102.5594
     -3258.4234      -2539.0254
  22533510.7554  -12990384.22248  -9910491.08846  22533509.0134   22533515.6514
      2447.6364       1907.2474
  22252568.4474  -17417681.20148 -13374483.96347  22252566.8284   22252573.1924
      1274.6524        993.2344
 00  7 15  1 44  0.0010000  0  7G20G19G22G25G11G16G 1
  20726093.9454  -22882174.43349 -17458871.86547  20726092.3404   20726097.2184
       793.9554        618.6674
  23900791.6864   -9562097.33648  -6979859.41246  23900790.6394   23900800.2264
      2696.3694       2101.0584
  22138533.5594  -14309363.22548 -11138175.11146  22138531.7444   22138538.8494
      1917.9694       1494.5204
  22662591.9074  -11384759.59048  -7829294.18947  22662590.8524   22662596.8754
     -2841.3794      -2214.0604
  23305715.3854   -6067893.05548  -4482640.32646  23305714.4484   23305722.8704
     -3265.3244      -2544.4004
  22519563.0174  -13063680.34748  -9967604.90046  22519561.3674   22519567.8614
      2438.3824       1900.0374
  22245307.2734  -17455838.84048 -13404217.15147  22245305.6654   22245312.1104
      1268.7714        988.6534
 00  7 15  1 44 30.0010000  0  7G20G19G22G25G11G16G 1
  20721601.8034  -22905781.88449 -17477267.27647  20721600.0544   20721604.5364
       780.4444        608.1374
  23885413.4834   -9642906.07748  -7042827.08346  23885412.6914   23885422.7734
      2691.4274       2097.2124
  22127621.3904  -14366704.34748 -11182856.44946  22127619.7404   22127627.0754
      1905.2194       1484.5854
  22678828.5714  -11299438.14048  -7762809.99247  22678827.3994   22678832.6384
     -2846.1134      -2217.7484
  23324367.0664   -5969879.76848  -4406266.50346  23324366.0704   23324373.7334
     -3268.3494      -2546.7624
  22505659.6294  -13136740.05348 -10024534.49646  22505657.9934   22505664.6484
      2432.8434       1895.7194
  22238071.4974  -17493860.89048 -13433844.68547  22238070.0944   22238076.5764
      1266.6104        986.9674
 00  7 15  1 45  0.0010000  0  7G20G19G22G25G11G16G 1
  20717199.4314  -22928914.72949 -17495292.86247  20717197.7994   20717202.5554
       761.2404        593.1744
  23870077.7034   -9723498.89848  -7105626.48646  23870076.2594   23870086.9634
      2680.8554       2088.9724
  22116796.1754  -14423592.14748 -11227184.54846  22116794.5344   22116801.6954
      1886.6824       1470.1424
  22695104.3284  -11213906.69548  -7696162.15647  22695103.3014   22695108.7154
     -2856.4264      -2225.7854
  23343049.0874   -5871708.03548  -4329769.19846  23343047.9544   23343055.5434
     -3276.9504      -2553.4604
  22491802.3504  -13209562.61448 -10081279.30346  22491800.5274   22491807.5454
      2421.5084       1886.8904
  22230861.3014  -17531749.29348 -13463368.07947  22230860.1334   22230866.8404
      1258.8024        980.8844
 00  7 15  1 45 30.0010000  0  7G20G19G22G25G11G16G 1
  20712906.3244  -22951476.34549 -17512873.33347  20712904.4974   20712909.2164
       744.9364        580.4694
  23854801.6354   -9803779.86148  -7168182.90246  23854799.8244   23854809.8554
      2673.2774       2083.0654
  22106075.7074  -14479928.94248 -11271083.29346  22106073.8624   22106080.6124
      1871.0834       1457.9844
  22711438.0304  -11128072.52348  -7629278.42647  22711437.0384   22711442.3684
     -2863.7294      -2231.4754
  23361777.6744   -5773285.82648  -4253076.74246  23361776.5214   23361785.5754
     -3282.4894      -2557.7784
  22478007.4904  -13282051.05448 -10137763.74546  22478006.1764   22478013.4844
      2413.1324       1880.3634
  22223695.5994  -17569409.34348 -13492713.54147  22223694.1274   22223700.4484
      1253.9584        977.1094
 00  7 15  1 46  0.0010000  0  7G20G19G22G25G11G16G 1
  20708702.8594  -22973563.04749 -17530083.73747  20708701.4864   20708706.2334
       726.6524        566.2224
  23839565.3864   -9883846.10548  -7230572.00246  23839563.8634   23839573.1104
      2663.6204       2075.5464
  22095441.8924  -14535810.19348 -11314627.07346  22095440.0174   22095446.8854
      1853.3624       1444.1784
  22727810.4424  -11042035.71548  -7562236.80847  22727809.3814   22727815.0254
     -2872.9044      -2238.6244
  23380535.2424   -5674714.59248  -4176268.17846  23380533.9564   23380542.9144
     -3289.8354      -2563.4984
  22464258.9274  -13354301.47948 -10194062.72746  22464257.5694   22464264.4324
      2402.7134       1872.2424
  22216553.6804  -17606939.17248 -13521957.53247  22216552.2884   22216558.6734
      1247.1724        971.8224
 00  7 15  1 46 30.0010000  0  7G20G19G22G25G11G16G 1
  20704596.2834  -22995143.46249 -17546899.63547  20704594.8644   20704599.8534
       712.1364        554.9094
  23824374.1204   -9963666.85948  -7292769.82546  23824373.1194   23824383.3634
      2657.8294       2071.0294
  22084900.5074  -14591203.61348 -11357790.72046  22084898.9584   22084906.0044
      1839.4804       1433.3584
  22744226.4784  -10955769.06648  -7495016.08647  22744225.6134   22744230.9774
     -2878.1004      -2242.6754
  23399327.1514   -5575967.52448  -4099322.59646  23399325.7884   23399334.1224
     -3293.2204      -2566.1414
  22450561.7914  -13426281.19148 -10250150.76746  22450560.0764   22450567.2914
      2396.0404       1867.0414
  22209442.2874  -17644309.24748 -13551077.04347  22209441.0534   22209447.3104
      1244.2344        969.5314
 00  7 15  1 47  0.0010000  0  7G20G19G22G25G11G16G 1
  20700571.7674  -23016293.01949 -17563379.79747  20700570.2964   20700575.1544
       697.5494        543.5454
  23809217.4014  -10043317.95348  -7354835.41646  23809216.2884   23809225.7734
      2651.9214       2066.4274
  22074438.6484  -14646183.18548 -11400631.89846  22074436.6154   22074443.6664
      1825.4484       1422.4254
  22760671.1824  -10869351.70048  -7427677.92447  22760670.2244   22760675.7164
     -2883.2964      -2246.7234
  23418136.6824   -5477124.87748  -4022302.52846  23418135.0604   23418143.3744
     -3296.5914      -2568.7644
  22436901.7664  -13498065.83448 -10306086.80146  22436899.7264   22436907.1374
      2389.3434       1861.8254
  22202347.2654  -17681596.79948 -13580132.25647  22202345.8294   22202351.7294
      1241.3524        967.2874
 00  7 15  1 47 30.0010000  0  7G20G19G22G25G11G16G 1
  20696633.2574  -23036990.83449 -17579507.95647  20696631.8414   20696636.5984
       680.9364        530.6004
  23794097.0184  -10122779.22748  -7416753.11846  23794096.0394   23794104.8174
      2644.0634       2060.3034
  22064058.9744  -14700726.78448 -11443133.35546  22064057.0494   22064064.5344
      1809.3144       1409.8524
  22777147.1594  -10782766.35148  -7360208.87247  22777146.2194   22777152.4374
     -2890.3804      -2252.2424
  23436966.5334   -5378170.59648  -3945195.46446  23436965.4664   23436973.2784
     -3301.7584      -2572.7954
  22423282.8704  -13569633.45048 -10361853.72846  22423281.1424   22423287.9134
      2380.4924       1854.9284
  22195271.0634  -17718782.66348 -13609108.23147  22195269.6734   22195275.3704
      1236.3884        963.4174
 00  7 15  1 48  0.0010000  0  7G20G19G22G25G11G16G 1
  20692792.5304  -23057174.51149 -17595235.49147  20692790.8684   20692795.8234
       663.8514        517.2844
  23779024.2594  -10201989.19148  -7478475.02246  23779023.0994   23779031.9394
      2635.7804       2053.8514
  22053774.3284  -14754770.94048 -11485245.62146  22053772.6654   22053779.8334
      1792.7384       1396.9354
  22793667.7414  -10695954.47948  -7292563.30947  22793666.9854   22793672.1824
     -2897.7864      -2258.0154
  23455828.7584   -5279047.26748  -3867956.68746  23455827.5114   23455836.9054
     -3307.2624      -2577.0834
  22409717.2014  -13640921.55148 -10417402.86046  22409715.3314   22409722.0214
      2371.2584       1847.7304
  22188225.4084  -17755806.36148 -13637957.83947  22188224.2324   22188229.9514
      1231.0834        959.2834
 00  7 15  1 48 30.0010000  0  7G20G19G22G25G11G16G 1
  20689057.5954  -23076800.52049 -17610528.48147  20689056.1604   20689061.1834
       647.7724        504.7564
  23764006.5114  -10280904.66748  -7539967.43946  23764005.3974   23764014.7894
      2628.4464       2048.1304
  22043593.6614  -14808271.13648 -11526934.02546  22043591.7804   22043599.2474
      1777.0944       1384.7464
  22810238.2374  -10608876.17048  -7224710.12747  22810237.1374   22810242.6004
     -2904.1294      -2262.9554
  23474730.9364   -5179715.56148  -3790555.55546  23474730.2084   23474739.3894
     -3311.6584      -2580.5094
  22396213.3724  -13711885.49048 -10472699.39046  22396211.5504   22396218.0184
      2362.9284       1841.2414
  22181219.1834  -17792625.64048 -13666648.16247  22181217.7264   22181223.7914
      1226.7784        955.9324
 00  7 15  1 49  0.0010000  0  7G20G19G22G25G11G16G 1
  20685396.4144  -23096040.56249 -17625520.71947  20685394.8494   20685399.8184
       635.4194        495.1324
  23749011.9414  -10359698.26448  -7601364.87046  23749011.0174   23749020.4694
      2624.9474       2045.4104
  22033484.3054  -14861398.21948 -11568331.69046  22033482.4264   22033489.5434
      1765.1334       1375.4274
  22826826.0844  -10521707.26748  -7156786.35247  22826824.9924   22826830.2344
     -2906.5834      -2264.8684
  23493640.0104   -5080352.23448  -3713129.77046  23493638.5904   23493647.2904
     -3312.1014      -2580.8564
  22382738.4724  -13782696.38748 -10527876.67646  22382736.8344   22382743.1524
      2358.3274       1837.6574
  22174218.2454  -17829414.07448 -13695314.45647  22174216.9234   22174222.9094
      1226.3104        955.5664
 00  7 15  1 49 30.0010000  0  7G20G19G22G25G11G16G 1
  20681819.4284  -23114836.56849 -17640166.95047  20681817.8584   20681823.1014
       619.1634        482.4644
  23734051.7794  -10438312.29548  -7662622.38846  23734050.3414   23734060.5844
      2617.4754       2039.5874
  22023456.4394  -14914092.68948 -11609392.25446  22023454.6904   22023462.0144
      1749.2134       1363.0214
  22843440.9874  -10434393.25848  -7088749.50947  22843440.1314   22843446.0324
     -2912.8064      -2269.7164
  23512564.3554   -4980903.77248  -3635637.66446  23512562.9074   23512572.3014
     -3316.3214      -2584.1374
  22369303.5434  -13853295.74248 -10582889.12046  22369302.1204   22369308.4974
      2349.8154       1831.0234
  22167233.9964  -17866115.59548 -13723913.02247  22167232.6444   22167238.7264
      1221.9844        952.1954
 00  7 15  1 50  0.0010000  0  7G20G19G22G25G11G16G 1
  20678333.8224  -23133152.93249 -17654439.42947  20678332.3424   20678337.7334
       602.0434        469.1244
  23719132.7574  -10516711.95648  -7723712.87746  23719131.9014   23719141.4484
      2609.2494       2033.1814
  22013518.7754  -14966317.61248 -11650086.93246  22013516.6674   22013523.7784
      1732.4334       1349.9484
  22860090.0074  -10346902.14848  -7020574.67747  22860089.0644   22860095.0894
     -2919.7924      -2275.1624
  23531510.6164   -4881339.34548  -3558055.18446  23531509.5224   23531518.3964
     -3321.2234      -2587.9584
  22355915.9194  -13923647.05448 -10637708.29046  22355914.3774   22355921.0024
      2340.4174       1823.7014
  22160272.9554  -17902695.90848 -13752417.13947  22160271.5844   22160277.5964
      1216.8314        948.1814
 00  7 15  1 50 30.0010000  0  7G20G19G22G25G11G16G 1
  20674937.6724  -23150999.91249 -17668346.15547  20674936.0174   20674941.5404
       586.7084        457.1754
  23704253.1334  -10594908.08948  -7784644.79446  23704251.9754   23704260.8514
      2602.8264       2028.1734
  22003667.9334  -15018082.26448 -11690422.97046  22003666.4084   22003673.3534
      1717.3664       1338.2064
  22876770.2154  -10259247.61848  -6952272.49147  22876769.2154   22876774.5534
     -2924.8644      -2279.1144
  23550475.6294   -4781674.07147  -3480394.13045  23550474.9484   23550484.4394
     -3324.1724      -2590.2624
  22342573.6684  -13993760.46048 -10692342.07746  22342571.8554   22342578.5104
      2332.7814       1817.7504
  22153332.1344  -17939167.26848 -13780836.36347  22153330.9914   22153337.1884
      1213.5764        945.6434
 00  7 15  1 51  0.0010000  0  7G20G19G22G25G11G16G 1
  20671630.9614  -23168378.07649 -17681887.57047  20671629.4154   20671634.5524
       572.1634        445.8414
  23689410.9204  -10672901.80148  -7845418.95946  23689410.0574   23689419.1594
      2597.0884       2023.7034
  21993904.9864  -15069386.57348 -11730400.30346  21993903.2564   21993910.5294
      1703.1104       1327.0974
  22893480.8214  -10171433.97948  -6883846.32446  22893479.7524   22893485.1414
     -2929.0014      -2282.3364
  23569460.0864   -4681913.15347  -3402658.54545  23569459.3834   23569468.3004
     -3326.2704      -2591.8924
  22329276.5824  -14063635.39748 -10746790.04546  22329275.2254   22329281.6364
      2325.8754       1812.3684
  22146412.5574  -17975531.82448 -13809172.36847  22146411.0674   22146417.4714
      1211.0794        943.7004
 00  7 15  1 51 30.0010000  0  7G20G19G22G25G11G16G 1
  20668412.1914  -23185292.28249 -17695067.46747  20668410.7224   20668416.0244
       556.4264        433.5784
  23674606.2684  -10750698.40648  -7906039.53146  23674605.1704   23674614.8564
      2590.3514       2018.4494
  21984229.0584  -15120234.05648 -11770021.66146  21984227.2524   21984234.2844
      1687.5954       1315.0064
  22910219.8714  -10083470.24448  -6815303.19847  22910218.7904   22910224.3724
     -2934.2204      -2286.4054
  23588461.5664   -4582065.78347  -3324855.60046  23588459.8804   23588469.0574
     -3329.3164      -2594.2634
  22316024.6924  -14133275.75348 -10801055.22946  22316023.3484   22316029.6564
      2317.7714       1806.0534
  22139511.5364  -18011796.00848 -13837430.14947  22139510.1924   22139516.9124
      1207.5294        940.9324
 00  7 15  1 52  0.0010000  0  7G20G19G22G25G11G16G 1
  20665277.5754  -23201765.36149 -17707903.62947  20665275.9874   20665281.1514
       541.7744        422.1624
  23659834.6314  -10828321.44948  -7966524.85146  23659833.8224   23659843.6224
      2584.5124       2013.9034
  21974635.5454  -15170646.25048 -11809303.83746  21974634.0394   21974641.1404
      1673.0954       1303.7074
  22926982.5604   -9995382.39548  -6746663.36347  22926981.3804   22926987.2144
     -2938.2704      -2289.5614
  23607472.8074   -4482159.40547  -3247006.67446  23607471.4294   23607481.2814
     -3331.1584      -2595.7014
  22302813.7084  -14202704.15348 -10855155.26346  22302811.7894   22302817.8344
      2310.7594       1800.5904
  22132625.2444  -18047984.42748 -13865628.90547  22132623.8264   22132630.3834
      1205.0504        939.0004
 00  7 15  1 52 30.0010000  0  7G20G19G22G25G11G16G 1
  20662231.7624  -23217770.26749 -17720374.98247  20662230.2704   20662235.6304
       524.8754        408.9934
  23645102.4204  -10905744.36448  -8026854.25246  23645101.1304   23645110.0004
      2576.6254       2007.7544
  21965131.0994  -15220594.79848 -11848224.73146  21965129.3154   21965136.3164
      1656.3234       1290.6414
  22943772.6174   -9907147.00848  -6677908.57646  22943771.9354   22943777.6414
     -2944.4314      -2294.3584
  23626499.9094   -4382171.75247  -3169094.42545  23626498.6444   23626508.0094
     -3335.0684      -2598.7484
  22289647.5004  -14271892.37448 -10909068.14046  22289645.5904   22289651.8854
      2301.4424       1793.3314
  22125758.4344  -18084071.60448 -13893748.77147  22125756.9924   22125763.1634
      1200.4124        935.3864
 00  7 15  1 53  0.0010000  0  7G20G19G22G25G11G16G 1
  20659271.3094  -23233329.09749 -17732498.73847  20659269.6524   20659275.0684
       509.1984        396.7774
  23630402.8404  -10982989.83148  -8087045.39646  23630401.8504   23630410.3954
      2569.8824       2002.5014
  21955710.0614  -15270100.83848 -11886800.80546  21955708.3214   21955715.4034
      1640.7644       1278.5164
  22960586.6814   -9818789.79448  -6609058.83846  22960585.8454   22960591.4934
     -2949.2254      -2298.0964
  23645536.7844   -4282129.71147  -3091139.80745  23645535.9504   23645545.3284
     -3337.6604      -2600.7694
  22276522.6134  -14340862.18348 -10962810.81546  22276520.8414   22276527.6304
      2293.3504       1787.0244
  22118905.3614  -18120081.09748 -13921808.09747  22118904.2484   22118910.8204
      1197.0634        932.7754
 00  7 15  1 53 30.0010000  0  7G20G19G22G25G11G16G 1
  20656403.8454  -23248398.21349 -17744240.90047  20656402.3434   20656407.4364
       495.2444        385.9034
  23615745.5034  -11060014.90348  -8147064.80046  23615744.0804   23615752.4704
      2564.9214       1998.6354
  21946381.7874  -15319120.12448 -11924997.58546  21946380.3014   21946387.3304
      1626.9304       1267.7334
  22977431.0944   -9730271.06548  -6540083.25346  22977430.2994   22977435.9594
     -2952.1684      -2300.3914
  23664593.2164   -4181993.94147  -3013112.13745  23664592.2494   23664601.2994
     -3338.2784      -2601.2504
  22263448.0034  -14409568.72548 -11016348.34746  22263446.3494   22263453.4534
      2286.9564       1782.0424
  22112076.1594  -18155970.82448 -13949774.10247  22112074.8494   22112081.2974
      1195.4694        931.5344
 00  7 15  1 54  0.0010000  0  7G20G19G22G25G11G16G 1
  20653624.9014  -23263002.06549 -17755620.52347  20653623.2924   20653628.3904
       477.7814        372.2994
  23601125.0434  -11136844.51748  -8206931.89746  23601123.5384   23601132.5924
      2556.4914       1992.0664
  21937142.4494  -15367676.08448 -11962833.33946  21937140.5144   21937147.2784
      1609.4804       1254.1394
  22994300.9424   -9641618.76748  -6471003.59146  22994300.1164   22994306.3414
     -2958.5214      -2305.3384
  23683661.4964   -4081793.61547  -2935034.14545  23683659.6874   23683668.8144
     -3342.2804      -2604.3674
  22250418.8544  -14478036.04148 -11069699.47947  22250417.5634   22250424.3024
      2276.9814       1774.2714
  22105264.6454  -18191766.88748 -13977667.11947  22105263.2014   22105269.6524
      1190.3974        927.5814
 00  7 15  1 54 30.0010000  0  7G20G19G22G25G11G16G 1
  20650946.1504  -23277078.72549 -17766589.34847  20650944.6624   20650949.6344
       461.5264        359.6314
  23586553.1414  -11213417.05248  -8266598.65146  23586552.2534   23586561.5474
      2549.1934       1986.3814
  21928002.1124  -15415705.01248 -12000258.41846  21928000.6924   21928007.5274
      1593.2124       1241.4634
  23011207.9904   -9552773.79548  -6401773.79646  23011207.1034   23011212.4264
     -2963.5784      -2309.2794
  23702751.2714   -3981470.92047  -2856860.82545  23702750.2794   23702759.8244
     -3345.0134      -2606.4904
  22237448.2664  -14546201.03448 -11122815.04147  22237446.4264   22237453.0364
      2268.1794       1767.4124
  22098481.9584  -18227408.61448 -14005439.87447  22098480.7214   22098486.9714
      1186.5744        924.6024
 00  7 15  1 55  0.0010000  0  7G20G19G22G25G11G16G 1
  20648360.3044  -23290668.02149 -17777178.40947  20648358.7934   20648363.6614
       445.3304        347.0114
  23572023.4994  -11289773.14848  -8326096.76846  23572022.4624   23572031.3444
      2542.0384       1980.8034
  21918955.4544  -15463245.58148 -12037302.95746  21918953.9564   21918961.1674
      1576.9304       1228.7774
  23028143.5604   -9463779.95448  -6332427.98346  23028142.3874   23028147.5724
     -2968.4354      -2313.0674
  23721856.0544   -3881070.58047  -2778627.02645  23721855.3944   23721866.4194
     -3347.4854      -2608.4214
  22224526.3564  -14614102.91148 -11175725.57547  22224524.6864   22224531.7964
      2259.4604       1760.6184
  22091721.0954  -18262937.45848 -14033124.67647  22091719.9194   22091725.9894
      1182.9074        921.7464
 00  7 15  1 55 30.0010000  0  7G20G19G22G25G11G16G 1
  20645858.9264  -23303814.66149 -17787422.55047  20645857.2374   20645861.9564
       430.4294        335.4004
  23557526.1854  -11365958.11948  -8385461.54346  23557524.9064   23557533.9224
      2536.2714       1976.3104
  21909993.4814  -15510341.74948 -12074001.21846  21909992.0724   21909998.9774
      1561.9974       1217.1404
  23045097.0204   -9374685.50848  -6263003.79646  23045096.0454   23045102.0784
     -2971.8304      -2315.7084
  23740968.2424   -3780641.74347  -2700370.99545  23740967.4344   23740976.6084
     -3348.5204      -2609.2304
  22211646.5564  -14681785.58248 -11228465.29947  22211645.1014   22211651.5514
      2252.0344       1754.8314
  22084973.4224  -18298399.72048 -14060757.59647  22084971.8724   22084978.0094
      1180.6064        919.9514
 00  7 15  1 56  0.0010000  0  7G20G19G22G25G11G16G 1
  20643450.7734  -23316466.71649 -17797281.29747  20643449.2854   20643454.3464
       414.7514        323.1824
  23543070.8824  -11441920.28448  -8444652.70346  23543069.5504   23543078.1524
      2529.6274       1971.1344
  21901126.1784  -15556940.84448 -12110312.14446  21901124.2024   21901131.1404
      1546.2384       1204.8604
  23062080.0754   -9285441.84048  -6193463.32546  23062079.1064   23062084.5684
     -2975.9784      -2318.9424
  23760093.9334   -3680136.89147  -2622055.71245  23760092.6974   23760102.7364
     -3350.1464      -2610.4914
  22198818.7344  -14749196.05548 -11280992.91547  22198817.2404   22198823.9634
      2243.7194       1748.3524
  22078247.1284  -18333744.80949 -14088299.21047  22078245.8934   22078252.0274
      1177.5144        917.5444
 00  7 15  1 56 30.0010000  0  7G20G19G22G25G11G16G 1
  20641110.6504  -23328764.13949 -17806863.70747  20641109.1064   20641114.1994
       402.2114        313.4124
  23528630.3644  -11517800.50048  -8503780.02346  23528629.2864   23528638.5674
      2526.1944       1968.4584
  21892326.5064  -15603181.46948 -12146343.74446  21892324.9484   21892331.7414
      1533.5224       1194.9504
  23079063.0884   -9196192.38148  -6123918.33846  23079062.3174   23079068.3384
     -2976.8184      -2319.5974
  23779206.3284   -3579700.53647  -2543793.81245  23779205.1284   23779215.5724
     -3348.4854      -2609.2024
  22186016.2104  -14816473.38948 -11333416.79047  22186014.7604   22186021.3294
      2238.5554       1744.3274
  22071516.2924  -18369114.16648 -14115859.73947  22071515.0594   22071521.2154
      1177.6214        917.6254
 00  7 15  1 57  0.0010000  0  7G20G19G22G25G11G16G 1
  20638860.3534  -23340589.59649 -17816078.35647  20638858.8694   20638863.7414
       386.7644        301.3744
  23514228.8374  -11593481.67948  -8562752.24346  23514227.9484   23514237.1494
      2519.8514       1963.5164
  21883618.4144  -15648944.89048 -12182003.50546  21883616.7034   21883623.0154
      1517.8734       1182.7574
  23096069.4454   -9106823.27448  -6054280.13346  23096068.3394   23096074.6494
     -2980.4774      -2322.4494
  23798327.0524   -3479219.69147  -2465497.27245  23798325.7234   23798335.7644
     -3349.6134      -2610.0824
  22173262.0774  -14883499.18448 -11385644.66747  22173260.6104   22173266.8554
      2230.4144       1737.9864
  22064803.2314  -18404391.87648 -14143348.85247  22064801.9954   22064808.0744
      1174.8694        915.4824
 00  7 15  1 57 30.0010000  0  7G20G19G22G25G11G16G 1
  20636703.2624  -23351925.80749 -17824911.77247  20636701.7544   20636706.4384
       368.7424        287.3314
  23499868.6564  -11668947.53848  -8621556.67746  23499867.3104   23499876.5364
      2510.9854       1956.6074
  21875003.8904  -15694212.85848 -12217277.20046  21875002.3174   21875008.7204
      1499.6424       1168.5504
  23113101.1814   -9017320.50848  -5984537.77446  23113100.3834   23113106.4704
     -2986.5684      -2327.1934
  23817459.1354   -3378681.49347  -2387156.03245  23817457.7594   23817468.2934
     -3353.2004      -2612.8764
  22160558.9984  -14950255.75448 -11437662.75347  22160557.0244   22160563.3384
      2219.7744       1729.6924
  22058110.6944  -18439562.21748 -14170754.30247  22058109.2564   22058115.4284
      1169.5984        911.3754
 00  7 15  1 58  0.0010000  0  7G20G19G22G25G11G16G 1
  20634636.9494  -23362785.27549 -17833373.69947  20634635.3494   20634639.9814
       353.4114        275.3864
  23485546.1384  -11744210.84848  -8680203.27946  23485545.2174   23485554.3564
      2504.7514       1951.7514
  21866481.9034  -15738997.03348 -12252173.91046  21866480.4664   21866486.4564
      1484.0614       1156.4104
  23130156.2254   -8927700.28748  -5914703.88046  23130155.1864   23130160.6374
     -2989.8854      -2329.7814
  23836598.5804   -3278102.90847  -2308783.32745  23836597.6394   23836607.9204
     -3353.9244      -2613.4364
  22147904.2074  -15016754.84048 -11489480.20047  22147902.5614   22147909.0044
      2211.6794       1723.3874
  22051435.6184  -18474639.05948 -14198086.89147  22051434.2414   22051440.6334
      1167.0254        909.3694
 00  7 15  1 58 30.0010000  0  7G20G19G22G25G11G16G 1
  20632664.1614  -23373152.96049 -17841452.42247  20632662.5704   20632666.8804
       338.0134        263.3874
  23471264.5944  -11819256.87848  -8738680.57946  23471263.6934   23471273.0644
      2498.5074       1946.8834
  21858054.8974  -15783281.51248 -12286681.24346  21858053.1974   21858059.4624
      1468.3564       1144.1724
  23147234.2284   -8837950.90748  -5844769.35346  23147233.4184   23147239.4834
     -2993.1374      -2332.3134
  23855748.8214   -3177473.29247  -2230370.85545  23855747.5984   23855757.4654
     -3354.5544      -2613.9324
  22135301.7064  -15082979.47748 -11541083.79047  22135300.2754   22135306.8174
      2203.5464       1717.0474
  22044781.1944  -18509608.48848 -14225335.78547  22044779.8454   22044785.9784
      1164.4904        907.3944
 00  7 15  1 59  0.0010000  0  7G20G19G22G25G11G16G 1
  20630781.0954  -23383048.99549 -17849163.62747  20630779.2354   20630783.5684
       321.0884        250.1994
  23457021.4794  -11894106.00848  -8797004.44846  23457020.4494   23457029.7014
      2490.7464       1940.8394
  21849719.3114  -15827085.02048 -12320813.79546  21849717.3794   21849724.0104
      1451.1344       1130.7514
  23164333.4084   -8748095.55248  -5774752.24546  23164332.5274   23164338.3694
     -2997.8284      -2335.9694
  23874903.2614   -3076816.94847  -2151937.53745  23874901.8054   23874911.2044
     -3356.5614      -2615.5014
  22122748.1914  -15148949.59148 -11592489.04847  22122746.7264   22122753.3114
      2193.8474       1709.4914
  22038142.7294  -18544491.94548 -14252517.68847  22038141.4364   22038147.6334
      1160.4564        904.2534
 00  7 15  1 59 30.0010000  0  7G20G19G22G25G11G16G 1
  20628989.3444  -23392463.15249 -17856499.34247  20628987.7764   20628992.1894
       305.7854        238.2754
  23442816.7844  -11968748.80448  -8855167.52146  23442816.1234   23442825.2504
      2484.6744       1936.1064
  21841477.1004  -15870396.15248 -12354562.66146  21841475.5284   21841481.8834
      1435.4364       1118.5184
  23181453.9334   -8658127.28848  -5704647.16146  23181453.1324   23181459.0424
     -3000.7514      -2338.2484
  23894062.6834   -2976128.25547  -2073479.01545  23894061.8414   23894072.4184
     -3356.7694      -2615.6554
  22110245.4034  -15214653.42448 -11643686.82047  22110243.8114   22110250.0524
      2185.6824       1703.1294
  22031522.4564  -18579280.59948 -14279625.71647  22031521.2164   22031527.7034
      1158.0634        902.3854
 00  7 15  2  0  0.0010000  0  7G20G19G22G25G11G16G 1
  20627293.7504  -23401372.92848 -17863442.03347  20627292.2734   20627296.5524
       287.8744        224.3174
  23428656.7754  -12043163.19148  -8913152.61946  23428655.8164   23428664.5564
      2475.9784       1929.3284
  21833333.4964  -15913191.21048 -12387909.41446  21833331.7494   21833338.3684
      1417.1564       1104.2764
  23198599.4624   -8568027.19148  -5634439.35046  23198598.5294   23198604.4674
     -3006.2204      -2342.5064
  23913233.1714   -2875388.96947  -1994981.07945  23913231.9034   23913242.2394
     -3359.5384      -2617.8184
  22097797.2954  -15280067.92748 -11694659.13447  22097795.8134   22097802.2504
      2174.9524       1694.7674
  22024925.1454  -18613953.31748 -14306643.40447  22024923.6134   22024929.5214
      1153.1214        898.5354
 00  7 15  2  0 30.0010000  0  7G20G19G22G25G11G16G 1
  20625689.6464  -23409803.24748 -17870011.12447  20625688.0044   20625692.3374
       273.5354        213.1454
  23414534.8484  -12117374.87848  -8970979.77546  23414533.8694   23414542.6764
      2470.8444       1925.3284
  21825282.9654  -15955494.67948 -12420873.10546  21825281.7074   21825288.5054
      1402.3964       1092.7744
  23215764.5434   -8477823.55148  -5564150.85146  23215763.6024   23215769.6234
     -3007.9724      -2343.8734
  23932408.5694   -2774628.47247  -1916466.62845  23932407.0134   23932417.1154
     -3358.4674      -2616.9784
  22085399.7594  -15345217.16348 -11745424.74847  22085398.2104   22085404.6614
      2167.7394       1689.1474
  22018343.9874  -18648536.44548 -14333591.28547  22018342.4934   22018348.3324
      1151.8144        897.5184
 00  7 15  2  1  0.0010000  0  7G20G19G22G25G11G16G 1
  20624178.3784  -23417744.94848 -17876199.46947  20624176.7404   20624181.0084
       255.4404        199.0454
  23400452.9284  -12191374.97448  -9028642.05146  23400451.7684   23400460.5024
      2461.9944       1918.4304
  21817329.0804  -15997296.18348 -12453445.65446  21817327.3074   21817333.8464
      1383.8064       1078.2904
  23232950.7324   -8387510.03648  -5493776.73646  23232949.7224   23232955.6474
     -3013.3874      -2348.0904
  23951587.4204   -2673841.45147  -1837931.51445  23951586.2584   23951596.0354
     -3361.1334      -2619.0564
  22073054.6164  -15410090.27948 -11795975.20147  22073053.0394   22073059.6364
      2156.6874       1680.5344
  22011781.4814  -18683021.56948 -14360462.79647  22011780.1884   22011785.8834
      1146.7524        893.5734
 00  7 15  2  1 30.0010000  0  7G20G19G22G25G11G16G 1
  20622767.7744  -23425156.42348 -17881974.64447  20622766.3624   20622770.7144
       238.0914        185.5274
  23386418.8634  -12265122.43548  -9086107.46046  23386417.8714   23386426.6704
      2453.9154       1912.1384
  21809478.2294  -16038553.04248 -12485593.80546  21809476.6624   21809482.8684
      1365.9844       1064.4034
  23250165.1494   -8297048.56848  -5423287.32746  23250164.1284   23250169.7494
     -3017.9314      -2351.6354
  23970778.6324   -2572990.84947  -1759346.83845  23970777.7954   23970787.5024
     -3362.8714      -2620.4124
  22060770.0354  -15474645.10748 -11846277.63747  22060768.6744   22060775.2664
      2146.3894       1672.5104
  22005245.7554  -18717368.57448 -14387226.67947  22005244.4104   22005250.0804
      1142.5164        890.2714
 00  7 15  2  2  0.0010000  0  7G20G19G22G25G11G16G 1
  20621451.7684  -23432072.39348 -17887363.72047  20621450.1174   20621454.6514
       221.9394        172.9404
  23372427.0084  -12338652.07348  -9143403.13846  23372425.9194   23372434.0384
      2447.0244       1906.7694
  21801724.2404  -16079298.41448 -12517343.40146  21801722.7234   21801729.1214
      1349.2274       1051.3444
  23267400.2744   -8206476.60848  -5352711.83146  23267399.4354   23267405.1704
     -3021.1924      -2354.1744
  23989973.9024   -2472115.48747  -1680742.89445  23989973.0344   23989982.9264
     -3363.2284      -2620.6924
  22048540.5014  -15538915.16548 -11896358.16847  22048538.6544   22048545.2984
      2137.2464       1665.3854
  21998729.0154  -18751613.30348 -14413910.86647  21998727.6334   21998733.6264
      1139.4724        887.9004
 00  7 15  2  2 30.0010000  0  7G20G19G22G25G11G16G 1
  20620228.8074  -23438497.58548 -17892370.37047  20620227.2474   20620232.0744
       206.0534        160.5634
  23358475.2554  -12411968.89548  -9200532.99946  23358473.9134   23358482.1874
      2440.4484       1901.6434
  21794067.5354  -16119535.95148 -12548697.27646  21794065.7294   21794072.0954
      1332.8254       1038.5654
  23284655.3834   -8115802.53348  -5282056.76746  23284654.2664   23284660.2494
     -3024.0954      -2356.4364
  24009173.6004   -2371224.17347  -1602126.51745  24009172.3924   24009182.8664
     -3363.2114      -2620.6764
  22036363.6044  -15602903.77348 -11946219.39947  22036361.8774   22036368.4094
      2128.3754       1658.4744
  21992230.7194  -18785761.64948 -14440519.95547  21992229.5154   21992235.2954
      1136.7864        885.8074
 00  7 15  2  3  0.0010000  0  7G20G19G22G25G11G16G 1
  20619097.6574  -23444441.42348 -17897001.93447  20619096.1854   20619101.0314
       189.6614        147.7874
  23344561.3084  -12485082.94048  -9257504.83846  23344560.4014   23344569.2564
      2433.2944       1896.0684
  21786505.5694  -16159274.59748 -12579662.40146  21786503.5144   21786510.1224
      1315.8214       1025.3144
  23301926.8604   -8025038.41548  -5211331.53946  23301926.1674   23301931.9174
     -3027.3724      -2358.9904
  24028373.8234   -2270330.84347  -1523508.57345  24028373.0754   24028382.3294
     -3363.6154      -2620.9894
  22024238.6104  -15666619.82848 -11995868.23647  22024236.9464   22024243.8444
      2118.8744       1651.0694
  21985748.8624  -18819824.34548 -14467062.29747  21985747.6044   21985753.7704
      1133.5734        883.3034
 00  7 15  2  3 30.0010000  0  7G20G19G22G25G11G16G 1
  20618058.1404  -23449902.54748 -17901257.35747  20618056.7544   20618061.8624
       174.1664        135.7134
  23330687.1884  -12557993.55448  -9314318.15646  23330686.1104   23330694.6944
      2427.1254       1891.2634
  21779038.3854  -16198512.29848 -12610237.17446  21779036.7824   21779043.1284
      1299.6854       1012.7404
  23319215.4044   -7934186.65948  -5140537.99946  23319214.4154   23319220.5094
     -3029.6474      -2360.7614
  24047572.9954   -2169438.28947  -1444891.17845  24047571.8384   24047582.1494
     -3362.8554      -2620.4014
  22012165.3994  -15730060.52248 -12045302.50447  22012164.2704   22012171.2054
      2110.2884       1644.3804
  21979282.9684  -18853801.17748 -14493537.72947  21979281.7814   21979288.1534
      1131.3004        881.5324
 00  7 15  2  4  0.0010000  0  7G20G19G22G25G11G16G 1
  20617115.9654  -23454855.59848 -17905116.87747  20617114.2414   20617119.1794
       156.6314        122.0514
  23316856.5414  -12630675.61948  -9370953.39546  23316855.2254   23316863.6914
      2418.9264       1884.8724
  21771671.9934  -16237222.00448 -12640400.51446  21771670.3084   21771676.8414
      1281.4734        998.5474
  23336525.5984   -7843224.56348  -5069658.49846  23336524.2904   23336530.5824
     -3033.8414      -2364.0304
  24066775.4104   -2068525.09547  -1366257.74945  24066774.5974   24066785.8894
     -3364.0994      -2621.3664
  22000150.7804  -15793199.59748 -12094501.74747  22000149.1154   22000155.9594
      2099.5914       1636.0444
  21972838.7784  -18887667.79148 -14519927.27847  21972837.2564   21972843.7214
      1127.0864        878.2474
 00  7 15  2  4 30.0010000  0  7G20G19G22G25G11G16G 1
  20616269.6534  -23459300.70248 -17908580.60347  20616268.2364   20616273.0684
       140.5514        109.5214
  23303068.3634  -12703129.51648  -9427410.83246  23303067.2764   23303076.2184
      2412.1944       1879.6294
  21764406.0864  -16275402.70048 -12670151.64446  21764404.7044   21764411.6694
      1264.6754        985.4604
  23353854.9484   -7752155.63448  -4998695.74946  23353853.8714   23353860.1834
     -3036.5104      -2366.1104
  24085981.8504   -1967595.59647  -1287611.65345  24085980.3024   24085992.1004
     -3363.6554      -2621.0224
  21988194.0914  -15856035.55648 -12143464.79947  21988192.6294   21988198.9054
      2090.3234       1628.8234
  21966414.5594  -18921425.34948 -14546231.84747  21966413.3624   21966419.6954
      1124.3014        876.0784
 00  7 15  2  5  0.0010000  0  7G20G19G22G25G11G16G 1
  20615515.5034  -23463264.05748 -17911668.93647  20615514.2504   20615518.9824
       123.8104         96.4774
  23289319.0684  -12775381.91948  -9483711.26946  23289317.9144   23289326.8924
      2404.7714       1873.8414
  21757236.7944  -16313079.76248 -12699510.34146  21757234.9804   21757241.8724
      1247.1604        971.8124
  23371200.1004   -7661008.87048  -4927672.35446  23371198.7134   23371204.7214
     -3039.7734      -2368.6524
  24105186.3814   -1866680.01547  -1208976.37245  24105185.2304   24105195.6024
     -3363.8704      -2621.1894
  21976289.6974  -15918593.87348 -12192211.51247  21976288.1194   21976294.0784
      2080.3704       1621.0674
  21960006.1644  -18955101.32648 -14572472.84447  21960004.9994   21960011.4404
      1120.9364        873.4574
 00  7 15  2  5 30.0010000  0  7G20G19G22G25G11G16G 1
  20614856.0064  -23466732.65548 -17914371.74247  20614854.2674   20614859.2044
       108.0884         84.2234
  23275610.7634  -12847420.14148  -9539844.81446  23275609.7014   23275618.3244
      2398.3704       1868.8564
  21750165.5134  -16350239.24848 -12728465.73746  21750163.7174   21750170.4084
      1230.6264        958.9294
  23388561.0584   -7569774.16348  -4856580.42746  23388560.1394   23388566.0344
     -3041.8934      -2370.3054
  24124389.8774   -1765769.40947  -1130344.92645  24124388.0164   24124397.3354
     -3362.8794      -2620.4134
  21964440.9554  -15980859.92348 -12240730.49047  21964439.2644   21964445.3744
      2071.3404       1614.0304
  21953615.7924  -18988683.66549 -14598640.87547  21953614.5234   21953621.1484
      1118.5444        871.5944
 00  7 15  2  6  0.0010000  0  7G20G19G22G25G11G16G 1
  20614281.0554  -23469752.21248 -17916724.64847  20614279.6274   20614284.4564
        90.6514         70.6364
  23261934.2624  -12919290.20648  -9595847.34046  23261933.3984   23261941.2994
      2390.3414       1862.5984
  21743184.3884  -16386926.07248 -12757052.81746  21743182.7054   21743189.3674
      1212.4274        944.7464
  23405929.9754   -7478500.50648  -4785458.14746  23405929.0264   23405935.1294
     -3045.5824      -2373.1794
  24143581.6084   -1664913.45347  -1051756.03645  24143580.6704   24143591.5864
     -3363.4574      -2620.8634
  21952638.8284  -16042878.45048 -12289056.58447  21952637.2324   21952643.6754
      2060.6494       1605.7004
  21947234.3674  -19022218.76749 -14624772.09647  21947232.9254   21947239.5694
      1114.5524        868.4824
 00  7 15  2  6 30.0010000  0  7G20G19G22G25G11G16G 1
  20613813.3054  -23472209.68048 -17918639.56247  20613811.8664   20613816.8284
        73.0944         56.9554
  23248310.8904  -12990879.39948  -9651631.00146  23248309.9764   23248318.5084
      2382.1674       1856.2304
  21736315.1594  -16423025.75548 -12785182.37946  21736313.2674   21736319.8224
      1194.0154        930.4004
  23423326.4654   -7387077.96848  -4714219.85046  23423325.6714   23423331.9064
     -3049.3304      -2376.1004
  24162784.1234   -1564003.37447   -973125.02245  24162782.4934   24162794.5784
     -3364.0724      -2621.3424
  21940905.8734  -16104535.43848 -12337100.95347  21940904.2744   21940910.9884
      2049.7404       1597.1984
  21940883.1414  -19055594.89349 -14650779.44147  21940881.7434   21940888.0724
      1110.4604        865.2924
 00  7 15  2  7  0.0010000  0  7G20G19G22G25G11G16G 1
  20613446.3094  -23474140.09048 -17920143.77747  20613444.7394   20613449.6074
        54.5754         42.5274
  23234734.8314  -13062223.10348  -9707223.36246  23234733.4774   23234742.0514
      2373.0564       1849.1314
  21729550.6474  -16458572.13948 -12812880.80347  21729548.8954   21729555.4064
      1174.6084        915.2774
  23440745.2064   -7295544.07948  -4642894.78746  23440744.4054   23440750.8134
     -3053.9414      -2379.6914
  24181988.4374   -1463078.12947   -894482.23845  24181987.5934   24182000.0384
     -3365.3964      -2622.3784
  21929235.0324  -16165863.97848 -12384889.38347  21929233.5854   21929240.3944
      2037.8574       1587.9404
  21934555.1434  -19088847.96748 -14676690.90347  21934553.8114   21934560.0674
      1105.4214        861.3664
 00  7 15  2  7 30.0010000  0  7G20G19G22G25G11G16G 1
  20613185.3584  -23475511.51148 -17921212.42047  20613183.8664   20613188.8584
        36.6994         28.5964
  23221211.0294  -13133289.99048  -9762600.03146  23221210.0204   23221218.5364
      2364.5624       1842.5114
  21722897.8444  -16493532.43548 -12840122.53046  21722896.0434   21722902.5894
      1155.7914        900.6154
  23458190.7574   -7203870.05848  -4571460.53446  23458189.8324   23458195.5574
     -3057.8334      -2382.7264
  24201204.0264   -1362109.53547   -815805.65745  24201202.9944   24201213.3694
     -3365.9894      -2622.8434
  21917634.0684  -16226831.34348 -12432396.38347  21917632.1894   21917638.5534
      2026.5134       1579.0994
  21928256.2994  -19121946.92348 -14702482.27447  21928255.0484   21928261.5394
      1101.0304        857.9444
 00  7 15  2  8  0.0010000  0  7G20G19G22G25G11G16G 1
  20613020.3374  -23476379.35648 -17921888.66947  20613018.8054   20613023.6844
        18.8624         14.6984
  23207729.6064  -13204135.51548  -9817804.22446  23207728.5404   23207736.7094
      2356.2024       1835.9994
  21716346.2224  -16527961.52148 -12866950.33146  21716344.4354   21716350.5114
      1137.0754        886.0314
  23475650.9444   -7112114.33448  -4499962.60246  23475649.9954   23475655.9694
     -3061.4684      -2385.5584
  24220415.1934   -1261157.41847   -737141.87845  24220413.3934   24220423.8364
     -3366.3914      -2623.1554
  21906090.8394  -16287491.76248 -12479664.21547  21906088.9994   21906095.0694
      2015.2474       1570.3214
  21921976.2754  -19154948.15048 -14728197.49247  21921975.0214   21921981.5514
      1096.7944        854.6434
 00  7 15  2  8 30.0010000  0  7G20G19G22G25G11G16G 1
  20612970.6204  -23476640.33948 -17922092.03547  20612969.1164   20612974.0314
          .6334           .4944
  23194309.5024  -13274656.76448  -9872755.72446  23194308.5494   23194316.7634
      2347.3634       1829.1104
  21709915.0634  -16561755.04348 -12893282.88446  21709913.4454   21709919.9634
      1117.8564        871.0544
  23493145.9914   -7020176.46548  -4428322.75346  23493145.3034   23493151.3274
     -3065.5434      -2388.7334
  24239640.5924   -1160122.14747   -658413.28245  24239639.7264   24239650.6964
     -3367.0954      -2623.7034
  21894625.5344  -16347740.42148 -12526611.19847  21894623.8864   21894629.9324
      2003.4844       1561.1564
  21915734.2424  -19187749.15748 -14753756.69547  21915733.0334   21915739.5334
      1092.1164        851.0004
 00  7 15  2  9  0.0010000  0  7G20G19G22G25G11G16G 1
  20613008.8144  -23476438.99748 -17921935.14747  20613007.2934   20613012.2924
       -15.9384        -12.4204
  23180923.6894  -13344998.60648  -9927567.43846  23180922.8584   23180931.1694
      2340.2274       1823.5514
  21703577.9354  -16595056.09048 -12919231.67646  21703576.1794   21703582.9414
      1100.2194        857.3134
  23510648.0284   -6928203.85048  -4356655.82846  23510647.2374   23510652.7334
     -3067.7954      -2390.4884
  24258854.1334   -1059152.05247   -579735.49445  24258853.5394   24258864.4464
     -3366.0634      -2622.8974
  21883211.3774  -16407720.68048 -12573349.03547  21883209.7674   21883216.3954
      1993.3554       1553.2634
  21909502.9584  -19220495.45248 -14779273.26847  21909501.6624   21909507.7714
      1089.1634        848.6974
 00  7 15  2  9 30.0010000  0  7G20G19G22G25G11G16G 1
  20613151.4944  -23475689.14448 -17921350.84847  20613149.9394   20613154.8594
       -33.7414        -26.2904
  23167588.7944  -13415075.18948  -9982172.45246  23167587.5474   23167595.9084
      2331.8334       1817.0084
  21697351.2304  -16627777.57648 -12944728.87446  21697349.6574   21697356.0764
      1081.3424        842.6004
  23528172.6264   -6836113.20848  -4284896.93046  23528171.8484   23528177.5944
     -3071.2514      -2393.1824
  24278072.1924    -958165.09247   -501044.60345  24278071.2644   24278081.7224
     -3366.1294      -2622.9544
  21871865.2654  -16467344.89748 -12619809.43747  21871863.6374   21871870.3504
      1981.8984       1544.3354
  21903298.3644  -19253101.77748 -14804680.77647  21903297.0624   21903302.9004
      1084.9404        845.4064
 00  7 15  2 10  0.0010000  0  7G20G19G22G25G11G16G 1
  20613395.9604  -23474404.70648 -17920349.98747  20613394.6104   20613399.4264
       -53.9564        -42.0464
  23154301.0874  -13484900.78848 -10036581.89146  23154300.1054   23154308.7284
      2321.0934       1808.6384
  21691232.2414  -16659932.40548 -12969784.52346  21691230.5904   21691237.3774
      1060.0854        826.0364
  23545716.0444   -6743920.90848  -4213058.81646  23545715.1714   23545721.1364
     -3076.9514      -2397.6224
  24297289.8314    -857178.83947   -422354.24945  24297288.7334   24297299.6304
     -3368.4304      -2624.7444
  21860584.9634  -16526625.56748 -12666002.13547  21860583.0694   21860589.8254
      1968.0694       1533.5584
  21897117.8404  -19285582.65148 -14829990.52547  21897116.3414   21897122.1544
      1078.3934        840.3054
 00  7 15  2 10 30.0010000  0  7G20G19G22G25G11G16G 1
  20613739.5154  -23472601.16548 -17918944.63847  20613738.0494   20613742.7934
       -67.5374        -52.6264
  23141059.2954  -13554491.16448 -10090808.04746  23141057.9474   23141066.2904
      2316.9694       1805.4274
  21685218.2784  -16691535.53148 -12994410.26746  21685216.6054   21685223.5024
      1045.4054        814.5994
  23563275.3114   -6651645.35048  -4141155.83446  23563274.6864   23563281.1444
     -3075.9644      -2396.8534
  24316503.1604    -756212.85047   -343679.67445  24316502.3544   24316512.8964
     -3363.9804      -2621.2724
  21849366.7964  -16585577.34248 -12711938.55747  21849365.3064   21849371.7154
      1960.8074       1527.9014
  21890957.5774  -19317954.41548 -14855215.25647  21890956.2974   21890962.2494
      1078.5124        840.3994
 00  7 15  2 11  0.0010000  0  7G20G19G22G25G11G16G 1
  20614185.5574  -23470258.86649 -17917119.47147  20614183.8594   20614188.7764
       -88.6554        -69.0824
  23127864.2154  -13623826.74148 -10144835.66546  23127863.2634   23127871.6004
      2305.2964       1796.3314
  21679313.7244  -16722566.25648 -13018589.99146  21679311.9774   21679318.5864
      1023.1524        797.2584
  23580853.8284   -6559269.61948  -4069174.78646  23580853.1054   23580859.5094
     -3082.4164      -2401.8814
  24335715.2654    -655250.92647   -265008.26045  24335713.7454   24335725.3324
     -3366.9344      -2623.5744
  21838215.7774  -16644178.45649 -12757601.74147  21838214.0164   21838220.4514
      1945.9284       1516.3064
  21884821.6174  -19350198.33749 -14880340.37347  21884820.4084   21884826.6814
      1071.0894        834.6144
 00  7 15  2 11 30.0010000  0  7G20G19G22G25G11G16G 1
  20614735.6484  -23467366.90949 -17914866.00447  20614734.0494   20614739.1894
      -103.7154        -80.8174
  23114720.6074  -13692896.95448 -10198656.50546  23114719.2964   23114727.6934
      2299.7894       1792.0424
  21673519.6534  -16753012.22648 -13042314.06747  21673517.9724   21673524.7464
      1006.9224        784.6134
  23598452.6024   -6466785.86248  -3997109.57546  23598451.6544   23598458.6794
     -3082.7344      -2402.1314
  24354927.6104    -554286.19947   -186334.67345  24354926.9824   24354938.0134
     -3363.6634      -2621.0304
  21827133.0744  -16702417.08349 -12802982.47147  21827131.3604   21827137.4134
      1937.0604       1509.3974
  21878712.3414  -19382304.38949 -14905358.06147  21878710.9224   21878716.9974
      1069.7434        833.5654
 00  7 15  2 12  0.0010000  0  7G20G19G22G25G11G16G 1
  20615377.3344  -23463996.10649 -17912239.41147  20615375.7274   20615380.5924
      -118.9354        -92.6774
  23101613.9074  -13761772.90248 -10252325.97346  23101612.8434   23101620.7594
      2294.0684       1787.5814
  21667824.1794  -16782943.25648 -13065636.88847  21667822.5294   21667829.0624
       990.5064        771.8214
  23616058.2504   -6374267.44548  -3925017.34346  23616057.6444   23616064.0774
     -3083.0444      -2402.3694
  24374128.2424    -453392.94547   -107716.78945  24374126.7064   24374138.6984
     -3360.4254      -2618.5094
  21816105.8114  -16760362.34148 -12848134.60147  21816104.2794   21816110.6654
      1928.0414       1502.3694
  21872615.2724  -19414343.92349 -14930323.91647  21872614.1074   21872620.1464
      1068.3164        832.4544
 00  7 15  2 12 30.0010000  0  7G20G19G22G25G11G16G 1
  20616109.7814  -23460145.93849 -17909239.28447  20616108.2224   20616113.1974
      -138.1724       -107.6664
  23088544.3604  -13830454.59448 -10305844.07946  23088543.3394   23088551.1204
      2284.3414       1780.0024
  21662226.8434  -16812358.15848 -13088557.53247  21662225.0834   21662231.4594
       970.0164        755.8544
  23633670.6944   -6281716.16348  -3852899.50246  23633669.8274   23633675.9834
     -3087.3604      -2405.7364
  24393313.5414    -352574.70147    -29157.32545  24393312.4664   24393323.1354
     -3361.1634      -2619.0854
  21805134.9364  -16818012.41148 -12893056.71347  21805133.4204   21805140.1334
      1914.8994       1492.1294
  21866531.0104  -19446316.98049 -14955237.97847  21866529.8304   21866535.8624
      1062.8234        828.1744
 00  7 15  2 13  0.0010000  0  7G20G19G22G25G11G16G 1
  20616943.9404  -23455763.80949 -17905824.64447  20616942.3034   20616946.9894
      -152.7874       -119.0564
  23075521.3694  -13898889.29548 -10359169.73046  23075520.3574   23075528.7234
      2279.1914       1775.9894
  21656737.4204  -16841203.63048 -13111034.46847  21656735.8804   21656742.2064
       954.1344        743.4794
  23651297.4134   -6189081.96548  -3780717.06646  23651296.8334   23651304.0274
     -3086.9644      -2405.4244
  24412494.1804    -251782.55947     49381.79545  24412492.9814   24412504.4994
     -3357.1194      -2615.9234
  21794230.7434  -16875313.42848 -12937706.83447  21794229.2674   21794235.8474
      1906.3724       1485.4844
  21860469.3444  -19478171.63249 -14980059.77747  21860468.0344   21860474.2414
      1062.0394        827.5634
 00  7 15  2 13 30.0010000  0  7G20G19G22G25G11G16G 1
  20617860.3744  -23450947.52849 -17902071.69947  20617858.8114   20617863.7084
      -169.2604       -131.8924
  23062527.5824  -13967174.76048 -10412379.08446  23062526.1154   23062533.8304
      2272.2004       1770.5424
  21651338.3474  -16869576.30848 -13133142.98047  21651336.6074   21651342.7884
       936.3304        729.6054
  23668922.9984   -6096465.40548  -3708548.37746  23668921.9934   23668928.8534
     -3088.3444      -2406.5014
  24431649.8514    -151117.85647    127821.59945  24431648.6674   24431660.9514
     -3354.8404      -2614.1554
  21783375.0464  -16932361.42048 -12982159.79547  21783373.6094   21783380.4294
      1895.9004       1477.3244
  21854411.0364  -19510006.30749 -15004866.00647  21854409.7004   21854415.9014
      1059.3514        825.4694
 00  7 15  2 14  0.0010000  0  7G20G19G22G25G11G16G 1
  20618861.0774  -23445688.23049 -17897973.55147  20618859.6774   20618864.2994
      -183.9044       -143.3014
  23049562.7634  -14035302.49448 -10465465.53246  23049561.7694   23049569.5494
      2267.1314       1766.5934
  21646030.8734  -16897466.13848 -13154875.26247  21646029.2494   21646035.7844
       920.3434        717.1484
  23686545.5544   -6003860.74048  -3636388.93646  23686544.7094   23686550.6094
     -3087.7944      -2406.0724
  24450782.1754     -50575.26547    206166.21345  24450781.2594   24450792.9984
     -3350.5374      -2610.7984
  21772569.8764  -16989145.91648 -13026407.43347  21772568.2204   21772574.8424
      1887.2054       1470.5494
  21848358.5044  -19541812.83449 -15029650.30147  21848357.1434   21848363.0974
      1058.5594        824.8524
 00  7 15  2 14 30.0010000  0  7G20G19G22G25G11G16G 1
  20619967.1844  -23439876.84349 -17893445.20447  20619965.5104   20619970.3994
      -202.2644       -157.6074
  23036649.1304  -14103163.69948 -10518344.29846  23036647.7794   23036655.8474
      2258.2364       1759.6604
  21640836.4344  -16924762.73048 -13176145.26347  21640834.7224   21640841.3274
       900.5444        701.7204
  23704185.4094   -5911161.21848  -3564155.58746  23704184.5374   23704190.5704
     -3090.9264      -2408.5114
  24469911.8654      49950.80047    284497.94645  24469911.6074   24469922.4524
     -3349.9414      -2610.3364
  21761835.3124  -17045556.61149 -13070363.80047  21761833.7604   21761840.1324
      1874.7324       1460.8304
  21842331.7794  -19573482.48649 -15054327.94347  21842330.4344   21842336.5674
      1054.0044        821.3004
 00  7 15  2 15  0.0010000  0  7G20G19G22G25G11G16G 1
  20621167.2744  -23433570.42749 -17888531.12247  20621165.7244   20621170.5134
      -218.6414       -170.3694
  23023775.1834  -14170815.65148 -10571060.01346  23023774.0134   23023782.1064
      2251.4224       1754.3544
  21635743.8834  -16951522.81748 -13196997.22547  21635742.4614   21635748.7784
       882.8454        687.9304
  23721832.1244   -5818426.24448  -3491894.60946  23721831.2834   23721837.7914
     -3091.8994      -2409.2704
  24489027.4744     150399.21747    362769.24445  24489025.1814   24489037.3944
     -3347.1224      -2608.1404
  21751161.6884  -17101648.87049 -13114072.04047  21751160.0104   21751166.1174
      1864.3054       1452.7044
  21836320.3084  -19605073.13449 -15078944.02147  21836319.1634   21836324.8924
      1051.5754        819.4094
 00  7 15  2 15 30.0010000  0  7G20G19G22G25G11G16G 1
  20622461.9424  -23426767.11849 -17883229.84947  20622460.1724   20622465.1014
      -235.8464       -183.7754
  23010941.5794  -14238256.57848 -10623611.29846  23010940.4474   23010948.6794
      2243.7294       1748.3594
  21630754.1884  -16977743.95048 -13217429.22147  21630752.5574   21630759.1384
       864.2184        673.4144
  23739485.7624   -5725656.44248  -3419606.50846  23739484.8044   23739491.5874
     -3093.6354      -2410.6214
  24508127.7774     250768.43647    440978.81945  24508126.5144   24508136.5234
     -3345.0434      -2606.5164
  21740548.5084  -17157419.62749 -13157529.75547  21740546.7804   21740553.1774
      1852.9124       1443.8284
  21830324.1414  -19636583.41149 -15103497.47847  21830322.8324   21830328.5784
      1048.2754        816.8374
 00  7 15  2 16  0.0010000  0  7G20G19G22G25G11G16G 1
  20623866.2144  -23419385.56449 -17877477.99647  20623864.6974   20623869.8654
      -255.6004       -199.1694
  22998163.4774  -14305405.43948 -10675934.99546  22998162.7384   22998170.4744
      2233.5024       1740.3894
  21625882.7124  -17003343.39348 -13237376.77547  21625881.1364   21625887.6224
       842.9784        656.8634
  23757160.5514   -5632772.91648  -3347229.80346  23757159.7814   23757166.5444
     -3097.9084      -2413.9504
  24527226.8834     351136.35847    519187.35245  24527225.1634   24527237.2184
     -3345.4644      -2606.8424
  21730012.4704  -17212785.96149 -13200672.33547  21730011.1184   21730017.0704
      1838.9124       1432.9184
  21824358.7654  -19667932.57949 -15127925.39247  21824357.5674   21824363.2234
      1042.4074        812.2664
 00  7 15  2 16 30.0010000  0  7G20G19G22G25G11G16G 1
  20625382.3644  -23411418.48149 -17871269.88647  20625380.7924   20625385.7084
      -275.6494       -214.7904
  22985442.7394  -14372254.72548 -10728025.24446  22985441.3504   22985449.3634
      2223.0034       1732.2074
  21621131.3604  -17028312.60048 -13256833.23847  21621129.8484   21621136.1554
       821.4544        640.0924
  23774858.7314   -5539770.89248  -3274760.75846  23774857.8714   23774863.5884
     -3102.3034      -2417.3794
  24546327.5804     451506.80747    597397.82145  24546325.5594   24546337.7234
     -3345.9794      -2607.2474
  21719555.1744  -17267738.39249 -13243492.38947  21719553.8014   21719559.9554
      1824.5314       1421.7134
  21818425.3364  -19699113.47749 -15152222.18447  21818423.9744   21818429.6454
      1036.2694        807.4824
 00  7 15  2 17  0.0010000  0  7G20G19G22G25G11G16G 1
  20627008.3214  -23402876.21749 -17864613.58847  20627006.4014   20627011.0744
      -293.6914       -228.8494
  22972776.5314  -14438815.10448 -10779890.38046  22972775.3814   22972783.3534
      2214.5124       1725.5894
  21616498.0954  -17052661.10548 -13275806.03647  21616496.4214   21616502.9564
       801.8764        624.8364
  23792576.3024   -5446663.25548  -3202209.39746  23792575.3114   23792581.9314
     -3104.6484      -2419.2034
  24565424.7334     551865.82247    675599.39445  24565423.2984   24565435.5624
     -3344.4634      -2606.0704
  21709175.3364  -17322286.26049 -13285997.20947  21709173.8664   21709179.8204
      1812.1464       1412.0624
  21812521.3914  -19730137.25449 -15176396.54847  21812520.1164   21812526.1254
      1032.1854        804.3004
 00  7 15  2 17 30.0010000  0  7G20G19G22G25G11G16G 1
  20628748.2784  -23393731.72949 -17857488.02747  20628746.6234   20628751.2274
      -313.8154       -244.5304
  22960170.4714  -14505059.72848 -10831509.47246  22960169.2994   22960177.5314
      2203.9424       1717.3544
  21611987.9124  -17076361.28048 -13294273.65247  21611986.4424   21611993.0204
       780.2174        607.9604
  23810319.3224   -5353425.03548  -3129556.28846  23810318.1804   23810324.4094
     -3109.0274      -2422.6184
  24584525.0644     652236.95547    753810.43645  24584523.7884   24584534.7344
     -3344.8714      -2606.3754
  21698877.5664  -17376400.66649 -13328164.25947  21698875.9304   21698882.4614
      1797.6164       1400.7394
  21806652.7394  -19760977.28449 -15200427.72847  21806651.6584   21806657.8304
      1026.0034        799.4834
 00  7 15  2 18  0.0010000  0  7G20G19G22G25G11G16G 1
  20630586.0224  -23384074.00149 -17849962.53847  20630584.3734   20630589.0654
      -332.5774       -259.1514
  22947607.7944  -14571077.62048 -10882951.89546  22947606.5664   22947614.3234
      2194.7174       1710.1674
  21607584.7344  -17099501.32748 -13312304.80247  21607583.0234   21607589.3954
       759.8384        592.0794
  23828068.9424   -5260147.52648  -3056872.55346  23828068.0074   23828073.9944
     -3111.9684      -2424.9114
  24603609.6394     752528.08547    831959.15745  24603608.8314   24603620.2764
     -3343.7884      -2605.5394
  21688645.7334  -17430168.98149 -13370061.63047  21688644.1474   21688650.8374
      1784.4124       1390.4504
  21800801.9714  -19791722.69749 -15224385.18147  21800800.6434   21800807.2164
      1021.2054        795.7444
 00  7 15  2 18 30.0010000  0  7G20G19G22G25G11G16G 1
  20632519.6394  -23373911.86249 -17842044.00347  20632518.1194   20632522.7754
      -346.8544       -270.2764
  22935086.2044  -14636877.76448 -10934224.64146  22935085.1714   22935092.7184
      2189.9884       1706.4804
  21603286.3534  -17122089.02848 -13329905.55947  21603284.6684   21603290.9054
       743.9534        579.7014
  23845824.1944   -5166842.23148  -2984167.21446  23845823.3384   23845830.3424
     -3110.2984      -2423.6064
  24622676.2304     852726.70347    910035.74545  24622675.7634   24622687.2304
     -3338.0634      -2601.0884
  21678478.2084  -17483598.76549 -13411695.20747  21678476.7034   21678483.6984
      1775.6524       1383.6244
  21794967.5134  -19822382.84549 -15248276.19947  21794966.3944   21794972.6804
      1020.9024        795.5074
 00  7 15  2 19  0.0010000  0  7G20G19G22G25G11G16G 1
  20634558.4354  -23363197.20249 -17833694.92847  20634557.0104   20634561.7894
      -368.6274       -287.2414
  22922615.3794  -14702411.86948 -10985290.09146  22922614.3144   22922621.9634
      2177.7424       1696.9384
  21599102.1284  -17144074.99048 -13347037.43147  21599100.6014   21599106.8314
       720.5004        561.4274
  23863594.7894   -5073463.38348  -2911404.54946  23863593.7244   23863600.1904
     -3116.0984      -2428.1254
  24641734.0564     952877.71647    988075.25745  24641733.1324   24641746.9764
     -3339.8314      -2602.4544
  21668385.1564  -17536640.06449 -13453026.06747  21668383.3204   21668390.4774
      1759.2464       1370.8404
  21789158.4534  -19852909.88049 -15272063.48747  21789157.0584   21789163.6284
      1013.0874        789.4194
 00  7 15  2 19 30.0010000  0  7G20G19G22G25G11G16G 1
  20636712.6224  -23351878.49049 -17824875.16447  20636711.0784   20636715.6784
      -385.0484       -300.0364
  22910204.9634  -14767628.43048 -11036108.09246  22910203.7884   22910211.8144
      2170.9244       1691.6254
  21595042.6194  -17165406.75248 -13363659.53147  21595041.1144   21595047.7314
       702.4294        547.3474
  23881388.0544   -4979961.72748  -2838546.17046  23881386.9234   23881392.5804
     -3116.4034      -2428.3644
  24660792.7894    1053029.41247   1066115.27345  24660792.5624   24660804.3104
     -3336.1114      -2599.5564
  21658375.8264  -17589239.12049 -13494012.32347  21658374.1844   21658380.8144
      1748.2664       1362.2854
  21783383.9784  -19883252.47849 -15295707.06547  21783383.0304   21783389.6944
      1010.6834        787.5454
 00  7 15  2 20  0.0010000  0  7G20G19G22G25G11G16G 1
  20638962.3294  -23340057.44949 -17815663.97447  20638960.5174   20638965.1544
      -403.0254       -314.0464
  22897835.8394  -14832629.39548 -11086758.09946  22897834.6454   22897842.2344
      2162.4784       1685.0434
  21591088.5744  -17186185.53848 -13379850.74647  21591086.9264   21591093.7434
       682.7354        531.9994
  23899183.2634   -4886441.00248  -2765672.93046  23899182.5714   23899188.9314
     -3118.2744      -2429.8224
  24679832.7604    1153076.50347   1144073.80645  24679831.3524   24679844.4184
     -3333.7934      -2597.7584
  21648431.7074  -17641496.80849 -13534732.58247  21648430.0484   21648436.3894
      1735.5934       1352.4094
  21777626.0004  -19913512.66049 -15319286.41847  21777624.7064   21777631.3394
      1006.6694        784.4174
 00  7 15  2 20 30.0010000  0  7G20G19G22G25G11G16G 1
  20641316.7104  -23327684.29449 -17806022.56347  20641315.0594   20641319.7534
      -420.8164       -327.9094
  22885516.6124  -14897364.86048 -11137201.22946  22885515.6154   22885523.4354
      2154.2444       1678.6314
  21587249.4424  -17206360.89248 -13395571.75547  21587247.6714   21587253.9964
       663.2514        516.8174
  23916991.4054   -4792853.36048  -2692747.56446  23916990.3914   23916998.0554
     -3119.8434      -2431.0464
  24698859.6274    1253065.56747   1221987.10345  24698858.0564   24698870.2764
     -3331.2824      -2595.7924
  21638562.3204  -17693361.02449 -13575146.23947  21638560.5134   21638566.6644
      1723.1024       1342.6764
  21771892.9464  -19943640.81549 -15342762.89047  21771891.7414   21771898.0364
      1002.9344        781.5074
 00  7 15  2 21  0.0010000  0  7G20G19G22G25G11G16G 1
  20643772.6404  -23314776.77749 -17795964.76747  20643771.2394   20643776.0464
      -439.4294       -342.4114
  22873245.5974  -14961852.80848 -11187451.50246  22873244.3044   22873251.7084
      2145.1944       1671.5764
  21583521.8674  -17225949.24048 -13410835.34547  21583520.1084   21583526.5194
       642.8064        500.8854
  23934810.8704   -4699219.16948  -2619785.91146  23934809.9784   23934815.8894
     -3122.1364      -2432.8324
  24717872.3964    1352975.64947   1299838.87145  24717870.8014   24717884.4014
     -3329.2564      -2594.2294
  21628764.2524  -17744848.17749 -13615266.08147  21628762.8504   21628768.7164
      1709.6244       1332.1744
  21766181.5184  -19973655.09549 -15366150.62947  21766180.1624   21766186.4674
       998.2734        777.8744
 00  7 15  2 21 30.0010000  0  7G20G19G22G25G11G16G 1
  20646332.4924  -23301327.95649 -17785485.18447  20646330.5344   20646335.0434
      -455.9064       -355.2504
  22861022.6134  -15026086.08848 -11237503.31446  22861021.1834   22861028.4764
      2138.2914       1666.1984
  21579907.6904  -17244942.57148 -13425635.28647  21579905.8844   21579912.1224
       624.5454        486.6574
  23952639.4204   -4605533.53448  -2546784.16646  23952638.4694   23952644.3144
     -3122.2584      -2432.9244
  24736870.2004    1452810.43647   1377631.95745  24736868.8834   24736880.7744
     -3325.1994      -2591.0504
  21619039.8354  -17795949.50149 -13655085.28047  21619038.2134   21619044.5624
      1698.3654       1323.4014
  21760492.9544  -20003548.71649 -15389444.35047  21760491.7234   21760497.9974
       995.8504        775.9884
 00  7 15  2 22  0.0010000  0  7G20G19G22G25G11G16G 1
  20649001.5164  -23287297.30749 -17774552.22447  20649000.1274   20649005.1664
      -477.6464       -372.1924
  22848854.8794  -15090024.14848 -11287325.09646  22848853.6844   22848861.2404
      2126.0954       1656.6954
  21576414.2744  -17263299.64948 -13439939.44747  21576412.7224   21576418.8284
       600.9734        468.2894
  23970483.2524   -4511757.76548  -2473712.20346  23970482.2794   23970489.9864
     -3127.6144      -2437.1004
  24755861.0944    1552607.38647   1455395.56845  24755859.6724   24755872.1674
     -3326.1964      -2591.8334
  21609397.1214  -17846622.89549 -13694571.02547  21609395.5384   21609401.8454
      1681.6914       1310.4084
  21754835.3214  -20033281.41149 -15412612.67747  21754834.0104   21754839.7974
       988.1204        769.9644
 00  7 15  2 22 30.0010000  0  7G20G19G22G25G11G16G 1
  20651777.7954  -23272709.43249 -17763185.06347  20651776.2664   20651781.1774
      -496.6124       -386.9684
  22836738.8854  -15153691.91948 -11336936.26546  22836738.1684   22836746.0644
      2116.6984       1649.3744
  21573037.7634  -17281044.62048 -13453766.64247  21573035.9504   21573042.1564
       580.1614        452.0714
  23988340.0764   -4417918.84448  -2400591.04246  23988339.2484   23988346.0624
     -3130.0574      -2439.0044
  24774839.6324    1652338.51647   1533107.90945  24774837.9204   24774850.6254
     -3324.3024      -2590.3514
  21599831.2754  -17896890.78049 -13733740.78747  21599829.8654   21599836.2534
      1667.7914       1299.5774
  21749203.3004  -20062878.07149 -15435675.00047  21749201.8834   21749207.5284
       983.2514        766.1684
 00  7 15  2 23  0.0010000  0  7G20G19G22G25G11G16G 1
  20654660.3124  -23257561.99249 -17751381.87747  20654658.8664   20654663.6154
      -514.4414       -400.8624
  22824675.5364  -15217086.99348 -11386334.94046  22824674.4164   22824682.0514
      2108.4364       1642.9354
  21569777.9244  -17298174.39748 -13467114.46647  21569776.1494   21569782.3994
       560.4914        436.7444
  24006208.6714   -4324016.62848  -2327420.57646  24006207.4714   24006215.4554
     -3131.2964      -2439.9674
  24793804.7534    1752003.06847   1610768.34645  24793803.8104   24793816.0434
     -3321.2234      -2587.9664
  21590343.9304  -17946749.65249 -13772591.83847  21590342.2444   21590348.7464
      1654.9634       1289.5814
  21743597.6444  -20092336.25849 -15458629.42047  21743596.2804   21743601.7704
       979.4784        763.2294
 00  7 15  2 23 30.0010000  0  7G20G19G22G25G11G16G 1
  20657648.0464  -23241860.88449 -17739147.26647  20657646.6474   20657651.7084
      -532.1984       -414.6974
  22812662.6094  -15280214.88648 -11435525.41946  22812661.6414   22812669.2034
      2100.1974       1636.5164
  21566634.3294  -17314693.36048 -13479986.34047  21566632.8164   21566639.0204
       540.7744        421.3824
  24024089.4354   -4230058.70048  -2254206.67646  24024088.5074   24024094.2254
     -3132.4034      -2440.8314
  24812756.2374    1851592.16647   1688369.96645  24812754.7784   24812768.3534
     -3317.9964      -2585.4484
  21580933.1664  -17996202.98949 -13811126.88547  21580931.5204   21580937.9534
      1642.1064       1279.5634
  21738017.1864  -20121661.88549 -15481480.54847  21738015.7164   21738021.0244
       975.7694        760.3404
 00  7 15  2 24  0.0010000  0  7G20G19G22G25G11G16G 1
  20660730.7204  -23225663.52949 -17726525.96447  20660728.9504   20660733.7594
      -547.9484       -426.9724
  22800689.5434  -15343133.09248 -11484552.50046  22800688.2844   22800696.1084
      2093.9944       1631.6804
  21563596.6804  -17330658.08448 -13492426.34147  21563594.8534   21563600.9074
       523.0694        407.5854
  24041968.8094   -4136104.81348  -2180995.87346  24041967.8054   24041973.7864
     -3131.4444      -2440.0864
  24831681.7174    1951045.19247   1765865.59945  24831680.0564   24831692.8374
     -3312.6054      -2581.2554
  21571588.7604  -18045306.67049 -13849389.47647  21571587.3604   21571593.7704
      1631.2064       1271.0684
  21732450.6314  -20150912.68749 -15504273.37347  21732449.2174   21732454.5504
       974.0034        758.9634
 00  7 15  2 24 30.0010000  0  7G20G19G22G25G11G16G 1
  20663914.2784  -23208931.53849 -17713488.06647  20663912.8164   20663917.8414
      -569.8064       -444.0034
  22788763.8974  -15405803.48448 -11533386.48246  22788762.7624   22788770.0194
      2081.7104       1622.1104
  21560671.1924  -17346029.64748 -13504404.13947  21560669.5624   21560675.9314
       499.2874        389.0554
  24059853.1894   -4042118.41048  -2107759.77146  24059851.9624   24059859.7354
     -3136.5774      -2444.0844
  24850588.3404    2050397.32947   1843282.58545  24850587.4724   24850600.0084
     -3313.2294      -2581.7194
  21562318.7424  -18094020.75249 -13887348.48347  21562317.3024   21562323.8814
      1614.1454       1257.7754
  21726905.9044  -20180050.10349 -15526977.84547  21726904.6494   21726909.9334
       966.1974        752.8814
 00  7 15  2 25  0.0010000  0  7G20G19G22G25G11G16G 1
  20667211.1574  -23191606.40349 -17699987.97647  20667209.7334   20667214.6864
      -584.6974       -455.6084
  22776896.5324  -15468167.09848 -11581981.42046  22776895.2204   22776902.6324
      2076.3764       1617.9524
  21557870.3034  -17360748.87548 -13515873.62847  21557868.5734   21557875.1374
       482.3554        375.8604
  24077754.4154   -3948042.37548  -2034453.86046  24077753.6114   24077761.6594
     -3134.6524      -2442.5814
  24869486.1374    2149704.63447   1920664.63245  24869485.0514   24869496.9414
     -3306.8264      -2576.7314
  21553134.9384  -18142284.27349 -13924956.40747  21553133.2174   21553139.5274
      1603.9644       1249.8424
  21721394.2274  -20209015.34949 -15549548.16047  21721392.7244   21721398.0534
       965.3534        752.2224
 00  7 15  2 25 30.0010000  0  7G20G19G22G25G11G16G 1
  20670599.9154  -23173797.70449 -17686111.08447  20670598.5394   20670603.7144
      -603.6384       -470.3694
  22765066.4214  -15530333.37648 -11630422.58446  22765065.2084   22765072.6004
      2066.9604       1610.6154
  21555173.0874  -17374924.48648 -13526919.52247  21555171.1884   21555177.6194
       461.4524        359.5724
  24095653.5464   -3853988.83748  -1961165.48046  24095652.0434   24095659.3184
     -3136.6494      -2444.1394
  24888353.8994    2248854.19447   1997923.77945  24888351.7614   24888365.5454
     -3304.3424      -2574.7954
  21544015.5664  -18190205.26149 -13962297.42047  21544013.8754   21544020.2534
      1589.7144       1238.7384
  21715894.0574  -20237918.25649 -15572069.89947  21715892.7094   21715898.1294
       960.4414        748.3964
 00  7 15  2 26  0.0010000  0  7G20G19G22G25G11G16G 1
  20674105.2914  -23155377.26849 -17671757.51447  20674103.6274   20674108.8644
      -624.8014       -486.8574
  22753298.3114  -15592173.97248 -11678609.96646  22753297.3084   22753304.5374
      2055.3384       1601.5604
  21552603.2884  -17388427.10748 -13537440.99647  21552601.4994   21552608.0254
       438.2394        341.4854
  24113571.5764   -3759831.54748  -1887796.24146  24113570.6764   24113576.6434
     -3140.8314      -2447.4014
  24907215.8454    2347971.12947   2075157.52845  24907213.7974   24907226.1484
     -3303.9104      -2574.4604
  21534986.3144  -18237653.50649 -13999270.05747  21534984.5604   21534991.1314
      1573.1474       1225.8294
  21710430.2794  -20266630.52949 -15594443.08547  21710428.8044   21710434.4494
       953.3254        742.8514
 00  7 15  2 26 30.0010000  0  7G20G19G22G25G11G16G 1
  20677729.3494  -23136332.42749 -17656917.39447  20677727.7844   20677732.9974
      -646.1354       -503.4814
  22741594.7574  -15653676.44448 -11726533.88646  22741593.8234   22741601.0314
      2043.5374       1592.3654
  21550164.2554  -17401243.14648 -13547427.47747  21550162.7314   21550169.0894
       414.8214        323.2354
  24131510.3584   -3665559.64748  -1814337.64546  24131509.4184   24131515.9394
     -3145.1734      -2450.7844
  24926072.0584    2447065.26247   2152373.49145  24926071.2694   24926084.2944
     -3303.6734      -2574.2804
  21526049.5414  -18284614.75949 -14035863.21947  21526048.1444   21526054.6934
      1556.3594       1212.7474
  21705005.0954  -20295139.52049 -15616657.86847  21705003.7304   21705009.5934
       946.0294        737.1654
 00  7 15  2 27  0.0010000  0  7G20G19G22G25G11G16G 1
  20681464.4994  -23116705.39449 -17641623.62047  20681463.0894   20681468.0874
      -662.4644       -516.2054
  22729948.0274  -15714882.67748 -11774226.96946  22729946.6124   22729953.8854
      2036.7364       1587.0634
  21547848.4034  -17413414.27248 -13556911.43847  21547846.6644   21547852.9174
       396.3884        308.8714
  24149461.9694   -3571216.73748  -1740823.76146  24149461.0704   24149468.4784
     -3144.4324      -2450.2034
  24944916.5804    2546091.54547   2229536.57545  24944916.0614   24944928.6714
     -3298.2824      -2570.0794
  21517198.3904  -18331129.34549 -14072108.33247  21517196.8254   21517203.3564
      1544.4934       1203.4994
  21699610.6904  -20323487.41649 -15638747.12847  21699609.4744   21699615.3084
       943.7224        735.3674
 00  7 15  2 27 30.0010000  0  7G20G19G22G25G11G16G 1
  20685302.5794  -23096536.30449 -17625907.46347  20685301.0684   20685306.1624
      -679.8614       -529.7614
  22718349.2944  -15775832.50248 -11821720.26146  22718348.1024   22718355.4984
      2028.8544       1580.9214
  21545647.3254  -17424980.23548 -13565923.83347  21545645.6224   21545652.2024
       376.8774        293.6694
  24167420.7444   -3476845.09448  -1667287.49846  24167419.1784   24167427.3904
     -3144.7234      -2450.4274
  24963739.9694    2645006.99247   2306613.27145  24963738.2614   24963752.0844
     -3293.8344      -2566.6104
  21508424.7254  -18377235.42149 -14108035.12947  21508423.2744   21508429.6294
      1531.5264       1193.3964
  21694239.3554  -20351714.09749 -15660741.93347  21694238.0794   21694243.9954
       940.3564        732.7444
 00  7 15  2 28  0.0010000  0  6G20G19G22G25G16G 1
  20689237.8124  -23075857.49649 -17609794.12147  20689236.1734   20689241.2454
      -698.6244       -544.3814
  22706793.5104  -15836558.22548 -11869038.91746  22706792.1784   22706799.6314
      2019.6274       1573.7334
  21543555.6554  -17435972.23548 -13574488.99247  21543553.9354   21543560.1424
       355.9474        277.3614
  24185379.2924   -3382478.62948  -1593755.25146  24185378.2194   24185384.2874
     -3146.2514      -2451.6264
  21499723.1244  -18422963.29749 -14143667.22347  21499721.7894   21499727.9034
      1517.1394       1182.1854
  21688885.0754  -20379851.74349 -15682667.35547  21688883.6784   21688889.6924
       935.6244        729.0574
 00  7 15  2 28 30.0010000  0  6G20G19G22G25G16G 1
  20693260.3794  -23054718.01949 -17593321.82047  20693258.8564   20693263.7914
      -713.5904       -556.0434
  22695270.7094  -15897108.75748 -11916221.07646  22695269.8294   22695276.8924
      2014.1204       1569.4404
  21541564.1644  -17446438.25248 -13582644.31147  21541562.1974   21541568.7074
       338.7554        263.9654
  24203326.2004   -3288167.98748  -1520266.50546  24203325.2744   24203330.9304
     -3144.0244      -2449.8874
  21491084.7144  -18468359.82349 -14179041.12747  21491083.3224   21491089.3114
      1506.3904       1173.8094
  21683538.3114  -20407948.96349 -15704561.28047  21683536.9484   21683542.9074
       934.6224        728.2774
 00  7 15  2 29  0.0010000  0  6G20G19G22G25G16G 1
  20697391.5914  -23033009.74349 -17576406.29747  20697390.0414   20697394.8724
      -732.2294       -570.5674
  22683802.5324  -15957375.76048 -11963182.29346  22683801.1994   22683808.7974
      2005.0094       1562.3424
  21539692.9584  -17456269.15148 -13590304.72547  21539691.3574   21539697.7764
       317.9364        247.7424
  24221282.0034   -3193807.10348  -1446738.60446  24221280.9544   24221288.0224
     -3145.3394      -2450.9114
  21482530.3144  -18513315.56949 -14214071.55947  21482528.4084   21482534.5074
      1492.0694       1162.6524
  21678219.7844  -20435897.61949 -15726339.44047  21678218.4694   21678224.1544
       930.0464        724.7114
 00  7 15  2 29 30.0010000  0  6G20G19G22G25G16G 1
  20701618.1644  -23010798.46549 -17559098.82847  20701616.6414   20701621.3044
      -750.1224       -584.5124
  22672375.6244  -16017424.85748 -12009973.71347  22672374.2434   22672381.8154
      1996.6384       1555.8204
  21537931.1114  -17465530.53848 -13597521.35247  21537929.1904   21537935.2284
       297.7984        232.0494
  24239233.9354   -3099463.30948  -1373224.03446  24239233.3284   24239241.0054
     -3145.8404      -2451.3034
  21474047.0434  -18557893.70649 -14248807.75547  21474045.3904   21474051.3094
      1478.2794       1151.9054
  21672917.1354  -20463763.25249 -15748052.91047  21672915.7254   21672921.4374
       926.1214        721.6534
 00  7 15  2 30  0.0010000  0  7G20G19G22G 4G25G16G 1
  20705965.5974  -22987951.78349 -17541296.23947  20705964.1874   20705968.9434
      -772.9164       -602.2724
  22661015.4374  -16077123.28448 -12056491.88547  22661014.2554   22661021.1254
      1983.3194       1545.4404
  21536302.2854  -17474089.47148 -13604190.62447  21536300.3324   21536306.4554
       272.7864        212.5604
  25235739.0504   -2662537.30557  -1934941.87945  25235738.2974   25235746.5944
       990.3654        771.7164
  24257209.9324   -3005005.98448  -1299620.98446  24257209.4024   24257215.4534
     -3151.2004      -2455.4814
  21465661.0814  -18601960.58349 -14283145.56847  21465659.4824   21465665.7134
      1459.5664       1137.3254
  21667655.5124  -20491413.16649 -15769598.28847  21667654.1374   21667659.8984
       917.2944        714.7744
 00  7 15  2 30 30.0010000  0  7G20G19G22G 4G25G16G 1
  20710446.1644  -22964407.35149 -17522949.94447  20710444.5714   20710449.4394
      -793.2544       -618.1194
  22649733.5984  -16136408.43148 -12102688.03147  22649732.4604   22649739.3844
      1972.4574       1536.9774
  21534819.0584  -17481882.26448 -13610262.90147  21534817.3154   21534823.5384
       250.1224        194.8994
  25230146.8794   -2691929.35747  -1957844.74345  25230145.5654   25230153.8154
       972.4104        757.7144
  24275217.6364   -2910374.31248  -1225882.06146  24275216.8684   24275223.2404
     -3154.0594      -2457.7074
  21457384.7234  -18645451.27849 -14317034.39947  21457383.1264   21457389.7844
      1443.2544       1124.6124
  21662446.8564  -20518784.53049 -15790926.60947  21662445.5304   21662451.0154
       910.9234        709.8094
 00  7 15  2 31  0.0010000  0  7G20G19G22G 4G25G16G 1
  20715022.1724  -22940360.99849 -17504212.54147  20715020.4334   20715025.1914
      -809.5564       -630.8244
  22638493.3584  -16195476.07748 -12148714.69247  22638492.2094   22638499.2924
      1965.6674       1531.6874
  21533444.9544  -17489103.89348 -13615890.11147  21533443.1264   21533449.2494
       231.5084        180.3954
  25224634.8744   -2720890.98247  -1980412.23745  25224633.9574   25224642.4724
       958.4614        746.8674
  24293221.0104   -2815765.65548  -1152161.09646  24293220.1384   24293227.0814
     -3152.8394      -2456.7534
  21449181.3384  -18688559.49949 -14350625.20347  21449179.7984   21449186.3024
      1430.9384       1115.0164
  21657254.2664  -20546072.90849 -15812190.26947  21657252.8384   21657258.3064
       908.6244        708.0184
 00  7 15  2 31 30.0010000  0  7G20G19G22G 4G25G16G 1
  20719700.5144  -22915774.70549 -17485054.40247  20719698.8694   20719703.9224
      -830.5844       -647.2094
  22627301.7664  -16254287.69848 -12194541.86447  22627300.5994   22627307.9764
      1954.0834       1522.6594
  21532186.6114  -17495715.40449 -13621041.90747  21532184.9254   21532190.9254
       208.1484        162.1924
  25219212.6424   -2749383.26647  -2002613.98145  25219211.7774   25219219.2454
       939.8654        732.3644
  24311226.5364   -2721143.14948  -1078429.33146  24311226.0204   24311232.6564
     -3156.3054      -2459.4554
  21441058.5394  -18731245.50749 -14383887.01347  21441056.9254   21441063.5304
      1413.7924       1101.6564
  21652084.1224  -20573239.76849 -15833359.23547  21652082.9044   21652088.7184
       901.5354        702.4954
 00  7 15  2 32  0.0010000  0  7G20G19G22G 4G25G16G 1
  20724506.9424  -22890514.84949 -17465371.41247  20724505.6774   20724510.8554
      -851.4244       -663.4494
  22616184.4554  -16312709.61648 -12240065.38047  22616183.2394   22616190.6274
      1942.6614       1513.7594
  21531070.0534  -17501583.10449 -13625614.11447  21531068.2864   21531074.4914
       184.9184        144.0894
  25213906.8084   -2777271.93947  -2024345.39645  25213905.4484   25213912.9504
       921.2724        717.8784
  24329260.6624   -2626375.07948  -1004584.15246  24329259.6414   24329267.1284
     -3159.5074      -2461.9524
  21433042.1504  -18773373.82049 -14416714.25347  21433040.4164   21433046.5694
      1396.7074       1088.3424
  21646963.1724  -20600151.41949 -15854329.33247  21646961.7714   21646967.6474
       894.5634        697.0604
 00  7 15  2 32 30.0010000  0  7G20G19G22G 4G25G16G 1
  20729432.0944  -22864634.24349 -17445204.72247  20729430.5084   20729435.7954
      -872.3634       -679.7644
  22605131.4744  -16370794.30548 -12285326.11747  22605130.2274   22605137.2834
      1931.1964       1504.8244
  21530084.9524  -17506759.19349 -13629647.40147  21530083.2614   21530089.4884
       161.6354        125.9494
  25208704.2944   -2804609.15747  -2045647.13745  25208703.3484   25208710.4604
       902.6914        703.3954
  24347311.7904   -2531515.64948   -930667.77546  24347310.7744   24347317.8914
     -3162.7614      -2464.4874
  21425122.0144  -18814995.04849 -14449146.36847  21425120.4034   21425126.2784
      1379.5974       1075.0104
  21641880.4714  -20626860.11849 -15875141.28947  21641879.2734   21641885.0904
       887.5764        691.6174
 00  7 15  2 33  0.0010000  0  7G20G19G22G 4G25G16G 1
  20734469.3944  -22838164.07849 -17424578.63547  20734467.5534   20734473.0334
      -892.8694       -695.7434
  22594136.7034  -16428572.56948 -12330348.07247  22594135.4454   22594142.2684
      1920.1434       1496.2134
  21529225.7764  -17511273.51649 -13633165.02947  21529224.2464   21529230.3604
       138.6884        108.0684
  25203599.7654   -2831425.32446  -2066542.83544  25203599.0654   25203604.1894
       884.3794        689.1024
  24365373.4884   -2436597.69648   -856705.78446  24365373.2314   24365380.5994
     -3165.5844      -2466.6844
  21417292.9374  -18856138.00249 -14481205.80047  21417291.2554   21417297.1554
      1362.7644       1061.8934
  21636830.8194  -20653396.43949 -15895818.92847  21636829.4234   21636835.3714
       880.9824        686.4794
 00  7 15  2 33 30.0010000  0  7G20G19G22G 4G25G16G 1
  20739604.8694  -22811175.87849 -17403548.88347  20739603.3484   20739608.7774
      -907.0664       -706.8054
  22583186.2924  -16486115.57348 -12375186.70147  22583185.1664   22583191.9414
      1915.3524       1492.4794
  21528479.6714  -17515196.80849 -13636222.10947  21528477.8284   21528483.7274
       122.1024         95.1434
  25198582.6994   -2857791.22146  -2087087.66344  25198579.0424   25198588.1084
       872.6034        679.9394
  24383434.0314   -2341693.59448   -782754.56846  24383433.2684   24383439.7824
     -3162.0294      -2463.9194
  21409540.9264  -18896872.80649 -14512947.19547  21409539.4884   21409545.7294
      1352.1684       1053.6374
  21631800.6704  -20679831.48149 -15916417.64747  21631799.1684   21631804.7504
       880.6574        686.2254
 00  7 15  2 34  0.0010000  0  7G20G19G22G 4G25G16G 1
  20744843.2344  -22783646.59749 -17382097.50947  20744841.7504   20744847.3254
      -929.0604       -723.9414
  22572285.3574  -16543399.87748 -12419823.75147  22572284.0974   22572291.2714
      1902.8134       1482.7074
  21527849.6164  -17518505.30449 -13638800.12047  21527848.0934   21527854.2644
        97.6274         76.0734
  25193656.7174   -2883683.12146  -2107263.12745  25193655.4834   25193663.9704
       852.8594        664.5604
  24401495.0094   -2246782.33448   -708797.79346  24401494.2974   24401500.6474
     -3166.1994      -2467.1684
  21401872.3744  -18937173.60949 -14544350.40347  21401870.6464   21401876.8784
      1333.7544       1039.2894
  21626793.8994  -20706141.70849 -15936919.11247  21626792.4814   21626797.7474
       872.5494        679.9084
 00  7 15  2 34 30.0010000  0  7G20G19G22G 4G25G16G 1
  20750212.6774  -22755430.31749 -17360110.81547  20750211.1674   20750216.6524
      -951.2234       -741.2124
  22561461.3434  -16600279.15348 -12464145.20547  22561460.2024   22561467.4014
      1889.9554       1472.6904
  21527365.3154  -17521052.73549 -13640785.10147  21527363.4404   21527369.4594
        72.9214         56.8204
  25188847.5804   -2908953.99647  -2126954.72345  25188847.1664   25188853.6004
       832.7374        648.8864
  24419585.2124   -2151719.10248   -634722.60046  24419584.2374   24419591.4754
     -3170.5114      -2470.5284
  21394313.9874  -18976892.80349 -14575300.41047  21394312.2344   21394318.5104
      1314.9974       1024.6724
  21621838.3744  -20732180.47049 -15957209.04147  21621837.2624   21621842.8474
       864.1894        673.3934
 00  7 15  2 35  0.0010000  0  7G20G19G22G 4G25G16G 1
  20755703.1784  -22726579.87349 -17337629.96647  20755701.6054   20755706.8444
      -971.9914       -757.3964
  22550704.4964  -16656806.25548 -12508192.22447  22550703.3204   22550710.7754
      1878.6344       1463.8684
  21527014.8464  -17522891.47749 -13642217.86247  21527013.3564   21527019.5284
        49.7014         38.7284
  25184146.7934   -2933656.48447  -2146203.40345  25184145.2184   25184154.7334
       814.1454        634.4034
  24437693.6574   -2056558.16348   -560571.30546  24437692.8184   24437700.0114
     -3173.3444      -2472.7324
  21386856.3974  -19016080.92349 -14605836.58947  21386854.7874   21386861.2174
      1297.6784       1011.1764
  21616925.1244  -20758000.30549 -15977328.37247  21616923.8684   21616929.8184
       857.2764        668.0064
 00  7 15  2 35 30.0010000  0  7G20G19G22G 4G25G16G 1
  20761308.0944  -22697125.20849 -17314678.29647  20761306.4354   20761311.7074
      -992.6544       -773.4954
  22540009.1814  -16713010.96848 -12551988.04247  22540007.9604   22540015.1874
      1867.3094       1455.0464
  21526794.2664  -17524050.53049 -13643121.00347  21526792.6824   21526798.8384
        26.4514         20.6094
  25179549.9304   -2957819.57247  -2165031.81745  25179548.3944   25179556.3254
       795.5334        619.8964
  24455815.4014   -1961330.52748   -486368.00246  24455814.5034   24455821.0424
     -3176.1374      -2474.9134
  21379494.8544  -19054765.95549 -14635980.76047  21379493.1904   21379499.4754
      1280.3214        997.6524
  21612047.9104  -20783630.50549 -15997299.93947  21612046.6444   21612052.5184
       850.4264        662.6684
 00  7 15  2 36  0.0010000  0  7G20G19G22G 4G25G16G 1
  20767021.9774  -22667097.14449 -17291279.82047  20767020.5114   20767026.0724
     -1010.4804       -787.3864
  22529369.4934  -16768923.29748 -12595556.05147  22529368.2204   22529375.3234
      1858.8854       1448.4804
  21526697.9124  -17524559.44349 -13643517.53147  21526696.1584   21526702.1864
         6.0784          4.7374
  25175048.9344   -2981472.97147  -2183463.05945  25175047.8474   25175056.3344
       779.9224        607.7294
  24473943.2374   -1866068.24048   -412137.69646  24473942.1314   24473948.8814
     -3175.9304      -2474.7484
  21372223.4594  -19092976.56149 -14665755.24347  21372221.9444   21372228.3584
      1265.7784        986.3204
  21607201.2404  -20809101.18849 -16017147.20947  21607199.9044   21607205.5904
       846.3904        659.5244
 00  7 15  2 36 30.0010000  0  7G20G19G22G 4G25G16G 1
  20772857.7804  -22636430.29849 -17267383.59747  20772856.2994   20772861.7764
     -1031.7214       -803.9374
  22518798.2024  -16824477.41448 -12638844.92047  22518796.9014   22518803.7224
      1847.0214       1439.2354
  21526736.9924  -17524352.22849 -13643356.04547  21526735.3334   21526741.6604
       -17.6874        -13.7824
  25170656.1974   -3004550.96247  -2201445.89145  25170655.3084   25170665.0084
       760.7984        592.8234
  24492089.5144   -1770707.09548   -337830.35746  24492088.2114   24492095.4714
     -3179.1484      -2477.2554
  21365055.6784  -19130645.06449 -14695107.31147  21365053.8484   21365060.2814
      1247.7284        972.2554
  21602397.4644  -20834346.24149 -16036818.66747  21602395.9854   21602401.6734
       838.9184        653.7024
 00  7 15  2 37  0.0010000  0  7G20G19G22G 4G25G16G 1
  20778802.9724  -22605188.12349 -17243039.06647  20778801.6284   20778806.7954
     -1050.3334       -818.4414
  22508282.5194  -16879736.40848 -12681903.81347  22508281.3134   22508288.1524
      1837.7264       1431.9944
  21526900.7884  -17523492.23749 -13642685.90447  21526899.0024   21526905.0944
       -38.9334        -30.3404
  25166362.5264   -3027116.01047  -2219029.01445  25166361.9394   25166370.4444
       744.2524        579.9364
  24510242.4294   -1675311.94447   -263496.50446  24510241.2714   24510248.2414
     -3179.7554      -2477.7294
  21357978.9954  -19167832.78849 -14724084.74047  21357977.3744   21357983.7684
      1232.2454        960.1904
  21597623.8364  -20859428.40749 -16056363.20047  21597622.6854   21597628.4084
       834.0284        649.8914
 00  7 15  2 37 30.0010000  0  8G20G19G22G 4G25G27G16G 1
  20784844.8244  -22573439.72149 -17218300.07047  20784843.0704   20784848.0704
     -1065.3884       -830.1714
  22497809.9554  -16934768.91748 -12724786.22847  22497808.9604   22497815.8184
      1831.9324       1427.4784
  21527175.4874  -17522047.90149 -13641560.42247  21527173.8514   21527180.0524
       -56.6414        -44.1374
  25162153.6464   -3049236.62147  -2236265.84345  25162152.3034   25162161.4914
       731.1724        569.7524
  24528389.3384   -1579952.65648   -189190.63446  24528388.5724   24528395.2724
     -3176.7474      -2475.3864
  25498449.2194   -4231565.08057  -3094245.86845  25498447.4154   25498461.2024
      2531.9894       1972.9634
  21350980.8544  -19204606.94149 -14752739.90747  21350979.3654   21350985.9034
      1220.1884        950.7974
  21592868.8014  -20884415.90449 -16075833.95547  21592867.7804   21592873.3844
       832.6124        648.7894
 00  7 15  2 38  0.0010000  0  8G20G19G22G 4G25G27G16G 1
  20790989.8754  -22541145.83549 -17193136.01847  20790988.4684   20790993.4344
     -1086.5114       -846.6304
  22487388.7114  -16989535.00148 -12767461.02247  22487387.2134   22487394.0134
      1820.1544       1418.3004
  21527569.2684  -17519978.68249 -13639948.01947  21527567.7014   21527573.7984
       -80.4344        -62.6754
  25158035.8454   -3070872.53347  -2253124.99545  25158035.2904   25158043.6204
       712.1194        554.8914
  24546535.7054   -1484591.20648   -114883.07446  24546534.8294   24546541.8454
     -3179.7264      -2477.7034
  25484017.1294   -4307409.26347  -3153344.86545  25484016.1614   25484028.5334
      2525.3144       1967.7704
  21344069.8354  -19240925.65549 -14781040.18347  21344068.1284   21344074.7994
      1202.0584        936.6694
  21588140.0664  -20909268.65849 -16095199.72047  21588138.6954   21588144.1894
       825.2054        643.0174
 00  7 15  2 38 30.0010000  0  8G20G19G22G 4G25G27G16G 1
  20797237.5034  -22508315.09749 -17167553.64747  20797235.8754   20797240.8644
     -1103.1434       -859.5904
  22477016.0984  -17044043.23848 -12809934.90747  22477014.6674   22477021.3874
      1812.7724       1412.5484
  21528080.3494  -17517292.72949 -13637855.05347  21528078.7344   21528084.8064
       -99.7384        -77.7204
  25154008.9514   -3092031.93747  -2269612.83145  25154008.0954   25154016.2304
       697.4834        543.4874
  24564681.0064   -1389237.88048    -40581.81646  24564680.1074   24564687.3254
     -3178.0714      -2476.4184
  25469603.6654   -4383149.62747  -3212362.97045  25469602.6774   25469614.8694
      2523.1164       1966.0524
  21337243.7404  -19276795.80549 -14808990.93847  21337242.1764   21337248.7364
      1188.3384        925.9764
  21583434.7124  -20933994.98049 -16114466.97447  21583433.4064   21583439.2444
       822.2284        640.6964
 00  7 15  2 39  0.0010000  0  8G20G19G22G 4G25G27G16G 1
  20803597.3074  -22474894.44349 -17141511.59947  20803595.5574   20803600.5944
     -1124.5774       -876.2934
  22466702.2714  -17098239.67348 -12852165.83147  22466701.0474   22466708.2594
      1800.5344       1403.0124
  21528719.2084  -17513936.28549 -13635239.61047  21528717.4524   21528723.4504
      -123.9624        -96.5944
  25150081.2774   -3112660.67747  -2285687.13145  25150080.8454   25150092.2294
       677.9084        528.2384
  24582834.9104   -1293840.35548     33753.87546  24582833.9094   24582840.5784
     -3181.3964      -2479.0064
  25455220.3504   -4458731.75047  -3271257.78245  25455218.5674   25455231.8804
      2515.9484       1960.4674
  21330513.6264  -19312161.61649 -14836548.70047  21330512.1754   21330518.9984
      1169.6094        911.3834
  21578763.8384  -20958540.65949 -16133593.47247  21578762.5274   21578768.2114
       814.3324        634.5454
 00  7 15  2 39 30.0010000  0  8G20G19G22G 4G25G27G16G 1
  20810085.3294  -22440797.82449 -17114942.82647  20810083.8474   20810089.0394
     -1147.1184       -893.8574
  22456464.7484  -17152037.90448 -12894086.46647  22456463.5564   22456470.8694
      1787.3134       1392.7104
  21529501.8754  -17509823.04649 -13632034.45847  21529500.1474   21529506.0684
      -149.1094       -116.1884
  25146274.8524   -3132672.13247  -2301280.45645  25146274.0514   25146283.0574
       657.4364        512.2894
  24601012.1684   -1198313.85247    108190.06846  24601011.4804   24601018.6374
     -3185.6884      -2482.3534
  25440883.1184   -4534068.96047  -3329961.72145  25440881.2124   25440893.6454
      2507.8494       1954.1574
  21323897.1084  -19346935.28849 -14863645.05647  21323895.3594   21323901.5514
      1149.9064        896.0304
  21574143.8774  -20982818.80049 -16152511.49747  21574142.5514   21574148.2364
       805.4834        627.6484
 00  7 15  2 40  0.0010000  0  8G20G19G22G 4G25G27G16G 1
  20816679.0444  -22406148.55549 -17087943.41547  20816677.4874   20816682.6824
     -1165.8184       -908.4304
  22446279.8304  -17205560.95348 -12935792.68247  22446278.7974   22446285.7434
      1777.8774       1385.3574
  21530405.3494  -17505075.72749 -13628335.22647  21530403.6214   21530409.4234
      -170.5164       -132.8704
  25142559.9524   -3152188.87246  -2316488.27945  25142559.3274   25142569.1674
       640.6284        499.1844
  24619191.2834   -1102782.50847    182630.02745  24619190.5814   24619197.1784
     -3186.0794      -2482.6554
  25426570.7564   -4609283.76647  -3388570.29845  25426568.8414   25426580.8214
      2503.4774       1950.7494
  21317369.6194  -19381237.48649 -14890374.03147  21317367.9084   21317373.9184
      1133.9014        883.5594
  21569551.3984  -21006952.09149 -16171316.64847  21569550.1404   21569555.9554
       800.3764        623.6694
 00  7 15  2 40 30.0010000  0  8G20G19G22G 4G25G27G16G 1
  20823398.4754  -22370838.78249 -17060429.33347  20823396.7814   20823401.9564
     -1187.0764       -924.9924
  22436167.6194  -17258700.46148 -12977200.03347  22436166.4134   22436173.3754
      1765.8274       1375.9674
  21531450.1974  -17499585.39449 -13624057.02847  21531448.4424   21531454.1874
      -194.5584       -151.6044
  25138962.3374   -3171102.37747  -2331226.08645  25138961.1364   25138969.8604
       621.2274        484.0854
  24637391.1884   -1007139.58647    257156.95046  24637390.5354   24637398.2854
     -3189.1014      -2485.0094
  25412301.8174   -4684267.39047  -3446998.78845  25412300.8894   25412312.1494
      2496.5144       1945.3244
  21310952.8154  -19414958.78249 -14916650.36147  21310950.9274   21310956.7154
      1115.2224        869.0054
  21565007.4504  -21030831.60349 -16189924.05347  21565006.1234   21565011.7184
       792.6764        617.6694
 00  7 15  2 41  0.0010000  0  8G20G19G22G 4G25G27G16G 1
  20830217.8474  -22335004.78249 -17032506.75547  20830216.0644   20830220.9824
     -1202.4484       -936.9724
  22426102.5934  -17311591.93148 -13018414.10247  22426101.4734   22426108.5064
      1759.6634       1371.1644
  21532610.3684  -17493487.49049 -13619305.39347  21532608.7474   21532614.8134
      -212.6764       -165.7224
  25135452.3574   -3189547.89547  -2345599.17245  25135449.5904   25135458.5434
       607.7564        473.5754
  24655587.6014    -911521.80948    331664.20046  24655586.6414   24655593.8854
     -3185.9994      -2482.5944
  25398051.6064   -4759155.24847  -3505352.65045  25398049.8084   25398061.6904
      2495.4384       1944.4854
  21304620.8144  -19448232.55549 -14942577.97047  21304619.0624   21304624.8204
      1102.4274        859.0334
  21560485.6814  -21054592.45849 -16208438.99547  21560484.3074   21560490.1444
       790.8544        616.2494
 00  7 15  2 41 30.0010000  0  8G20G19G22G 4G25G27G16G 1
  20837146.3174  -22298592.30149 -17004133.42047  20837145.1284   20837150.0174
     -1224.6684       -954.2864
  22416095.3114  -17364180.66448 -13059392.27647  22416094.1974   22416101.1734
      1746.6014       1360.9854
  21533896.7614  -17486727.61749 -13614037.94147  21533895.1164   21533901.1374
      -237.6494       -185.1824
  25132042.4484   -3207470.54646  -2359564.89845  25132040.1814   25132045.9264
       587.4324        457.7334
  24673788.4604    -815876.18648    406193.22546  24673787.5444   24673794.6204
     -3189.8414      -2485.5864
  25383828.0664   -4833892.06547  -3563588.76745  25383826.7864   25383839.6644
      2487.4654       1938.2704
  21298384.7874  -19481002.56949 -14968113.04447  21298382.9544   21298388.8594
      1082.6434        843.6174
  21555997.1704  -21078179.53649 -16226818.52847  21555995.9304   21556001.8124
       782.0654        609.4024
 00  7 15  2 42  0.0010000  0  8G20G19G22G 4G25G27G16G 1
  20844196.0334  -22261549.99549 -16975269.30947  20844194.2364   20844198.8454
     -1245.4004       -970.4414
  22406155.6474  -17416414.58048 -13100093.95947  22406154.2444   22406161.2804
      1735.0834       1352.0104
  21535318.9524  -17479253.92649 -13608214.26547  21535317.2304   21535323.3864
      -261.2624       -203.5824
  25128741.0184   -3224818.11946  -2373082.55745  25128740.0284   25128744.4204
       568.4314        442.9464
  24692003.9234    -720152.21847    480783.26846  24692003.3154   24692009.9624
     -3192.2254      -2487.4474
  25369643.0634   -4908425.48447  -3621666.37045  25369641.7364   25369655.6824
      2480.8884       1933.1484
  21292254.2844  -19513215.16149 -14993213.75947  21292252.8994   21292259.1624
      1064.2744        829.3054
  21551551.6874  -21101540.44349 -16245021.82347  21551550.3904   21551556.4544
       774.7464        603.6994
 00  7 15  2 42 30.0010000  0  8G20G19G22G 4G25G27G16G 1
  20851348.6874  -22223960.12949 -16945978.52847  20851347.2244   20851352.1924
     -1262.4524       -983.7284
  22396267.3834  -17468375.35248 -13140582.81647  22396266.3464   22396273.2414
      1727.1764       1345.8494
  21536861.5724  -17471147.90549 -13601897.86847  21536859.9724   21536865.9454
      -281.1034       -219.0414
  25125534.2924   -3241671.98947  -2386215.41445  25125534.3004   25125540.1004
       553.1994        431.0614
  24710219.2224    -624432.80348    555369.76446  24710217.9694   24710224.9124
     -3190.8574      -2486.3794
  25355483.8154   -4982836.69447  -3679648.76745  25355482.7604   25355494.9324
      2478.0024       1930.8974
  21286215.3194  -19544950.49949 -15017942.58847  21286213.6484   21286220.4754
      1049.5664        817.8444
  21547133.8304  -21124756.51649 -16263112.26447  21547132.3624   21547138.3654
       771.1544        600.8994
 00  7 15  2 43  0.0010000  0  8G20G19G22G 4G25G27G16G 1
  20858620.6824  -22185746.46449 -16916201.66947  20858619.1264   20858623.9594
     -1282.4164       -999.2864
  22386446.2394  -17519986.41048 -13180799.16447  22386445.1564   22386451.9304
      1716.3534       1337.4154
  21538539.0494  -17462332.48649 -13595028.68347  21538537.2534   21538543.3204
      -303.9284       -236.8294
  25122436.0874   -3257955.45347  -2398903.79645  25122435.6414   25122441.4724
       534.9804        416.8724
  24728447.0244    -528643.04447    630011.07746  24728446.0824   24728453.2964
     -3192.3694      -2487.5574
  25341362.8754   -5057048.43447  -3737475.83245  25341361.4304   25341371.5134
      2472.2014       1926.3784
  21280282.1684  -19576129.98149 -15042238.27347  21280280.6394   21280287.3204
      1031.8214        804.0164
  21542758.1404  -21147750.54049 -16281029.67347  21542756.8584   21542762.7424
       764.5554        595.7574
 00  7 15  2 43 30.0010000  0  8G20G19G22G 4G25G27G16G 1
  20865988.8744  -22147025.94349 -16886029.86147  20865987.3174   20865992.2074
     -1298.8134      -1012.0604
  22376669.3984  -17571363.89148 -13220833.49747  22376668.2044   22376675.1664
      1709.0484       1331.7254
  21540329.2644  -17452923.74049 -13587697.17347  21540327.6114   21540333.7734
      -323.1974       -251.8434
  25119423.4424   -3273784.41447  -2411238.05145  25119422.8954   25119428.0794
       520.3784        405.4814
  24746666.8604    -432900.03347    704615.97146  24746665.9154   24746672.9014
     -3190.2924      -2485.9394
  25327256.5314   -5131176.61647  -3795237.81445  25327255.2134   25327265.9264
      2469.8974       1924.5874
  21274432.8124  -19606867.94549 -15066189.92747  21274431.3974   21274438.2304
      1017.5744        792.9134
  21538402.9084  -21170638.34249 -16298864.31647  21538401.5284   21538407.4544
       761.4994        593.3774
 00  7 15  2 44  0.0010000  0  8G20G19G22G 4G25G27G16G 1
  20873453.1614  -22107799.91049 -16855464.14947  20873451.7274   20873456.7714
     -1317.8264      -1026.8774
  22366936.9454  -17622508.67448 -13260686.51147  22366935.5874   22366942.3604
      1699.0484       1323.9344
  21542232.6014  -17442922.88349 -13579904.27947  21542230.8274   21542236.7154
      -345.1764       -268.9694
  25116497.5404   -3289159.64347  -2423218.77345  25116496.7174   25116503.7604
       503.0444        391.9814
  24764876.6044    -337206.00147    779182.69346  24764875.4854   24764882.5704
     -3190.8404      -2486.3684
  25313164.9264   -5205221.72747  -3852935.02945  25313164.0084   25313176.1904
      2464.9034       1920.6894
  21268668.4704  -19637163.79649 -15089797.07747  21268666.8154   21268673.4214
      1000.5804        779.6734
  21534067.3014  -21193420.03149 -16316616.27847  21534066.1884   21534072.1324
       755.7354        588.8844
 00  7 15  2 44 30.0010000  0  8G20G19G22G 4G25G27G16G 1
  20881042.4584  -22067917.96749 -16824387.33547  20881041.0314   20881045.8604
     -1339.1054      -1043.4584
  22357277.3434  -17673269.55748 -13300240.38447  22357276.1264   22357282.6504
      1686.8164       1314.4014
  21544276.6564  -17432179.26949 -13571532.60947  21544275.2104   21544281.3394
      -369.3324       -287.7934
  25113686.6834   -3303929.80247  -2434727.95145  25113686.3044   25113694.6984
       483.4234        376.6864
  24783105.2204    -241411.51947    853827.70046  24783104.2984   24783111.9864
     -3193.5924      -2488.5104
  25299118.3374   -5279032.25447  -3910449.40145  25299117.6454   25299130.7784
      2457.6544       1915.0434
  21263016.4564  -19666864.85549 -15112940.74847  21263014.8904   21263021.3724
       981.3054        764.6524
  21529781.0124  -21215944.34449 -16334167.67147  21529779.9604   21529785.7614
       747.7424        582.6544
 00  7 15  2 45  0.0010000  0  8G20G19G22G 4G25G27G16G 1
  20888743.7704  -22027448.17649 -16792852.45947  20888742.2384   20888747.2814
     -1359.8524      -1059.6254
  22347677.8294  -17723714.22048 -13339547.85947  22347676.7064   22347683.2834
      1675.1554       1305.3134
  21546449.9494  -17420760.07849 -13562634.51847  21546448.2184   21546454.1804
      -393.0014       -306.2354
  25110978.2934   -3318162.23947  -2445818.14645  25110977.5454   25110985.8664
       464.3474        361.8264
  24801340.8094    -145585.39048    928497.32446  24801339.9744   24801347.4484
     -3195.7404      -2490.1844
  25285105.4394   -5352675.42747  -3967833.37045  25285103.9914   25285116.0694
      2450.9194       1909.7994
  21257465.4254  -19696036.39249 -15135671.81347  21257463.7734   21257470.1294
       962.5014        750.0024
  21525531.4064  -21238278.19749 -16351570.66147  21525529.9774   21525535.6994
       740.2324        576.8044
 00  7 15  2 45 30.0010000  0  8G20G19G22G 4G25G27G16G 1
  20896567.2214  -21986336.16449 -16760817.16147  20896565.6224   20896570.6894
     -1380.8254      -1075.9654
  22338149.2834  -17773787.26948 -13378565.76547  22338148.0694   22338154.7084
      1663.1574       1295.9654
  21548761.8584  -17408609.97549 -13553166.88747  21548760.1634   21548766.1494
      -416.9684       -324.9104
  25108382.0254   -3331801.86247  -2456446.43545  25108381.5834   25108389.8594
       444.9584        346.7134
  24819592.0804     -49673.63847   1003233.69746  24819590.9864   24819598.4384
     -3198.2034      -2492.1034
  25271134.3894   -5426095.45747  -4025043.50045  25271133.0084   25271143.8824
      2443.8964       1904.3264
  21252025.5664  -19724622.42849 -15157946.64347  21252023.9444   21252030.0534
       943.3534        735.0824
  21521328.4024  -21260365.55249 -16368781.57247  21521326.8974   21521332.8154
       732.3834        570.6874
 00  7 15  2 46  0.0010000  0  8G20G19G22G 4G25G27G16G 1
  20904510.9734  -21944591.50449 -16728288.87947  20904509.4924   20904514.3744
     -1400.1564      -1091.0314
  22328689.8954  -17823497.48348 -13417300.94947  22328688.5584   22328695.2964
      1652.7914       1287.8874
  21551211.4364  -17395737.90549 -13543136.68647  21551209.5944   21551215.7834
      -439.2724       -342.2924
  25105898.1334   -3344857.29147  -2466619.51145  25105896.5844   25105904.6684
       427.1934        332.8774
  24837857.5234      46313.66247   1078028.94046  24837856.5634   24837864.2424
     -3198.9274      -2492.6714
  25257204.0494   -5499300.80047  -4082086.38445  25257202.6764   25257213.0534
      2438.4964       1900.1144
  21246695.7644  -19752629.75049 -15179770.52647  21246694.2354   21246700.3054
       925.7324        721.3494
  21517170.1944  -21282214.94049 -16385807.04947  21517168.9454   21517174.9274
       726.1964        565.8664
 00  7 15  2 46 30.0010000  0  8G20G19G22G 4G25G27G16G 1
  20912557.4304  -21902307.66749 -16695340.45747  20912555.8114   20912560.9884
     -1419.5014      -1106.1034
  22319281.7294  -17872937.62648 -13455825.68747  22319280.3244   22319287.2724
      1642.4274       1279.8134
  21553780.1134  -17382237.25249 -13532616.68047  21553778.6564   21553784.7164
      -461.6054       -359.6924
  25103506.5644   -3357421.20347  -2476409.57845  25103505.5124   25103516.7424
       409.4044        319.0164
  24856120.3694     142282.27047   1152809.57845  24856119.2984   24856126.6564
     -3199.6574      -2493.2374
  25243295.6604   -5572383.83647  -4139034.01445  25243294.3494   25243304.7534
      2433.0534       1895.8814
  21241458.8154  -19780149.05849 -15201214.13647  21241457.2614   21241463.3084
       908.1464        707.6474
  21513040.1294  -21303918.56449 -16402718.95047  21513038.8064   21513044.8594
       719.9324        560.9864
 00  7 15  2 47  0.0010000  0  8G20G19G22G 4G25G27G16G 1
  20920724.3544  -21859389.61749 -16661897.84747  20920722.8514   20920728.1124
     -1438.8264      -1121.1624
  22309943.0844  -17922012.06748 -13494065.45247  22309941.9034   22309948.6094
      1632.0374       1271.7154
  21556487.3964  -17368012.78549 -13521532.65747  21556485.5734   21556491.4874
      -483.9554       -377.1084
  25101226.9524   -3369398.11347  -2485742.21945  25101226.8634   25101236.2634
       391.7244        305.2394
  24874397.2384     238326.66247   1227649.33845  24874396.5244   24874402.2104
     -3200.4134      -2493.8234
  25229428.6754   -5645248.65547  -4195811.54445  25229428.3054   25229439.9844
      2427.5194       1891.5634
  21236333.3534  -19807084.11349 -15222202.47947  21236331.8354   21236337.7474
       890.4014        693.8184
  21508956.1624  -21325380.18849 -16419442.28147  21508954.8584   21508960.7684
       713.6744        556.1094
 00  7 15  2 47 30.0010000  0  8G20G19G22G 4G25G27G16G 1
  20928984.9204  -21815980.91349 -16628072.91347  20928983.2404   20928988.5164
     -1454.3474      -1133.2574
  22300646.7564  -17970863.68648 -13532131.58847  22300645.7314   22300652.6914
      1625.4534       1266.5844
  21559304.7054  -17353206.99249 -13509995.65947  21559302.8824   21559308.9994
      -502.4724       -391.5374
  25099031.7024   -3380930.61247  -2494728.54745  25099031.5324   25099040.5924
       377.7824        294.3754
  24892660.7474     334302.61247   1302435.76845  24892659.6524   24892666.2754
     -3197.2424      -2491.3584
  25215578.1504   -5718037.51547  -4252529.85145  25215576.5224   25215588.7154
      2425.8344       1890.2554
  21231292.2734  -19833575.32549 -15242844.97447  21231290.5124   21231296.6924
       876.4144        682.9204
  21504891.3464  -21346741.97449 -16436087.80747  21504889.8464   21504895.8674
       711.1794        554.1664
 00  7 15  2 48  0.0010000  0  8G20G19G22G 4G25G27G16G 1
  20937343.8404  -21772052.87749 -16593843.30347  20937342.4644   20937347.9974
     -1475.3894      -1149.6544
  22291398.9894  -18019463.01048 -13570001.13947  22291397.5114   22291404.3484
      1613.3164       1257.1284
  21562238.5794  -17337790.55549 -13497982.83147  21562236.7244   21562242.5824
      -526.5454       -410.2954
  25096927.6744   -3391989.16447  -2503345.59545  25096926.2954   25096936.1414
       358.2224        279.1394
  24910916.9184     430238.46147   1377190.93546  24910915.4964   24910922.9264
     -3199.6424      -2493.2244
  25201746.2554   -5790720.70947  -4309165.83745  25201745.8704   25201757.1134
      2418.5444       1884.5714
  21226341.2454  -19859591.82349 -15263117.55647  21226339.6104   21226345.6174
       856.8564        667.6804
  21500850.5224  -21367974.11049 -16452632.30847  21500849.3604   21500855.2764
       703.0984        547.8684
 00  7 15  2 48 30.0010000  0  8G20G19G22G 4G25G27G16G 1
  20945819.1504  -21727515.52149 -16559138.90647  20945817.6144   20945822.9374
     -1493.9174      -1164.0894
  22282215.5124  -18067719.25648 -13607603.36047  22282214.4954   22282221.3464
      1603.6484       1249.5944
  21565305.8044  -17321672.78949 -13485423.51447  21565303.9094   21565309.4154
      -548.1764       -427.1514
  25094931.7964   -3402482.95247  -2511522.57745  25094930.2414   25094940.5274
       341.1534        265.8314
  24929181.7544     526223.85547   1451984.65546  24929180.9594   24929188.6764
     -3199.5274      -2493.1344
  25187953.7194   -5863206.75648  -4365648.23746  25187952.3224   25187963.5424
      2413.7414       1880.8334
  21221498.1644  -19885041.28449 -15282948.29447  21221496.6604   21221502.7744
       839.6934        654.3054
  21496852.5414  -21388984.77649 -16469004.23947  21496851.2734   21496856.8804
       697.4904        543.4984
 00  7 15  2 49  0.0010000  0  8G20G19G22G 4G25G27G16G 1
  20954396.7834  -21682439.22449 -16524014.55147  20954395.3134   20954400.7704
     -1511.5084      -1177.7984
  22273084.5134  -18115702.21948 -13644992.62547  22273083.4124   22273090.1744
      1594.9004       1242.7774
  21568492.7334  -17304924.12449 -13472372.58547  21568491.0924   21568496.7534
      -568.8404       -443.2534
  25093027.7334   -3412481.69647  -2519313.82845  25093028.0054   25093036.3964
       324.9904        253.2374
  24947443.3404     622187.35747   1526761.33645  24947442.3304   24947448.8744
     -3198.3854      -2492.2504
  25174183.0274   -5935565.19447  -4422031.22445  25174182.1034   25174193.1294
      2409.8384       1877.7904
  21216750.5634  -19909991.51549 -15302390.02147  21216748.8194   21216754.9174
       823.3684        641.5854
  21492883.2164  -21409843.16849 -16485257.51047  21492882.0984   21492887.4524
       692.7814        539.8274
 00  7 15  2 49 30.0010000  0  8G20G19G22G 4G25G27G16G 1
  20963087.7574  -21636768.19049 -16488426.76447  20963086.2154   20963091.5524
     -1534.1534      -1195.4434
  22264016.5524  -18163355.22348 -13682124.78547  22264015.3664   22264021.9864
      1581.0464       1231.9824
  21571810.7894  -17287488.31749 -13458786.22547  21571808.9854   21571814.7544
      -594.5544       -463.2904
  25091230.4624   -3421928.85947  -2526675.24345  25091230.0064   25091240.8344
       303.7344        236.6774
  24965711.0474     718184.96447   1601564.64045  24965710.2984   24965716.6744
     -3202.3694      -2495.3504
  25160449.4774   -6007738.76047  -4478270.14345  25160448.0434   25160458.2954
      2400.8024       1870.7464
  21212108.6994  -19934384.52949 -15321397.55547  21212107.0844   21212113.3184
       801.9344        624.8824
  21488954.1504  -21430492.22549 -16501347.67447  21488952.8744   21488958.0724
       682.9054        532.1334
 00  7 15  2 50  0.0010000  0  8G20G19G22G 4G25G27G16G 1
  20971897.8984  -21590471.11949 -16452351.15347  20971896.3644   20971901.3294
     -1553.8534      -1210.7934
  22255017.5594  -18210646.08448 -13718974.74547  22255016.4544   22255023.1394
      1570.1414       1223.4854
  21575265.0374  -17269333.11649 -13444639.29247  21575263.5074   21575269.4484
      -617.4044       -481.0954
  25089545.5504   -3430792.09447  -2533581.66845  25089545.1524   25089554.2564
       285.4704        222.4364
  24983991.1124     814247.72347   1676418.73945  24983989.7214   24983997.4904
     -3203.3404      -2496.1114
  25146755.5544   -6079694.80947  -4534339.58945  25146754.2234   25146765.8474
      2394.7314       1866.0204
  21207579.7014  -19958186.63449 -15339944.64147  21207577.9244   21207584.0524
       783.3754        610.4234
  21485071.4064  -21450899.00049 -16517249.04147  21485069.7824   21485074.7764
       676.0184        526.7664
 00  7 15  2 50 30.0010000  0  8G20G19G22G 4G25G27G16G 1
  20980802.9474  -21543675.00349 -16415886.67247  20980801.5184   20980806.4444
     -1567.0974      -1221.1134
  22246063.0264  -18257700.79048 -13755640.69547  22246061.9554   22246068.7674
      1565.6584       1219.9954
  21578832.8124  -17250584.83949 -13430030.23147  21578831.2344   21578837.0504
      -633.8054       -493.8734
  25087945.6584   -3439197.58747  -2540131.40745  25087945.0494   25087953.9644
       273.5844        213.1814
  25002258.7914     910247.85947   1751224.00245  25002257.7594   25002266.4134
     -3197.8154      -2491.8034
  25133081.0384   -6151559.08247  -4590337.50945  25133079.8164   25133090.6584
      2395.0364       1866.2594
  21203138.8264  -19981522.24649 -15358128.22247  21203137.2624   21203143.6924
       771.1844        600.9234
  21481210.0134  -21471188.95249 -16533059.38147  21481208.7994   21481213.6024
       675.4994        526.3634
 00  7 15  2 51  0.0010000  0  8G20G19G22G 4G25G27G16G 1
  20989815.7454  -21496313.65349 -16378981.75147  20989814.0764   20989818.8804
     -1587.2434      -1236.8124
  22237166.4474  -18304452.75848 -13792070.74647  22237165.2214   22237171.9244
      1554.2054       1211.0674
  21582526.1174  -17231176.94449 -13414907.17947  21582524.4724   21582530.3954
      -657.0624       -511.9974
  25086446.8114   -3447078.75947  -2546272.60045  25086446.0414   25086454.1054
       254.7684        198.5244
  25020528.1914    1006251.35147   1826031.83945  25020527.2564   25020535.9744
     -3199.3034      -2492.9604
  25119435.5584   -6223264.38347  -4646211.54246  25119434.5914   25119445.5754
      2388.4074       1861.0914
  21198799.7704  -20004322.84149 -15375894.90547  21198798.4594   21198804.8494
       751.9734        585.9524
  21477384.3104  -21491294.46949 -16548726.00547  21477382.9824   21477387.5654
       667.9914        520.5124
 00  7 15  2 51 30.0010000  0  8G20G19G22G 4G25G27G16G 1
  20998921.3844  -21448462.25649 -16341694.97947  20998919.8744   20998924.6714
     -1602.9894      -1249.0814
  22228313.8444  -18350975.85448 -13828322.45947  22228312.6054   22228318.8214
      1547.1544       1205.5744
  21586330.7064  -17211184.55249 -13399328.67947  21586328.9214   21586334.5374
      -675.9934       -526.7474
  25085031.8144   -3454509.67447  -2552062.94645  25085031.2074   25085039.2864
       240.3524        187.2784
  25038784.1344    1102182.78648   1900783.54446  25038783.1604   25038790.2364
     -3196.2884      -2490.6134
  25105806.8284   -6294884.35648  -4702019.07846  25105805.4934   25105816.7624
      2386.0954       1859.2904
  21194549.3074  -20026661.11849 -15393301.34747  21194547.7854   21194553.9284
       737.1044        574.3684
  21473579.3804  -21511288.88949 -16564306.06447  21473578.0574   21473582.8214
       664.8444        518.0614
 00  7 15  2 52  0.0010000  0  8G20G19G22G 4G25G27G16G 1
  21008120.7934  -21400118.45349 -16304024.51047  21008119.3164   21008124.2134
     -1619.1774      -1261.6964
  22219504.5694  -18397267.10548 -13864393.50447  22219503.4854   22219510.1044
      1539.6484       1199.7254
  21590246.7414  -17190604.75749 -13383292.45947  21590245.0864   21590250.8864
      -695.3434       -541.8264
  25083703.9514   -3461487.23147  -2557500.01245  25083703.6114   25083710.8644
       225.4384        175.6664
  25057025.5904    1198044.45047   1975480.93845  25057024.4844   25057031.4534
     -3193.7414      -2488.6284
  25092194.2124   -6366415.52647  -4757757.45345  25092192.8424   25092204.4054
      2383.3404       1857.1424
  21190387.4814  -20048532.56949 -15410344.02947  21190385.7584   21190392.0254
       721.7444        562.3984
  21469796.2564  -21531168.59749 -16579796.73547  21469794.9264   21469799.9974
       661.2134        515.2304
 00  7 15  2 52 30.0010000  0  8G20G19G22G 4G25G27G16G 1
  21017422.0634  -21351239.46549 -16265937.01847  21017420.6584   21017425.6024
     -1640.1574      -1278.0424
  22210748.2344  -18443282.71048 -13900249.77247  22210747.2084   22210753.5024
      1527.3284       1190.1254
  21594283.1154  -17169393.88249 -13366764.49547  21594281.3114   21594287.2074
      -719.5394       -560.6794
  25082471.4214   -3467967.87447  -2562549.85745  25082470.9234   25082479.3644
       205.7674        160.3314
  25075261.5274    1293878.81747   2050157.03445  25075260.6144   25075268.3474
     -3195.9624      -2490.3624
  25078607.4244   -6437813.87547  -4813392.30745  25078606.1334   25078616.9744
      2375.8444       1851.3044
  21186322.4314  -20069891.95749 -15426987.70547  21186320.9184   21186327.3854
       701.4794        546.6064
  21466043.6714  -21550889.24949 -16595163.47047  21466042.1954   21466047.2794
       652.7624        508.6474
 00  7 15  2 53  0.0010000  0  8G20G19G22G 4G25G27G16G 1
  21026837.0994  -21301763.90249 -16227384.65647  21026835.5014   21026840.5784
     -1657.5024      -1291.5604
  22202056.1734  -18488960.56448 -13935842.85747  22202054.7914   22202061.0984
      1518.5744       1183.3024
  21598451.2934  -17147490.10549 -13349696.60447  21598449.5624   21598455.2224
      -740.1204       -576.7174
  25081344.8414   -3473889.39347  -2567164.03445  25081344.2744   25081352.6574
       189.5884        147.7334
  25093504.2974    1389746.78747   2124859.32645  25093503.6734   25093511.7994
     -3194.4954      -2489.2154
  25065057.8254   -6509016.76747  -4868874.85845  25065056.1894   25065067.2814
      2371.7934       1848.1434
  21182367.6354  -20090675.24949 -15443182.46747  21182365.9954   21182372.3564
       684.7884        533.6024
  21462333.0034  -21570387.71749 -16610357.07247  21462331.6524   21462336.9344
       647.8564        504.8224
 00  7 15  2 53 30.0010000  0  8G20G19G22G 4G25G27G16G 1
  21036356.6094  -21251736.47549 -16188402.27947  21036355.1794   21036360.6024
     -1676.7184      -1306.5324
  22193419.7084  -18534344.68948 -13971207.06347  22193418.4304   22193424.7434
      1507.9584       1175.0314
  21602743.1014  -17124937.75549 -13332123.32947  21602741.2314   21602746.5864
      -762.5374       -594.1864
  25080315.5594   -3479295.99247  -2571376.97845  25080314.8544   25080322.2354
       171.6544        133.7574
  25111746.5214    1485603.85647   2199553.12845  25111745.7234   25111752.9494
     -3194.9794      -2489.5964
  25051537.8334   -6580067.30247  -4924238.71745  25051536.3994   25051546.6624
      2365.9114       1843.5594
  21178514.1944  -20110924.80049 -15458961.33347  21178512.6764   21178519.0234
       666.1344        519.0654
  21458656.8504  -21589707.00449 -16625411.05747  21458655.4244   21458660.7664
       641.0464        499.5164
 00  7 15  2 54  0.0010000  0  8G20G19G22G 4G25G27G16G 1
  21045976.9324  -21201183.35349 -16149010.26547  21045975.2614   21045980.6474
     -1692.5824      -1318.8944
  22184834.5394  -18579460.01248 -14006361.80247  22184833.2734   22184839.3994
      1500.6244       1169.3154
  21607153.0254  -17101762.99949 -13314065.06447  21607151.2194   21607156.8884
      -781.6284       -609.0624
  25079379.7434   -3484212.88847  -2575208.31045  25079380.0684   25079386.7704
       156.9854        122.3234
  25129981.0734    1581423.54148   2274217.80846  25129980.1984   25129987.4484
     -3192.0334      -2487.2994
  25038041.1874   -6650990.32747  -4979503.22046  25038040.6184   25038050.0164
      2363.3114       1841.5294
  21174758.1784  -20130664.36949 -15474342.80947  21174756.5574   21174762.6294
       650.7624        507.0864
  21455009.6024  -21608871.76549 -16640344.63147  21455008.3214   21455013.8774
       637.5164        496.7654
 00  7 15  2 54 30.0010000  0  8G20G19G22G 4G25G27G16G 1
  21055701.7074  -21150079.04949 -16109188.75947  21055700.1334   21055705.8494
     -1713.0844      -1334.8694
  22176305.1774  -18624279.98248 -14041286.40147  22176304.1914   22176310.5034
      1488.6324       1159.9724
  21611686.4724  -17077939.70749 -13295501.44747  21611684.6514   21611690.2304
      -805.4104       -627.5934
  25078542.6124   -3488613.68947  -2578637.48745  25078542.3604   25078549.2764
       137.5944        107.2144
  25148212.7904    1677231.10748   2348873.00446  25148211.6774   25148218.9494
     -3193.8484      -2488.7124
  25024574.0614   -6721758.84247  -5034647.30846  25024573.0054   25024583.6994
      2355.9444       1835.7934
  21171104.0154  -20149866.02249 -15489305.12947  21171102.5644   21171108.7634
       630.6504        491.4154
  21451397.3914  -21627854.60849 -16655136.44847  21451396.0494   21451401.6484
       629.3114        490.3724
 00  7 15  2 55  0.0010000  0  8G20G19G22G 4G25G27G16G 1
  21065532.9354  -21098416.76749 -16068932.46647  21065531.3124   21065536.7414
     -1730.7144      -1348.6074
  22167834.2114  -18668797.06448 -14075974.99347  22167832.7834   22167839.0424
      1479.4894       1152.8474
  21616344.5184  -17053460.30149 -13276426.57847  21616342.8584   21616348.2264
      -826.2964       -643.8674
  25077804.6484   -3492490.80647  -2581658.64445  25077804.4434   25077810.9984
       121.0964         94.3684
  25166442.4094    1773033.63647   2423524.29645  25166441.5254   25166449.2144
     -3192.6704      -2487.7914
  25011138.3954   -6792364.78247  -5089664.68645  25011136.7024   25011148.0834
      2351.4944       1832.3244
  21167554.4574  -20168520.53149 -15503841.10547  21167552.7344   21167559.0784
       613.3414        477.9264
  21447821.1584  -21646647.09049 -16669779.93547  21447819.7604   21447825.6454
       623.8814        486.1414
 00  7 15  2 55 30.0010000  0  8G20G19G22G 4G25G27G16G 1
  21075465.9744  -21046217.52949 -16028257.76547  21075464.4824   21075470.1194
     -1749.1794      -1362.9944
  22159416.3944  -18713030.98648 -14110442.93747  22159415.2364   22159421.4824
      1469.4884       1145.0534
  21621124.0014  -17028345.21649 -13256856.36947  21621122.1554   21621127.6294
      -848.0714       -660.8354
  25077162.3924   -3495864.63447  -2584287.59445  25077162.1174   25077169.3534
       103.7634         80.8554
  25184667.4414    1868810.13747   2498155.29545  25184666.8194   25184673.9444
     -3192.3624      -2487.5524
  24997728.8644   -6862827.79947  -5144570.70245  24997727.6554   24997737.9634
      2346.1394       1828.1514
  21164105.1674  -20186646.84849 -15517965.50147  21164103.4344   21164109.7124
       595.1244        463.7334
  21444277.4364  -21665268.40349 -16684290.04547  21444276.1664   21444282.0474
       617.6114        481.2564
 00  7 15  2 56  0.0010000  0  8G20G19G22G 4G25G27G16G 1
  21085498.2344  -20993498.11249 -15987177.72847  21085496.5424   21085502.3094
     -1764.8384      -1375.1964
  22151049.9354  -18756997.49348 -14144702.50247  22151048.7944   22151054.9214
      1462.1914       1139.3684
  21626020.5554  -17002611.16949 -13236803.85447  21626018.9274   21626024.5724
      -867.0334       -675.6104
  25076613.4924   -3498751.16247  -2586536.81545  25076613.1364   25076620.8414
        89.1944         69.5044
  25202885.2794    1964543.52547   2572752.73645  25202884.8134   25202891.1084
     -3189.2654      -2485.1334
  24984345.0674   -6933163.18847  -5199377.29346  24984343.6164   24984354.2104
      2343.5214       1826.1144
  21160753.9954  -20204258.49049 -15531688.85647  21160752.2574   21160758.3024
       579.5904        451.6284
  21440763.7654  -21683733.40949 -16698678.35747  21440762.4414   21440768.1894
       614.0194        478.4564
 00  7 15  2 56 30.0010000  0  8G20G19G22G 4G25G27G16G 1
  21095627.4994  -20940268.20549 -15945699.90847  21095625.8124   21095631.5264
     -1782.0924      -1388.6414
  22142732.5924  -18800705.46948 -14178760.61647  22142731.3374   22142737.5094
      1453.3384       1132.4704
  21631033.6624  -16976267.84749 -13216276.58047  21631031.9694   21631037.7374
      -887.5724       -691.6174
  25076155.3954   -3501159.14647  -2588413.16945  25076154.8454   25076162.4544
        72.9614         56.8534
  25221093.7384    2060224.31147   2647309.22645  25221092.5864   25221099.4174
     -3187.6934      -2483.9214
  24970983.1014   -7003379.23347  -5254090.92145  24970981.8084   24970991.3884
      2339.2634       1822.7914
  21157498.5034  -20221363.25549 -15545017.23947  21157497.0974   21157503.2534
       562.4594        438.2784
  21437278.1204  -21702050.03949 -16712951.04747  21437276.8234   21437282.8784
       608.8264        474.4084
 00  7 15  2 57  0.0010000  0  8G20G19G22G 4G25G27G16G 1
  21105860.3934  -20886492.74349 -15903796.97947  21105858.9444   21105864.2114
     -1802.0224      -1404.1724
  22134471.0674  -18844119.32748 -14212589.54847  22134469.8004   22134476.0814
      1441.8034       1123.4804
  21636169.6834  -16949279.49749 -13195246.69047  21636167.9104   21636173.4384
      -910.8284       -709.7364
  25075795.0934   -3503052.87847  -2589888.81945  25075794.2684   25075801.6644
        54.0674         42.1344
  25239297.5544    2155887.22648   2721851.77446  25239296.5554   25239303.6074
     -3188.8824      -2484.8434
  24957651.2634   -7073439.51047  -5308683.16345  24957649.7214   24957658.8254
      2332.3084       1817.3754
  21154347.4914  -20237923.76749 -15557921.52947  21154345.7924   21154351.8234
       542.5204        422.7434
  21433827.7994  -21720181.59749 -16727079.52647  21433826.5334   21433832.6684
       600.8814        468.2194
 00  7 15  2 57 30.0010000  0  8G20G19G22G 4G25G27G16G 1
  21116209.3844  -20832109.24449 -15861420.25747  21116207.7874   21116213.1184
     -1823.3604      -1420.8004
  22126277.8004  -18887175.13548 -14246139.47447  22126276.5464   22126282.9474
      1428.7554       1113.3134
  21641439.9674  -16921582.76749 -13173664.81147  21641438.2054   21641443.8544
      -935.5174       -728.9764
  25075545.0764   -3504368.94647  -2590914.28445  25075544.9634   25075551.4244
        33.7414         26.2894
  25257509.9594    2251595.09147   2796429.30646  25257509.0244   25257516.6594
     -3191.4794      -2486.8644
  24944359.6594   -7143279.92947  -5363104.07345  24944358.3144   24944369.2584
      2323.8984       1810.8254
  21151311.9034  -20253874.52649 -15570350.68747  21151310.3034   21151316.6444
       521.0684        406.0254
  21430425.2824  -21738063.51249 -16741013.48347  21430423.9804   21430429.7174
       591.4604        460.8774
 00  7 15  2 58  0.0010000  0  8G20G19G22G 4G25G27G16G 1
  21126679.5954  -20777087.79649 -15818546.43347  21126677.9854   21126683.4364
     -1845.3074      -1437.9004
  22118158.6234  -18929842.05748 -14279386.37547  22118157.2984   22118164.0014
      1415.1164       1102.6864
  21646851.0824  -16893147.30849 -13151507.29647  21646849.3734   21646855.0704
      -960.8344       -748.7024
  25075410.7114   -3505076.62047  -2591465.73345  25075408.9654   25075415.7294
        12.7784          9.9564
  25275736.0874    2347378.43847   2871065.56545  25275735.2204   25275743.2144
     -3194.6804      -2489.3574
  24931118.1414   -7212869.13747  -5417329.19746  24931116.1634   24931127.0474
      2314.7624       1803.7004
  21148398.8154  -20269183.26749 -15582279.57347  21148397.2304   21148403.5364
       498.9774        388.8134
  21427076.0954  -21755664.15349 -16754728.25747  21427074.7364   21427080.1244
       581.3914        453.0334
 00  7 15  2 58 30.0010000  0  8G20G19G22G 4G25G27G16G 1
  21137257.6414  -20721500.12649 -15775231.40047  21137256.0164   21137261.6134
     -1857.9364      -1447.7424
  22110099.7654  -18972190.72748 -14312385.28247  22110098.5584   22110105.2954
      1410.7274       1099.2674
  21652389.1264  -16864045.13849 -13128830.26947  21652387.0834   21652393.1904
      -976.7914       -761.1364
  25075377.1684   -3505247.23947  -2591598.69045  25075377.0054   25075383.3954
         1.1104           .8574
  25293963.7534    2443164.70447   2945704.16245  25293963.0904   25293971.4544
     -3188.5164      -2484.5544
  24917909.6574   -7282277.71648  -5471413.58546  24917908.6054   24917919.2354
      2315.0554       1803.9334
  21145594.6364  -20283919.85549 -15593762.63047  21145593.0294   21145599.5454
       486.0934        378.7744
  21423767.0774  -21773053.15549 -16768278.12347  21423765.6504   21423771.3794
       580.5304        452.3604
 00  7 15  2 59  0.0010000  0  8G20G19G22G 4G25G27G16G 1
  21147915.2444  -20665493.48349 -15731589.89247  21147913.8054   21147919.2434
     -1876.7574      -1462.4074
  22102073.9434  -19014367.22448 -14345250.03347  22102072.8464   22102078.6964
      1400.0944       1090.9814
  21658025.9714  -16834423.08349 -13105748.13547  21658024.2204   21658030.0824
      -999.0334       -778.4694
  25075419.0104   -3505026.84647  -2591426.96045  25075418.5844   25075425.9034
       -16.8524        -13.1364
  25312164.6124    2538807.51547   3020230.99845  25312163.5654   25312170.8664
     -3188.5984      -2484.6224
  24904709.0594   -7351651.02948  -5525470.52146  24904707.5014   24904716.5824
      2308.9284       1799.1574
  21142871.6404  -20298228.57649 -15604912.27747  21142870.0404   21142876.6154
       466.9284        363.8404
  21420470.5614  -21790375.74949 -16781776.23947  21420469.3284   21420474.9344
       573.4244        446.8234
