     2.00           OBSERVATION DATA    G (GPS)             RINEX VERSION / TYPE
teqc  1999Jul19     CORS/NGS/NOAA       19990919 02:07:58UTCPGM / RUN BY / DATE
HP-UX 10.20|PA-RISC|cc A.10.32.03|=+|=|                     COMMENT
BIT 2 OF LLI FLAGS DATA COLLECTED UNDER A/S CONDITION       COMMENT
ppt1                                                        MARKER NAME
xxx                                                         MARKER NUMBER
CORS/NGS/NOAA       U.S. Coast Guard                        OBSERVER / AGENCY
05402               ASHTECH   Z-XII3    RD00                REC # / TYPE / VERS
11092               ASH700829.3                             ANT # / TYPE
 -2725252.3748 -4295978.5284  3833958.9631                  APPROX POSITION XYZ 
        0.0000        0.0000        0.0000                  ANTENNA: DELTA H/E/N
     1     1                                                WAVELENGTH FACT L1/2
     7    C1    L1    L2    P1    P2    D1    D2            # / TYPES OF OBSERV
    30.0000                                                 INTERVAL
 SNR is mapped to RINEX snr flag value [1-9]                COMMENT
  L1: 1 -> 1;  90 -> 5; 210 -> 9                            COMMENT
  L2: 1 -> 1; 150 -> 5; 250 -> 9                            COMMENT
teqc windowed: delta = 86400.000 sec                        COMMENT
  1999     9    18     0     0   30.0000000     GPS         TIME OF FIRST OBS
                                                            END OF HEADER
 99  9 18  0  0 30.0000000  0  7G 4G19G14G22G18G 1G16
  24484433.8834  -13429711.12547  -9161174.06945  24484432.8774   24484441.3664
       -53.7394        -41.8714
  22499944.0694  -23209028.00448 -18062707.48947  22499943.1784   22499951.0334
      3000.3004       2337.8944
  21761809.0204  -37954574.61348 -29302003.28147  21761808.1254   21761815.9444
     -1875.7084      -1461.5904
  22374642.5164  -20343116.45148 -15542066.35346  22374640.8744   22374648.6394
     -1287.6234      -1003.3404
  21511430.9964  -29769292.39048 -22913981.59047  21511429.8074   21511437.1844
      2908.7684       2266.5724
  22649074.9864  -36162962.30148 -27520464.13946  22649073.9144   22649081.4664
     -1125.3554       -876.9004
  20721858.2114  -37208388.74649 -28698660.08647  20721856.8494   20721863.4994
       377.8574        294.4354
 99  9 18  0  1  0.0000000  0  6G 4G14G22G18G 1G16
  24484781.3134  -13427890.14347  -9159755.17445  24484780.1944   24484787.5224
       -69.0084        -53.7724
  21772548.9204  -37898138.26048 -29258026.97347  21772547.8254   21772555.3104
     -1887.8544      -1471.0524
  22382034.3934  -20304270.43448 -15511796.78646  22382032.7404   22382040.9634
     -1303.3554      -1015.5994
  21494839.0004  -29856483.08048 -22981922.36747  21494837.8944   21494845.3174
      2902.8274       2261.9434
  22655517.2424  -36129111.90748 -27494087.25846  22655516.0444   22655523.1304
     -1132.4854       -882.4534
  20719746.7514  -37219485.60549 -28707306.99947  20719745.4814   20719751.8684
       360.6364        281.0164
 99  9 18  0  1 30.0000000  0  7G 4G19G14G22G18G 1G16
  24485229.3224  -13425538.73047  -9157922.95945  24485228.4104   24485236.5434
       -82.8904        -64.5884
  22465776.3904    -115332.00448    -75070.56946  22465775.0814   22465784.6874
      2987.3984       2327.8414
  21783370.9664  -37841268.97048 -29213713.30747  21783369.7394   21783376.9774
     -1898.6304      -1479.4484
  22389528.9174  -20264886.90248 -15481108.36946  22389527.5004   22389535.0414
     -1317.3584      -1026.5104
  21478292.8654  -29943434.18548 -23049676.46247  21478291.8564   21478298.9584
      2898.7034       2258.7304
  22662010.4524  -36094986.64148 -27467496.18746  22662009.6774   22662017.1824
     -1137.4254       -886.3054
  20717747.5164  -37229990.30049 -28715492.49447  20717746.2114   20717752.8934
       344.3534        268.3284
 99  9 18  0  2  0.0000000  0  7G 4G19G14G22G18G 1G16
  24485737.0754  -13422869.99747  -9155843.46245  24485736.2634   24485744.3914
       -99.9214        -77.8594
  22448733.7634    -204902.16148   -144865.47746  22448732.1974   22448740.3534
      2979.3004       2321.5314
  21794237.6164  -37784163.66248 -29169215.72747  21794236.6864   21794244.2954
     -1913.2274      -1490.8244
  22397085.3914  -20225176.91648 -15450165.57846  22397084.1434   22397091.8754
     -1335.1054      -1040.3414
  21461755.1344  -30030340.99848 -23117396.03747  21461754.1364   21461760.9154
      2890.2134       2252.1154
  22668512.2004  -36060817.19148 -27440870.68546  22668511.2674   22668519.4304
     -1145.3724       -892.4954
  20715826.8864  -37240083.68849 -28723357.48547  20715825.5114   20715832.5354
       323.7254        252.2534
 99  9 18  0  2 30.0000000  0  7G 4G19G14G22G18G 1G16
  24486351.6804  -13419635.41547  -9153323.07045  24486351.4304   24486358.2274
      -110.1994        -85.8664
  22431745.2624    -294173.89748   -214427.81747  22431744.2764   22431752.2194
      2977.4824       2320.1154
  21805199.4434  -37726557.49248 -29124327.86947  21805198.5194   21805206.5564
     -1921.7924      -1497.4994
  22404757.6084  -20184861.12348 -15418750.73346  22404756.0814   22404763.6054
     -1347.1994      -1049.7634
  21445278.8984  -30116925.64648 -23184864.57147  21445277.7164   21445284.8224
      2887.6224       2250.0944
  22675074.0974  -36026337.98548 -27414003.82846  22675072.7904   22675080.6884
     -1147.8394       -894.4174
  20714035.2714  -37249499.93049 -28730694.82847  20714033.9704   20714040.6634
       309.4314        241.1154
 99  9 18  0  3  0.0000000  0  7G 4G19G14G22G18G 1G16
  24487040.3174  -13416016.05247  -9150502.82945  24487039.3284   24487048.2254
      -131.1364       -102.1834
  22414785.4024    -383301.94148   -283878.19447  22414784.2284   22414791.6564
      2964.0934       2309.6804
  21816228.5644  -37668601.85448 -29079167.70047  21816227.3194   21816235.1784
     -1942.1044      -1513.3254
  22412515.2364  -20144096.83148 -15386986.40546  22412513.3724   22412520.6834
     -1370.6084      -1068.0044
  21428832.6554  -30203348.84549 -23252207.29947  21428831.7824   21428838.9554
      2873.7854       2239.3114
  22681667.0064  -35991697.14548 -27387011.03546  22681665.2464   22681672.9104
     -1161.5944       -905.1354
  20712343.0324  -37258393.81849 -28737625.14747  20712341.5184   20712348.3954
       283.3674        220.8064
 99  9 18  0  3 30.0000000  0  7G 4G19G14G22G18G 1G16
  24487826.7264  -13411887.85747  -9147286.12445  24487825.5724   24487833.9484
      -144.0044       -112.2104
  22397881.5944    -472130.09148   -353094.88347  22397880.4174   22397888.0004
      2957.7584       2304.7444
  21827354.5384  -37610137.11848 -29033610.83847  21827353.1954   21827360.8214
     -1955.2694      -1523.5844
  22420385.3994  -20102736.92648 -15354757.95446  22420383.8744   22420391.0744
     -1386.4844      -1080.3774
  21412446.8764  -30289462.66249 -23319308.95247  21412445.3594   21412452.0564
      2867.3314       2234.2834
  22688316.3494  -35956754.36248 -27359782.95346  22688315.0324   22688322.3654
     -1167.6084       -909.8214
  20710779.6364  -37266607.02649 -28744025.06847  20710778.3104   20710785.4064
       264.3684        206.0024
 99  9 18  0  4  0.0000000  0  7G 4G19G14G22G18G 1G16
  24488677.6104  -13407408.04147  -9143795.40645  24488677.3374   24488687.1074
      -158.0764       -123.1734
  22381009.5884    -560791.02748   -422181.27346  22381008.5334   22381016.5584
      2949.5994       2298.3864
  21838547.9594  -37551311.56848 -28987772.81947  21838546.9984   21838554.9214
     -1969.4494      -1534.6344
  22428340.4314  -20060934.83748 -15322184.94146  22428338.6604   22428345.6054
     -1403.6094      -1093.7204
  21396090.7724  -30375407.54149 -23386278.96247  21396089.9404   21396096.9814
      2859.2824       2228.0114
  22694993.6544  -35921659.63548 -27332436.47446  22694992.7104   22695000.4494
     -1175.2854       -915.8054
  20709320.5124  -37274275.20249 -28750000.28747  20709319.0944   20709326.1074
       243.8064        189.9814
 99  9 18  0  4 30.0000000  0  7G 4G19G14G22G18G 1G16
  24489622.6334  -13402448.98347  -9139931.26045  24489621.5114   24489631.9444
      -173.7434       -135.3814
  22364197.3364    -649139.77848   -491024.40447  22364196.4394   22364204.3134
      2939.3424       2290.3954
  21849830.8884  -37492017.78148 -28941569.93547  21849830.0164   21849838.4244
     -1984.2044      -1546.1314
  22436400.8384  -20018576.63048 -15289178.59646  22436399.2544   22436406.7234
     -1421.0954      -1107.3454
  21379788.9614  -30461075.67149 -23453033.32447  21379788.0114   21379794.5924
      2851.0384       2221.5874
  22701725.8984  -35886282.68148 -27304870.07846  22701724.6734   22701732.7114
     -1183.8034       -922.4434
  20707986.6434  -37281286.15249 -28755463.38347  20707985.2164   20707992.1144
       222.6834        173.5194
 99  9 18  0  5  0.0000000  0  7G 4G19G14G22G18G 1G16
  24490659.3344  -13396995.26147  -9135681.66545  24490659.2684   24490668.5644
      -191.0924       -148.9024
  22347449.2434    -737154.41748   -559607.18547  22347448.1004   22347455.8494
      2927.1534       2280.8954
  21861199.9624  -37432273.44948 -28895015.97747  21861199.1574   21861207.4534
     -1999.6534      -1558.1694
  22444562.4034  -19975684.09548 -15255755.89446  22444561.2114   22444569.0984
     -1439.5994      -1121.7644
  21363538.5204  -30546473.41548 -23519576.99147  21363537.1054   21363543.9444
      2841.1084       2213.8494
  22708509.2654  -35850637.85248 -27277094.94746  22708507.9574   22708516.1154
     -1193.6444       -930.1094
  20706778.8734  -37287632.88149 -28760408.90247  20706777.5504   20706784.4374
       199.4794        155.4374
 99  9 18  0  5 30.0000000  0  7G 4G19G14G22G18G 1G16
  24491770.6874  -13391159.22347  -9131134.18045  24491769.3984   24491778.0914
      -203.9134       -158.8854
  22330743.4004    -824943.24148   -628014.00047  22330742.4124   22330750.2314
      2919.6914       2275.0834
  21872628.0394  -37372220.67348 -28848221.67647  21872626.9344   21872635.2274
     -2009.5044      -1565.8454
  22452801.2974  -19932386.07748 -15222017.24146  22452800.0214   22452808.2214
     -1452.7224      -1131.9894
  21347315.9594  -30631720.00548 -23586002.87247  21347315.0354   21347322.0844
      2836.2814       2210.0884
  22715321.1314  -35814838.86348 -27249199.69346  22715319.8334   22715327.9924
     -1198.6124       -933.9794
  20705675.5224  -37293432.27149 -28764927.92647  20705673.9894   20705680.7924
       181.4924        141.4234
 99  9 18  0  6  0.0000000  0  7G 4G19G14G22G18G 1G16
  24492964.6984  -13384886.99247  -9126246.80545  24492963.7104   24492973.4724
      -219.1224       -170.7364
  22314088.5744    -912462.87748   -696211.06447  22314087.6154   22314095.4684
      2910.3084       2267.7714
  21884120.4634  -37311827.47848 -28801162.11946  21884119.5644   21884127.5554
     -2021.4724      -1575.1724
  22461124.8654  -19888648.46548 -15187936.03846  22461123.2424   22461131.4884
     -1468.0114      -1143.9034
  21331131.0344  -30716773.32149 -23652278.15647  21331129.9314   21331137.1074
      2829.2124       2204.5804
  22722171.6724  -35778843.75348 -27221151.61646  22722170.0814   22722177.8514
     -1205.7444       -939.5394
  20704682.1154  -37298649.59749 -28768993.39547  20704680.8704   20704687.8254
       161.7794        126.0624
 99  9 18  0  6 30.0000000  0  7G 4G19G14G22G18G 1G16
  24494234.0654  -13378213.74147  -9121046.94645  24494233.8064   24494242.8644
      -229.6934       -178.9764
  22297475.5704    -999766.00548   -764239.42147  22297474.3514   22297482.3444
      2906.1644       2264.5424
  21895672.3964  -37251124.38848 -28753861.07546  21895671.1344   21895679.1304
     -2029.2824      -1581.2554
  22469525.0074  -19844504.83748 -15153538.45046  22469523.8404   22469531.4354
     -1479.0244      -1152.4834
  21314975.2294  -30801672.90749 -23718433.64647  21314974.1084   21314981.2314
      2826.7904       2202.6914
  22729051.3304  -35742690.53948 -27192980.36046  22729049.9964   22729057.4154
     -1208.1854       -941.4424
  20703789.7954  -37303339.34149 -28772647.76147  20703788.5694   20703795.3014
       147.0554        114.5894
 99  9 18  0  7  0.0000000  0  7G 4G19G14G22G18G 1G16
  24495573.6624  -13371176.61947  -9115563.53445  24495572.8464   24495581.5954
      -241.1134       -187.8794
  22280895.2444   -1086896.56548   -832133.30147  22280894.0944   22280902.0484
      2901.0064       2260.5214
  21907278.7364  -37190128.35148 -28706331.76546  21907277.6264   21907286.6894
     -2038.7594      -1588.6424
  22478002.0994  -19799959.75948 -15118828.03846  22478000.3164   22478008.4814
     -1492.4184      -1162.9224
  21298846.2014  -30886431.84449 -23784479.54447  21298845.2114   21298851.9744
      2822.2984       2199.1934
  22735957.2714  -35706400.04148 -27164702.12846  22735955.8204   22735963.3474
     -1212.7234       -944.9774
  20702992.2574  -37307531.36849 -28775914.29647  20702990.8964   20702997.7424
       130.9224        102.0184
 99  9 18  0  7 30.0000000  0  7G 4G19G14G22G18G 1G16
  24497010.7144  -13363624.78147  -9109679.02045  24497010.2004   24497018.7114
      -258.8324       -201.6854
  22264375.4194   -1173707.86948   -899778.41647  22264374.3384   22264382.1734
      2890.0674       2251.9974
  21918975.4334  -37128660.47448 -28658434.79746  21918974.7594   21918983.6844
     -2055.4714      -1601.6634
  22486589.4724  -19754832.76148 -15083664.18546  22486587.9924   22486596.0424
     -1512.5364      -1178.5964
  21282775.8684  -30970883.15349 -23850285.72947  21282774.7634   21282781.1554
      2811.2854       2190.6104
  22742920.3434  -35669805.62448 -27136187.06146  22742919.4414   22742927.4494
     -1223.1844       -953.1304
  20702319.9514  -37311064.36449 -28778667.30347  20702318.5364   20702325.4834
       108.1514         84.2754
 99  9 18  0  8  0.0000000  0  7G 4G19G14G22G18G 1G16
  24498523.8194  -13355672.41447  -9103482.43045  24498522.9764   24498531.8644
      -270.2154       -210.5534
  22247892.5304   -1260323.37948   -967270.96447  22247891.4634   22247900.1794
      2885.3834       2248.3504
  21930744.0304  -37066820.07448 -28610247.55146  21930742.9414   21930751.0944
     -2066.0154      -1609.8784
  22495268.7514  -19709224.44948 -15048125.28546  22495266.9144   22495274.5474
     -1526.8974      -1189.7884
  21266744.0864  -31055129.77849 -23915932.42647  21266742.9914   21266749.3744
      2806.3904       2186.7984
  22749918.3284  -35633028.07448 -27107529.28946  22749917.4944   22749926.4664
     -1227.5254       -956.5104
  20701754.0914  -37314036.93149 -28780983.61047  20701752.7194   20701759.9954
        91.2924         71.1384
 99  9 18  0  8 30.0000000  0  7G 4G19G14G22G18G 1G16
  24500103.6264  -13347380.40847  -9097021.21045  24500102.7934   24500111.0484
      -288.2194       -224.5854
  22231438.8784   -1346790.17848  -1034647.63447  22231437.9924   22231446.0264
      2873.4484       2239.0514
  21942571.8074  -37004663.30348 -28561813.77646  21942570.7844   21942579.1894
     -2083.0614      -1623.1644
  22504031.2564  -19663176.18048 -15012243.55646  22504029.7124   22504037.3664
     -1548.5544      -1206.6654
  21250740.6914  -31139228.21749 -23981463.64547  21250739.5094   21250745.9304
      2794.7504       2177.7274
  22756944.0034  -35596108.80148 -27078761.08546  22756942.9094   22756951.8734
     -1239.2054       -965.6124
  20701286.8394  -37316493.28749 -28782897.67247  20701285.3334   20701292.5004
        67.0504         52.2484
 99  9 18  0  9  0.0000000  0  7G 4G19G14G22G18G 1G16
  24501774.9594  -13338593.66747  -9090174.45145  24501773.6304   24501782.1744
      -295.4194       -230.1934
  22215045.6634   -1432935.89348  -1101774.10747  22215044.6474   22215052.9374
      2871.7754       2237.7454
  21954486.7834  -36942049.51948 -28513023.88946  21954485.8074   21954494.5464
     -2088.8704      -1627.6904
  22512908.0114  -19616531.47948 -14975897.07546  22512906.1294   22512913.7294
     -1558.6774      -1214.5514
  21234794.5404  -31223025.33848 -24046760.08247  21234793.6854   21234799.5674
      2794.0914       2177.2134
  22764028.1464  -35558884.60148 -27049755.28146  22764026.6474   22764034.9494
     -1239.9734       -966.2114
  20700948.9164  -37318266.47449 -28784279.40147  20700947.7404   20700955.3294
        53.4534         41.6534
 99  9 18  0  9 30.0000000  0  7G 4G19G14G22G18G 1G16
  24503520.2884  -13329412.39347  -9083020.26245  24503520.2814   24503530.4744
      -313.6204       -244.3784
  22198697.9664   -1518843.19348  -1168714.79447  22198696.8124   22198705.1414
      2858.4634       2227.3714
  21966469.3764  -36879082.50348 -28463958.75546  21966468.2984   21966476.8004
     -2105.6634      -1640.7744
  22521873.1544  -19569417.80748 -14939185.16746  22521871.5014   22521879.2814
     -1579.1104      -1230.4744
  21218886.8974  -31306623.46949 -24111901.46347  21218885.5874   21218891.4614
      2782.2654       2167.9994
  22771148.1454  -35521471.70848 -27020602.44346  22771146.5754   22771154.5594
     -1251.0704       -974.8574
  20700723.5654  -37319452.97449 -28785203.97147  20700722.1044   20700729.3154
        29.0194         22.6124
 99  9 18  0 10  0.0000000  0  7G 4G19G14G22G18G 1G16
  24505337.6174  -13319866.19447  -9075581.73645  24505337.3934   24505347.7944
      -321.2124       -250.2874
  22182393.0114   -1604524.77648  -1235479.60847  22182392.0694   22182400.4114
      2855.5354       2225.0924
  21978511.7954  -36815799.83048 -28414647.65546  21978511.0004   21978519.1274
     -2111.5114      -1645.3304
  22530919.9804  -19521876.46048 -14902140.01746  22530918.3074   22530926.3024
     -1588.5924      -1237.8614
  21203011.4334  -31390048.70749 -24176908.12447  21203010.2674   21203016.7324
      2781.2694       2167.2224
  22778297.5654  -35483900.97948 -26991326.62446  22778296.0824   22778304.6234
     -1251.9094       -975.5134
  20700599.8374  -37320101.69749 -28785709.49547  20700598.6114   20700605.9824
        16.1874         12.6144
 99  9 18  0 10 30.0000000  0  7G 4G19G14G22G18G 1G16
  24507217.2824  -13309988.87747  -9067885.16845  24507216.3554   24507225.9314
      -340.4134       -265.2564
  22166122.9224   -1690026.59248  -1302104.34747  22166121.8724   22166129.8364
      2841.6694       2214.2854
  21990607.1714  -36752236.15448 -28365117.58746  21990606.5174   21990615.1334
     -2128.9744      -1658.9394
  22540038.5384  -19473956.39148 -14864799.74946  22540036.9224   22540044.9464
     -1609.0464      -1253.7994
  21187161.0874  -31473339.54849 -24241810.05847  21187160.0694   21187166.7854
      2768.5914       2157.3434
  22785470.5264  -35446205.86848 -26961953.86946  22785469.0834   22785477.3304
     -1263.9524       -984.8954
  20700566.8934  -37320274.51349 -28785844.17847  20700565.7164   20700573.1624
        -7.5824         -5.9064
 99  9 18  0 11  0.0000000  0  7G 4G19G14G22G18G 1G16
  24509200.3784  -13299569.58947  -9059766.32045  24509199.1334   24509209.0714
      -356.1694       -277.5304
  22149925.6264   -1775144.71848  -1368430.09947  22149924.2214   22149932.0094
      2831.0114       2205.9804
  22002798.9154  -36688171.81748 -28315197.41046  22002797.9594   22002806.2094
     -2143.9654      -1670.6194
  22549266.3054  -19425467.97848 -14827016.61346  22549264.2734   22549272.2734
     -1625.5034      -1266.6244
  21171379.1474  -31556276.07249 -24306435.90447  21171377.9064   21171384.7264
      2758.6024       2149.5604
  22792704.7554  -35408185.27848 -26932327.50346  22792704.0754   22792712.1424
     -1272.5624       -991.6044
  20700663.3504  -37319770.77749 -28785451.68147  20700661.8994   20700669.2464
       -27.9084        -21.7444
 99  9 18  0 11 30.0000000  0  7G 4G19G14G22G18G 1G16
  24511251.3224  -13288792.16747  -9051368.39845  24511250.4254   24511260.3304
      -365.4084       -284.7374
  22133766.0514   -1860062.12248  -1434599.45147  22133765.0764   22133772.4494
      2827.4214       2203.1844
  22015055.0934  -36623766.61848 -28265011.61846  22015053.6364   22015062.2384
     -2152.4564      -1677.2354
  22558567.2394  -19376591.74848 -14788931.27546  22558565.4014   22558573.3254
     -1635.8564      -1274.6934
  21155633.1574  -31639021.63949 -24370912.95147  21155632.0564   21155638.6694
      2754.9784       2146.7354
  22799969.1904  -35370013.63648 -26902583.42746  22799967.9674   22799975.8324
     -1275.2014       -993.6594
  20700852.2114  -37318777.46049 -28784677.68747  20700850.8204   20700858.1314
       -41.2734        -32.1604
 99  9 18  0 12  0.0000000  0  7G 4G19G14G22G18G 1G16
  24513382.1724  -13277587.98247  -9042637.91945  24513382.3664   24513391.6124
      -382.5444       -298.0834
  22117651.3224   -1944744.59248  -1500585.73947  22117650.1504   22117658.1704
      2817.1074       2195.1464
  22027385.5364  -36558966.15948 -28214517.83446  22027384.5894   22027393.0084
     -2168.4174      -1689.6744
  22567954.8034  -19327259.01948 -14750490.23646  22567953.1554   22567960.9074
     -1653.9644      -1288.8024
  21139934.6114  -31721516.80049 -24435194.88747  21139933.7474   21139940.7584
      2743.8004       2138.0244
  22807277.6834  -35331609.74848 -26872658.39446  22807276.0174   22807283.7564
     -1286.0054      -1002.0804
  20701146.6294  -37317230.82449 -28783472.54247  20701145.2684   20701152.2754
       -62.8804        -48.9964
 99  9 18  0 12 30.0000000  0  7G 4G19G14G22G18G 1G16
  24515593.3824  -13265984.07047  -9033595.99745  24515592.1564   24515600.6944
      -392.4474       -305.8034
  22101574.9694   -2029226.43248  -1566415.69847  22101573.8464   22101581.7474
      2813.5404       2192.3674
  22039785.2664  -36493806.14848 -28163743.87146  22039784.3884   22039792.9604
     -2176.7864      -1696.1944
  22577425.2524  -19277490.59748 -14711709.69946  22577423.6854   22577431.4124
     -1665.2134      -1297.5664
  21124280.2294  -31803782.61649 -24499298.10947  21124279.2464   21124286.2004
      2739.4024       2134.5984
  22814625.5364  -35292991.46948 -26842566.30246  22814624.8384   22814633.1774
     -1289.7414      -1004.9904
  20701544.1624  -37315139.66349 -28781843.08947  20701542.9454   20701550.3014
       -77.8534        -60.6634
 99  9 18  0 13  0.0000000  0  8G 4G19G14G22G18G 1G27G16
  24517871.3684  -13253999.62047  -9024257.54245  24517870.9854   24517880.3304
      -403.1214       -314.1174
  22085537.6094   -2113503.95248  -1632086.44346  22085536.4664   22085544.1514
      2808.4764       2188.4204
  22052249.0514  -36428309.19648 -28112707.36846  22052248.2604   22052256.8284
     -2185.9934      -1703.3684
  22586977.5684  -19227295.47848 -14672596.67246  22586975.7554   22586983.2564
     -1677.7224      -1307.3124
  21108668.2124  -31885823.88949 -24563226.36547  21108666.9574   21108673.7934
      2733.4944       2129.9964
  22822014.1314  -35254170.67548 -26812316.39746  22822012.1384   22822020.1504
     -1294.7814      -1008.9164
  25200858.1134   -5732558.12957  -4179559.44145  25200857.6494   25200869.9924
      3564.5724       2777.5794
  20702045.1944  -37312509.64849 -28779793.74947  20702043.6884   20702050.9864
       -93.9904        -73.2384
 99  9 18  0 13 30.0000000  0  8G 4G19G14G22G18G 1G27G16
  24520248.3554  -13241516.40347  -9014530.43145  24520247.2074   24520255.7054
      -421.7904       -328.6624
  22069561.1644   -2197460.20848  -1697506.86547  22069559.9524   22069567.8874
      2796.0274       2178.7224
  22064796.4954  -36362374.69848 -28061329.92246  22064795.2514   22064803.8154
     -2201.9114      -1715.7734
  22596635.1424  -19176542.36148 -14633048.83546  22596633.6624   22596641.0474
     -1698.2124      -1323.2794
  21093122.3944  -31967515.96649 -24626882.52347  21093121.2534   21093128.2094
      2720.1844       2119.6234
  22829463.0674  -35215024.54248 -26781812.97546  22829461.6884   22829469.9154
     -1307.3624      -1018.7224
  25180551.0634   -5839273.61647  -4262714.17245  25180550.1534   25180561.7804
      3557.3734       2771.9724
  20702670.4364  -37309222.68649 -28777232.50547  20702669.1904   20702676.2694
      -117.7044        -91.7164
 99  9 18  0 14  0.0000000  0  8G 4G19G14G22G18G 1G27G16
  24522682.8824  -13228725.84547  -9004563.84545  24522681.6964   24522690.6534
      -436.2954       -339.9694
  22053609.4464   -2281284.94348  -1762824.79847  22053608.5944   22053616.1114
      2786.7394       2171.4824
  22077386.2554  -36296215.14748 -28009777.10246  22077385.2114   22077393.5724
     -2214.0814      -1725.2554
  22606361.1774  -19125428.48148 -14593219.87746  22606359.9464   22606367.5334
     -1714.9044      -1336.2904
  21077606.2744  -32049053.44849 -24690418.21747  21077605.3764   21077612.4094
      2710.3154       2111.9334
  22836935.1094  -35175756.17848 -26751214.32146  22836934.1614   22836942.2974
     -1315.7694      -1025.2724
  25160238.1914   -5946018.88247  -4345892.13545  25160236.7194   25160247.9544
      3553.6544       2769.0794
  20703385.3824  -37305467.68249 -28774306.55647  20703383.8974   20703390.8754
      -137.8414       -107.4094
 99  9 18  0 14 30.0000000  0  8G 4G19G14G22G18G 1G27G16
  24525207.7224  -13215453.05147  -8994221.48445  24525206.9114   24525216.5464
      -448.4874       -349.4724
  22037723.6284   -2364769.79648  -1827877.89347  22037722.3404   22037729.2634
      2779.0554       2165.4964
  22090054.8744  -36229640.74848 -27957901.03346  22090053.6924   22090062.1574
     -2224.0274      -1733.0054
  22616192.9244  -19073763.47148 -14552961.47646  22616191.4524   22616199.3234
     -1729.1424      -1347.3804
  21062156.1464  -32130245.09649 -24753684.43747  21062155.0474   21062162.1564
      2702.8124       2106.0864
  22844465.0004  -35136190.78648 -26720384.22446  22844463.5614   22844471.8784
     -1321.5914      -1029.8104
  25139956.2454   -6052601.59447  -4428943.42045  25139955.2324   25139965.7384
      3552.1314       2767.8864
  20704222.8444  -37301067.84749 -28770878.13947  20704221.3594   20704228.3404
      -155.1894       -120.9274
 99  9 18  0 15  0.0000000  0  8G 4G19G14G22G18G 1G27G16
  24527804.8074  -13201809.82747  -8983590.47245  24527803.4724   24527811.5164
      -462.4014       -360.3104
  22021882.7164   -2448011.67148  -1892741.65647  22021881.3804   22021888.4914
      2769.3144       2157.9064
  22102782.3284  -36162754.93048 -27905782.30046  22102781.6614   22102790.0974
     -2236.0404      -1742.3674
  22626107.7114  -19021665.13748 -14512365.42246  22626106.0294   22626113.2484
     -1745.2684      -1359.9494
  21046749.6854  -32211208.34149 -24816772.67447  21046748.6854   21046755.4524
      2693.6644       2098.9604
  22852027.6914  -35096447.01948 -26689415.12046  22852026.5254   22852034.8584
     -1329.0444      -1035.6164
  25119685.3794   -6159128.75647  -4511951.44645  25119683.5834   25119693.4504
      3548.5874       2765.1274
  20705160.4534  -37296139.15149 -28767037.61947  20705159.0524   20705166.1004
      -174.4494       -135.9344
 99  9 18  0 15 30.0000000  0  8G 4G19G14G22G18G 1G27G16
  24530473.7014  -13187782.07847  -8972659.82645  24530472.4234   24530482.3934
      -473.5834       -369.0214
  22006091.1264   -2530995.69748  -1957404.48847  22006090.1444   22006097.4164
      2762.2514       2152.4024
  22115572.7624  -36095544.00348 -27853410.23446  22115571.5614   22115580.0954
     -2245.4384      -1749.6904
  22636106.7254  -18969121.42748 -14471422.32046  22636104.7444   22636112.3434
     -1758.2774      -1370.0864
  21031386.2024  -32291943.53749 -24879683.20947  21031385.0794   21031392.3034
      2688.0324       2094.5694
  22859625.8064  -35056520.32448 -26658303.48246  22859624.2544   22859632.5414
     -1333.4344      -1039.0354
  25099426.6004   -6265585.93147  -4594904.93345  25099425.1334   25099435.4694
      3547.7594       2764.4824
  20706202.6394  -37290662.08549 -28762769.79847  20706201.4984   20706208.1124
      -191.4104       -149.1504
 99  9 18  0 16  0.0000000  0  8G 4G19G14G22G18G 1G27G16
  24533200.6564  -13173448.63847  -8961490.96845  24533200.1034   24533208.6104
      -483.4094       -376.6844
  21990335.1084   -2613794.11048  -2021922.68847  21990333.9744   21990341.6014
      2756.3404       2147.7964
  22128413.5614  -36028066.15048 -27800830.18246  22128412.3414   22128420.6644
     -2254.2224      -1756.5344
  22646173.1574  -18916217.99648 -14430198.92346  22646171.9414   22646179.4874
     -1770.0194      -1379.2354
  21016050.7234  -32372531.58549 -24942479.08647  21016049.6794   21016057.0434
      2683.2654       2090.8554
  22867243.3094  -35016487.99448 -26627109.53846  22867242.2194   22867250.1594
     -1336.6924      -1041.5764
  25079171.4244   -6372026.66047  -4677845.57245  25079169.5184   25079181.8334
      3547.1114       2763.9744
  20707338.2644  -37284695.16149 -28758120.26847  20707336.7834   20707343.5174
      -207.4894       -161.6804
 99  9 18  0 16 30.0000000  0  8G 4G19G14G22G18G 1G27G16
  24536002.8924  -13158720.91447  -8950014.89145  24536002.5044   24536013.0454
      -497.8384       -387.9274
  21974630.3994   -2696324.17148  -2086231.78447  21974629.2914   21974636.8194
      2746.3824       2140.0374
  22141319.7004  -35960241.10648 -27747979.59046  22141318.9044   22141327.2634
     -2266.6904      -1766.2484
  22656323.4004  -18862878.21948 -14388635.51246  22656321.8824   22656329.5414
     -1785.2214      -1391.0834
  21000758.8564  -32452891.94549 -25005097.54947  21000757.7694   21000765.1654
      2674.7414       2084.2134
  22874897.1124  -34976265.78048 -26595767.63046  22874896.0624   22874904.6164
     -1344.1584      -1047.3934
  25058935.4404   -6478361.89547  -4760704.02545  25058935.2624   25058945.2954
      3542.5004       2760.3924
  20708581.8984  -37278157.28349 -28753025.84347  20708580.7294   20708587.6764
      -227.7034       -177.4314
 99  9 18  0 17  0.0000000  0  8G 4G19G14G22G18G 1G27G16
  24538888.3244  -13143560.37047  -8938201.56945  24538887.7144   24538896.8884
      -512.0804       -399.0264
  21958980.2734   -2778565.69748  -2150316.05947  21958979.1064   21958986.4034
      2737.4284       2133.0594
  22154298.5984  -35892038.51648 -27694834.80446  22154297.6104   22154305.6884
     -2279.1294      -1775.9414
  22666561.0684  -18809082.76148 -14346717.02546  22666559.4244   22666566.6024
     -1800.2964      -1402.8264
  20985517.1754  -32532987.30249 -25067509.50947  20985516.0514   20985523.0634
      2665.7724       2077.2254
  22882595.7864  -34935813.28748 -26564246.29946  22882594.2734   22882602.5504
     -1351.9264      -1053.4464
  25038728.9984   -6584549.20147  -4843447.21845  25038727.7674   25038737.7124
      3537.5934       2756.5644
  20709944.1104  -37271003.44749 -28747451.44947  20709942.5374   20709949.3444
      -248.2904       -193.4714
 99  9 18  0 17 30.0000000  0  8G 4G19G14G22G18G 1G27G16
  24541848.2104  -13128015.21647  -8926088.53245  24541846.5554   24541854.8284
      -525.8554       -409.7604
  21943372.5524   -2860584.94048  -2214227.11847  21943371.4944   21943378.9664
      2729.0964       2126.5644
  22167338.9934  -35823509.85848 -27641435.94146  22167338.1644   22167346.5174
     -2290.8484      -1785.0734
  22676875.6074  -18754882.83348 -14304483.37146  22676873.5584   22676881.2384
     -1814.6364      -1414.0024
  20970320.2244  -32612848.23749 -25129738.80247  20970319.1574   20970326.1334
      2656.6224       2070.0954
  22890331.4604  -34895159.97448 -26532568.46646  22890330.7174   22890338.7374
     -1359.8834      -1059.6474
  25018540.8954   -6690634.25347  -4926110.69845  25018540.5704   25018550.4134
      3533.2994       2753.2114
  20711416.0944  -37263267.24249 -28741423.26247  20711414.6384   20711421.6334
      -268.8504       -209.4924
 99  9 18  0 18  0.0000000  0  8G 4G19G14G22G18G 1G27G16
  24544871.1154  -13112120.25947  -8913702.93145  24544871.3434   24544881.5174
      -538.4024       -419.5304
  21927797.6964   -2942431.95648  -2278003.97247  21927796.7024   21927804.2114
      2722.7724       2121.6404
  22180433.5734  -35754701.47748 -27587819.11546  22180432.3394   22180440.5634
     -2300.6284      -1792.6924
  22687258.4234  -18700316.02848 -14261963.85046  22687256.8804   22687264.7754
     -1827.7504      -1424.2224
  20955166.9514  -32692479.57049 -25191789.18147  20955165.6554   20955172.2804
      2647.8074       2063.2254
  22898102.2474  -34854324.36248 -26500748.58546  22898101.2704   22898109.5964
     -1366.7674      -1065.0094
  24998366.3984   -6796655.26447  -5008724.30545  24998364.8604   24998376.4744
      3530.5664       2751.0864
  20712991.8894  -37254984.47049 -28734969.18347  20712990.5254   20712997.6044
      -287.4894       -224.0164
 99  9 18  0 18 30.0000000  0  8G 4G19G14G22G18G 1G27G16
  24547974.8104  -13095812.61947  -8900995.75845  24547973.9394   24547984.5064
      -553.3804       -431.2084
  21912268.5774   -3024038.15948  -2341593.18347  21912267.4514   21912274.7984
      2713.0814       2114.0884
  22193590.6334  -35685563.08848 -27533945.14146  22193589.3084   22193597.3724
     -2313.1864      -1802.4824
  22697724.7174  -18645315.67448 -14219106.49046  22697722.8274   22697730.3894
     -1843.5244      -1436.5104
  20940071.3434  -32771803.13749 -25253599.74447  20940070.3994   20940077.5224
      2635.9404       2053.9794
  22905920.0954  -34813241.59948 -26468736.11746  22905919.3174   22905927.5574
     -1376.6914      -1072.7434
  24978214.0764   -6902556.67047  -5091244.66645  24978212.7354   24978223.8454
      3524.8604       2746.6374
  20714682.0554  -37246103.55249 -28728049.01247  20714680.7374   20714687.6684
      -309.1164       -240.8684
 99  9 18  0 19  0.0000000  0  8G 4G19G14G22G18G 1G27G16
  24551146.2384  -13079156.33847  -8888016.93545  24551144.7504   24551153.1314
      -556.8314       -433.8924
  21896776.0924   -3105449.73448  -2405030.73947  21896775.1554   21896782.8144
      2714.4574       2115.1604
  22206801.5844  -35616134.60448 -27479845.11546  22206800.8004   22206809.0984
     -2314.9654      -1803.8654
  22708265.4204  -18589925.55648 -14175945.41546  22708263.4104   22708270.8934
     -1848.9224      -1440.7174
  20925027.5254  -32850860.64249 -25315202.98147  20925026.5364   20925033.6354
      2634.9884       2053.2364
  22913777.8504  -34771947.93648 -26436559.33046  22913776.7624   22913785.7674
     -1375.7094      -1071.9784
  24958077.5084   -7008376.70647  -5173701.65645  24958075.8594   24958086.6534
      3530.1484       2750.7624
  20716477.7504  -37236666.83549 -28720695.75547  20716476.4334   20716483.4934
      -319.5964       -249.0354
 99  9 18  0 19 30.0000000  0  8G 4G19G14G22G18G 1G27G16
  24554373.5014  -13062186.34847  -8874793.62845  24554372.9064   24554383.1514
      -567.9734       -442.5804
  21881319.6744   -3186675.98648  -2468323.88847  21881318.3984   21881325.8114
      2707.2654       2109.5584
  22220064.5064  -35546442.18548 -27425539.42346  22220063.1974   22220071.0424
     -2324.5464      -1811.3324
  22718875.9984  -18534163.68948 -14132494.66946  22718874.6114   22718882.2534
     -1861.9404      -1450.8614
  20910029.0514  -32929681.66249 -25376621.94747  20910027.9094   20910034.6254
      2626.4484       2046.5834
  22921669.7474  -34730477.01748 -26404244.40846  22921668.7564   22921677.2084
     -1382.1504      -1076.9984
  24937948.6954   -7114148.68847  -5256121.19845  24937948.0054   24937958.9464
      3527.9964       2749.0754
  20718372.8444  -37226709.29649 -28712936.66247  20718371.3164   20718378.2274
      -337.3154       -262.8424
 99  9 18  0 20  0.0000000  0  8G 4G19G14G22G18G 1G27G16
  24557648.0914  -13044974.53447  -8861381.93245  24557647.8464   24557658.2214
      -577.4434       -449.9534
  21865885.7884   -3267779.18448  -2531521.14847  21865884.5264   21865892.4274
      2701.5784       2105.1254
  22233364.1754  -35476550.57348 -27371078.52046  22233363.0734   22233370.6454
     -2332.7804      -1817.7464
  22729543.7874  -18478106.54948 -14088813.84146  22729542.1434   22729549.9944
     -1873.1514      -1459.5944
  20895060.1664  -33008343.17449 -25437916.62147  20895058.9614   20895065.5474
      2620.0264       2041.5784
  22929579.2044  -34688916.97748 -26371860.04246  22929577.5334   22929586.0584
     -1386.2614      -1080.1984
  24917816.9864   -7219942.82547  -5338558.02645  24917815.9054   24917827.8194
      3527.2024       2748.4624
  20720348.7034  -37216323.99249 -28704844.24447  20720347.3154   20720354.4684
      -352.9134       -274.9964
 99  9 18  0 20 30.0000000  0  9G 4G19G14G22G 3G18G 1G27G16
  24561032.4664  -13027192.70347  -8847526.06145  24561031.2784   24561041.5814
      -598.0974       -466.0514
  21850542.1304   -3348409.97548  -2594350.30447  21850541.1464   21850548.9454
      2684.1114       2091.5144
  22246766.7724  -35406116.47448 -27316194.90246  22246765.9064   22246774.1494
     -2352.6344      -1833.2194
  22740329.9124  -18421427.25948 -14044648.22746  22740327.6384   22740335.8804
     -1895.3734      -1476.9114
  24787262.0164   -4893807.95357  -3329923.55545  24787261.9594   24787274.4504
      3067.4474       2390.2154
  20880180.2874  -33086536.91549 -25498846.79947  20880179.0554   20880185.3254
      2603.1364       2028.4154
  22937565.2414  -34646947.35448 -26339156.53246  22937564.3424   22937572.5084
     -1401.6914      -1092.2254
  24897744.5344   -7325421.21447  -5420748.81045  24897743.7534   24897755.0634
      3514.8774       2738.8604
  20722470.3764  -37205176.56549 -28696157.96947  20722468.9694   20722476.0174
      -380.1134       -296.1924
 99  9 18  0 21  0.0000000  0  9G 4G19G14G22G 3G18G 1G27G16
  24564461.5144  -13009178.87747  -8833489.37745  24564460.6144   24564470.4894
      -610.3244       -475.5714
  21835222.3954   -3428915.04648  -2657081.48547  21835221.4904   21835229.2414
      2675.7094       2084.9664
  22260209.3284  -35335476.09148 -27261150.54546  22260208.2894   22260217.0214
     -2363.7374      -1841.8694
  22751168.9324  -18364464.81448 -14000261.96746  22751166.9924   22751175.7394
     -1909.2694      -1487.7414
  24769747.2924   -4985850.36747  -3401644.77045  24769746.8904   24769758.3544
      3061.5314       2385.6014
  20865322.7794  -33164612.83949 -25559685.17247  20865321.7384   20865328.0074
      2594.7904       2021.9144
  22945566.0834  -34604903.76748 -26306395.38246  22945565.1714   22945572.9634
     -1408.2684      -1097.3474
  24877670.1774   -7430921.65447  -5502956.78345  24877667.7194   24877678.0114
      3511.4394       2736.1854
  20724671.8824  -37193605.65949 -28687141.71547  20724670.5144   20724677.7274
      -398.4544       -310.4824
 99  9 18  0 21 30.0000000  0  9G 4G19G14G22G 3G18G 1G27G16
  24567959.2444  -12990794.47947  -8819163.96245  24567958.1754   24567968.3234
      -620.7424       -483.6884
  21819950.5884   -3509170.65848  -2719618.29147  21819949.4404   21819957.1934
      2669.4954       2080.1264
  22273713.0964  -35264513.06448 -27205854.78246  22273712.1434   22273721.1944
     -2372.4084      -1848.6264
  22762085.8954  -18307096.24448 -13955559.25246  22762084.2534   22762092.3754
     -1920.6354      -1496.5944
  24752265.3974   -5077719.46547  -3473230.95845  24752263.5794   24752276.3144
      3057.7834       2382.6904
  20850513.7614  -33242434.35049 -25620325.29847  20850512.8174   20850519.4584
      2587.9934       2016.6174
  22953603.0814  -34562671.55348 -26273487.24746  22953601.6934   22953610.0174
     -1412.5654      -1100.6964
  24857610.3214   -7536326.78047  -5585090.48345  24857608.5824   24857620.0384
      3510.2094       2735.2254
  20726977.7044  -37181487.59349 -28677699.10047  20726976.4434   20726983.8504
      -414.6514       -323.1044
 99  9 18  0 22  0.0000000  0  9G 4G19G14G22G 3G18G 1G27G16
  24571536.1454  -12971995.59047  -8804515.57645  24571536.3634   24571546.8884
      -634.9264       -494.7474
  21804733.0414   -3589139.62648  -2781931.73547  21804731.7744   21804739.2864
      2659.2754       2072.1614
  22287285.9584  -35193187.75848 -27150276.72046  22287285.1804   22287293.9874
     -2384.9014      -1858.3614
  22773088.9224  -18249276.00748 -13910504.59446  22773086.9374   22773095.3534
     -1936.5184      -1508.9724
  24734823.7994   -5169370.97947  -3544647.57445  24734824.0414   24734834.0754
      3049.9384       2376.5794
  20835762.9994  -33319950.35149 -25680727.36447  20835761.8024   20835768.4944
      2577.5044       2008.4454
  22961683.2674  -34520203.76548 -26240395.55046  22961682.2584   22961691.2914
     -1421.0584      -1107.3154
  24837580.6614   -7641588.67747  -5667112.58845  24837579.2344   24837590.1304
      3504.9904       2731.1554
  20729396.7794  -37168776.92549 -28667794.71247  20729395.3484   20729402.6744
      -435.2254       -339.1364
 99  9 18  0 22 30.0000000  0  9G 4G19G14G22G 3G18G 1G27G16
  24575183.6764  -12952839.23647  -8789588.65145  24575182.8594   24575191.9534
      -646.6874       -503.9094
  21789561.5804   -3668863.20248  -2844053.96147  21789560.5864   21789568.9434
      2651.2024       2065.8704
  22300916.7744  -35121557.68048 -27094461.17746  22300915.8834   22300925.1614
     -2394.8844      -1866.1414
  22784171.0754  -18191037.14448 -13865123.72646  22784169.7144   22784177.4024
     -1950.5614      -1519.9174
  24717417.2434   -5260847.84747  -3615928.07845  24717414.7074   24717430.1834
      3043.8814       2371.8514
  20821058.8374  -33397221.50849 -25740938.64647  20821057.7064   20821064.2794
      2569.3294       2002.0754
  22969803.4794  -34477538.57048 -26207150.03746  22969802.0104   22969810.4494
     -1427.8374      -1112.5984
  24817565.4244   -7746764.30747  -5749067.48345  24817563.9524   24817575.7694
      3502.2654       2729.0284
  20731920.8714  -37155512.11749 -28657458.53447  20731919.3994   20731927.0234
      -453.4474       -353.3344
 99  9 18  0 23  0.0000000  0  9G 4G19G14G22G 3G18G 1G27G16
  24578910.5674  -12933253.26847  -8774326.95845  24578909.2254   24578918.6184
      -661.8854       -515.7504
  21774451.9254   -3748265.37648  -2905925.75847  21774451.0834   21774458.8214
      2639.4274       2056.6954
  22314620.4004  -35049546.20748 -27038348.44346  22314619.5564   22314628.1874
     -2408.5214      -1876.7684
  22795349.7544  -18132294.12248 -13819350.01146  22795348.2274   22795355.6444
     -1968.3334      -1533.7634
  24700060.2944   -5352059.96747  -3687002.33045  24700058.8324   24700068.5184
      3034.0224       2364.1664
  20806418.0244  -33474159.01949 -25800889.94247  20806416.9414   20806423.3384
      2557.1014       1992.5464
  22977977.3864  -34434585.41448 -26173680.12546  22977976.0324   22977983.7474
     -1438.4244      -1120.8464
  24797582.8724   -7851775.25247  -5830894.07745  24797581.0444   24797592.2034
      3495.8164       2724.0094
  20734564.5004  -37141621.47649 -28646634.69347  20734562.9464   20734570.5194
      -475.3254       -370.3824
 99  9 18  0 23 30.0000000  0  9G 4G19G14G22G 3G18G 1G27G16
  24582690.3594  -12913386.48647  -8758846.44645  24582689.5784   24582700.3064
      -671.3444       -523.1224
  21759379.6134   -3827472.18148  -2967645.32247  21759378.5534   21759386.2294
      2632.2354       2051.0904
  22328370.7564  -34977292.07548 -26982046.62146  22328369.4234   22328377.9994
     -2417.2174      -1883.5444
  22806596.6874  -18073192.08048 -13773296.53746  22806594.9744   22806602.8964
     -1980.5944      -1543.3174
  24682727.8624   -5443141.27147  -3757974.64145  24682726.5504   24682736.4534
      3029.1384       2360.3544
  20791815.1964  -33550896.88149 -25860685.66947  20791814.0404   20791820.6824
      2550.0814       1987.0764
  22986180.9014  -34391477.49648 -26140089.61946  22986178.7474   22986187.1544
     -1444.3124      -1125.4374
  24777603.5984   -7956757.54947  -5912698.34045  24777603.3944   24777614.9014
      3494.1964       2722.7464
  20737300.4774  -37127242.31949 -28635430.18747  20737299.2014   20737306.5514
      -492.0044       -383.3794
 99  9 18  0 24  0.0000000  0  9G 4G19G14G22G 3G18G 1G27G16
  24586533.2874  -12893190.27147  -8743109.23945  24586532.7484   24586542.8564
      -677.6604       -528.0464
  21744357.8304   -3906411.87848  -3029156.73647  21744356.7564   21744364.7814
      2628.0314       2047.8154
  22342180.9954  -34904719.22248 -26925496.44646  22342179.7854   22342188.5794
     -2423.1034      -1888.1304
  22817922.3304  -18013675.04748 -13726919.70046  22817920.5304   22817928.8614
     -1989.4634      -1550.2304
  24665435.3764   -5534014.69247  -3828784.97845  24665434.4704   24665443.8754
      3026.8724       2358.5984
  20777262.4104  -33627373.40749 -25920277.75747  20777261.3464   20777267.5404
      2546.0754       1983.9544
  22994427.1414  -34348135.21048 -26106316.50946  22994426.4284   22994435.4104
     -1447.5424      -1127.9524
  24757646.7124   -8061639.12547  -5994424.12845  24757645.2504   24757656.7634
      3495.5754       2723.8224
  20740142.7724  -37112307.14249 -28623792.42547  20740141.3864   20740148.7714
      -505.9394       -394.2374
 99  9 18  0 24 30.0000000  0  9G 4G19G14G22G 3G18G 1G27G16
  24590437.6634  -12872676.63747  -8727124.69245  24590437.1364   24590445.4564
      -689.4904       -537.2644
  21729382.6734   -3985105.62248  -3090476.50747  21729381.6364   21729389.6934
      2618.9414       2040.7324
  22356046.3974  -34831853.73348 -26868718.24646  22356045.6734   22356054.6294
     -2433.9184      -1896.5584
  22829319.7014  -17953781.03548 -13680249.12246  22829317.9724   22829326.4954
     -2002.7404      -1560.5764
  24648176.7454   -5624702.86047  -3899450.96645  24648176.1154   24648189.0894
      3019.7634       2353.0594
  20762757.0134  -33703597.46049 -25979673.11447  20762755.9954   20762762.5654
      2535.8914       1976.0174
  23002717.9044  -34304571.37348 -26072370.75046  23002716.6324   23002725.3134
     -1455.9324      -1134.4914
  24737703.6494   -8166434.05847  -6076082.41445  24737702.7654   24737715.5734
      3491.3394       2720.5154
  20743087.0544  -37096834.13249 -28611735.56947  20743085.6614   20743093.4374
      -524.7694       -408.9094
 99  9 18  0 25  0.0000000  0  9G 4G19G14G22G 3G18G 1G27G16
  24594389.6644  -12851913.34947  -8710945.59545  24594388.6014   24594397.2304
      -694.4724       -541.1374
  21714438.3584   -4063638.72948  -3151671.10647  21714437.4144   21714445.5214
      2617.0784       2039.2814
  22369952.2304  -34758777.73248 -26811776.00946  22369951.2214   22369960.1674
     -2437.2044      -1899.1164
  22840769.7404  -17893609.61448 -13633362.37346  22840768.3114   22840776.6914
     -2008.2374      -1564.8624
  24630937.4544   -5715287.97147  -3970036.63145  24630937.0194   24630950.9464
      3019.7824       2353.0694
  20748292.6784  -33779608.99249 -26038902.87647  20748291.6724   20748298.2104
      2532.1474       1973.1014
  23011034.0114  -34260869.05548 -26038317.07646  23011033.2434   23011041.5594
     -1456.8434      -1135.1994
  24717767.0454   -8271205.56447  -6157722.43245  24717765.4144   24717777.6264
      3493.9604       2722.5634
  20746118.0364  -37080906.22349 -28599324.24847  20746116.6884   20746124.2634
      -536.5014       -418.0514
 99  9 18  0 25 30.0000000  0  9G 4G19G14G22G 3G18G 1G27G16
  24598404.1134  -12830805.70547  -8694498.17645  24598403.9604   24598413.1844
      -712.9794       -555.5634
  21699541.7404   -4141921.27248  -3212670.46847  21699540.7124   21699548.3714
      2601.8294       2027.4004
  22383913.5674  -34685411.11048 -26754607.31646  22383912.6904   22383921.5284
     -2453.8764      -1912.1084
  22852287.7774  -17833084.28448 -13586199.84946  22852286.2494   22852294.2594
     -2026.9604      -1579.4484
  24613739.2044   -5805672.15647  -4040465.72145  24613736.8004   24613748.8984
      3005.9034       2342.2554
  20733886.7264  -33855313.11449 -26097893.10047  20733885.6564   20733892.0424
      2514.7934       1959.5784
  23019392.0094  -34216950.61148 -26004095.00246  23019390.6294   23019399.0434
     -1470.9294      -1146.1754
  24697853.2034   -8375853.91347  -6239266.52645  24697852.1074   24697863.7294
      3482.5994       2713.7094
  20749252.9444  -37064432.44649 -28586487.57647  20749251.5624   20749258.9864
      -561.8254       -437.7854
 99  9 18  0 26  0.0000000  0  9G 4G19G14G22G 3G18G 1G27G16
  24602499.7744  -12809286.26447  -8677729.86545  24602499.0554   24602508.7844
      -718.0964       -559.5484
  21684702.4274   -4219903.81748  -3273436.06147  21684701.3324   21684708.7004
      2600.9034       2026.6784
  22397940.7934  -34611698.18648 -26697168.77646  22397939.5224   22397948.7034
     -2456.3024      -1913.9994
  22863883.9654  -17772147.59048 -13538716.77946  22863882.0484   22863890.2924
     -2031.7804      -1583.2034
  24596590.9394   -5895791.66247  -4110688.56645  24596590.7914   24596598.6014
      3006.2434       2342.5214
  20719551.4194  -33930645.30349 -26156593.50247  20719550.2744   20719556.8874
      2511.3604       1956.9034
  23027798.6484  -34172770.98648 -25969669.41546  23027797.5824   23027806.4954
     -1470.4714      -1145.8174
  24677974.6054   -8480311.05647  -6320661.61545  24677973.7094   24677984.7324
      3485.2164       2715.7524
  20752504.3594  -37047348.75249 -28573175.64147  20752502.7164   20752510.2984
      -573.0974       -446.5684
 99  9 18  0 26 30.0000000  0  9G 4G19G14G22G 3G18G 1G27G16
  24606650.3484  -12787474.84047  -8660734.03345  24606649.4784   24606658.6784
      -736.6304       -573.9984
  21669893.1114   -4297726.20448  -3334076.86347  21669892.1144   21669899.5034
      2586.6174       2015.5474
  22412006.9534  -34537780.30048 -26639570.53446  22412005.9354   22412014.4584
     -2472.0494      -1926.2684
  22875533.5574  -17710928.34348 -13491013.54546  22875531.4804   22875540.1174
     -2050.1724      -1597.5364
  24579463.0234   -5985799.03547  -4180824.04845  24579460.8924   24579473.5644
      2993.6224       2332.6894
  20705260.7274  -34005744.99349 -26215112.73547  20705259.4674   20705265.8334
      2494.9124       1944.0874
  23036227.8114  -34128478.56448 -25935155.93646  23036226.1694   23036235.1934
     -1482.8884      -1155.4954
  24658108.5394   -8584713.91847  -6402014.41745  24658107.2124   24658117.5284
      3474.4834       2707.3884
  20755844.4584  -37029794.40649 -28559496.96747  20755843.1004   20755850.9054
      -597.6304       -465.6864
 99  9 18  0 27  0.0000000  0  9G 4G19G14G22G 3G18G 1G27G16
  24610881.9384  -12765238.56847  -8643407.16645  24610881.9174   24610891.3164
      -743.9864       -579.7334
  21655143.8524   -4375234.64048  -3394473.01447  21655142.8524   21655150.2134
      2582.5024       2012.3384
  22426141.0054  -34463508.17948 -26581696.26346  22426139.4764   22426148.3754
     -2477.3104      -1930.3684
  22887265.9964  -17649270.90248 -13442968.86646  22887264.6454   22887273.1024
     -2058.4224      -1603.9624
  24562385.0084   -6075538.61447  -4250750.85745  24562384.1604   24562394.9174
      2991.1934       2330.7884
  20691036.7714  -34080490.05749 -26273355.63847  20691035.7084   20691042.6714
      2490.4654       1940.6224
  23044703.7084  -34083932.36148 -25900444.69946  23044703.3344   23044711.7664
     -1484.8024      -1156.9864
  24638279.1674   -8688918.43347  -6483212.63545  24638277.8774   24638288.3124
      3474.5484       2707.4334
  20759303.3884  -37011619.02749 -28545334.37047  20759301.9334   20759309.2894
      -612.0224       -476.8994
 99  9 18  0 27 30.0000000  0  9G 4G19G14G22G 3G18G 1G27G16
  24615162.1414  -12742748.63947  -8625882.65045  24615161.9784   24615171.8284
      -759.3974       -591.7314
  21640424.4144   -4452586.08048  -3454746.84547  21640423.3434   21640430.6364
      2570.3124       2002.8414
  22440310.8394  -34389043.68548 -26523672.09246  22440309.8794   22440318.4634
     -2490.8884      -1940.9504
  22899053.8494  -17587326.78148 -13394700.78846  22899052.0514   22899060.4574
     -2075.1764      -1617.0184
  24545328.1214   -6165176.07147  -4320598.09445  24545326.9884   24545338.1974
      2980.7914       2322.6914
  20676842.6354  -34155081.60649 -26331478.91647  20676841.4744   20676848.2374
      2478.2584       1931.1114
  23053200.3894  -34039291.55548 -25865659.75246  23053198.5914   23053206.5984
     -1495.1954      -1165.0844
  24618454.7244   -8793097.11547  -6564390.74546  24618453.4824   24618463.7494
      3466.9774       2701.5374
  20762849.8934  -36992981.75749 -28530811.85847  20762848.5214   20762855.8624
      -634.2884       -494.2504
 99  9 18  0 28  0.0000000  0  9G 4G19G14G22G 3G18G 1G27G16
  24619539.0314  -12719747.68447  -8607959.90245  24619538.0204   24619548.3554
      -774.1974       -603.2704
  21625784.1714   -4529521.37948  -3514696.41047  21625782.9334   21625790.5564
      2558.5214       1993.6524
  22454566.3264  -34314130.64348 -26465298.39946  22454565.2614   22454573.6824
     -2503.3144      -1950.6304
  22910946.9714  -17524832.36748 -13346003.91746  22910944.7534   22910953.2514
     -2091.3344      -1629.6084
  24528335.3704   -6254458.92547  -4390169.01345  24528335.4564   24528347.1304
      2971.3284       2315.3194
  20662726.7484  -34229259.91449 -26389280.18447  20662725.6824   20662732.3994
      2466.8424       1922.2154
  23061763.6674  -33994283.58848 -25830588.70346  23061762.6714   23061771.1844
     -1505.6494      -1173.2304
  24598678.7304   -8897014.67947  -6645365.37945  24598678.2884   24598688.8174
      3460.8434       2696.7554
  20766530.7204  -36973641.46149 -28515741.54047  20766529.2864   20766536.6694
      -655.1324       -510.4914
 99  9 18  0 28 30.0000000  0  9G 4G19G14G22G 3G18G 1G27G16
  24623974.8384  -12696436.24747  -8589795.23045  24623974.6264   24623984.2054
      -781.1924       -608.7204
  21611186.6534   -4606232.04848  -3574470.94947  21611185.5334   21611192.5914
      2554.0784       1990.1914
  22468866.8204  -34238979.16948 -26406738.91546  22468865.6504   22468874.5464
     -2508.0134      -1954.2914
  22922906.3154  -17461981.58948 -13297029.35446  22922904.8334   22922913.1054
     -2100.1634      -1636.4884
  24511379.4234   -6343576.13647  -4459610.84645  24511377.8054   24511390.1164
      2968.2844       2312.9454
  20648652.5574  -34303222.51449 -26446913.37247  20648651.2984   20648658.0074
      2462.6064       1918.9144
  23070364.4714  -33949085.15648 -25795369.22846  23070364.2014   23070372.6174
     -1508.9104      -1175.7734
  24578914.3444   -9000878.43547  -6726298.08045  24578913.8264   24578925.0314
      3462.0314       2697.6824
  20770305.3374  -36953803.88949 -28500283.72847  20770303.8944   20770311.7014
      -668.6384       -521.0144
 99  9 18  0 29  0.0000000  0  9G 4G19G14G22G 3G18G 1G27G16
  24628477.9724  -12672775.07347  -8571358.07545  24628476.7474   24628485.7574
      -793.6694       -618.4404
  21596642.6054   -4682661.65248  -3634026.46047  21596641.4324   21596648.5404
      2544.1174       1982.4264
  22483220.9434  -34163547.31048 -26347960.94946  22483220.2144   22483229.1134
     -2517.8704      -1961.9754
  22934945.3284  -17398717.41048 -13247732.65946  22934943.5514   22934951.8934
     -2114.6264      -1647.7574
  24494467.7034   -6432445.49547  -4528859.52345  24494467.4174   24494477.0554
      2959.2704       2305.9144
  20634629.9754  -34376911.72649 -26504333.52847  20634628.9924   20634635.1254
      2452.5674       1911.0914
  23079014.4674  -33903635.97748 -25759954.38746  23079012.9214   23079021.1984
     -1518.1494      -1182.9684
  24559170.6594   -9104633.59647  -6807146.18246  24559169.5974   24559180.9904
      3457.6594       2694.2804
  20774184.3734  -36933418.75449 -28484399.24947  20774182.8754   20774190.3934
      -687.5484       -535.7494
 99  9 18  0 29 30.0000000  0  9G 4G19G14G22G 3G18G 1G27G16
  24633020.8994  -12648907.80547  -8552760.31545  24633018.6774   24633028.8584
      -797.9004       -621.7374
  21582120.6344   -4758975.19648  -3693491.53647  21582119.5094   21582126.5844
      2543.1514       1981.6754
  22497597.4124  -34088001.32048 -26289094.04646  22497596.2144   22497604.8324
     -2518.8464      -1962.7324
  22947031.3654  -17335202.63148 -13198240.70846  22947029.9504   22947038.6144
     -2120.1324      -1652.0494
  24477574.9514   -6521212.81947  -4598028.70545  24477574.3364   24477585.9584
      2958.1824       2305.0664
  20620636.6654  -34450447.77849 -26561634.33847  20620635.5574   20620641.6184
      2449.2984       1908.5424
  23087680.9064  -33858087.00348 -25724461.79346  23087679.9604   23087689.3094
     -1518.6624      -1183.3684
  24539418.2484   -9208433.38647  -6888029.03745  24539417.0784   24539427.7454
      3461.9744       2697.6354
  20778137.1404  -36912646.63749 -28468213.21747  20778135.8784   20778143.5574
      -697.6414       -543.6154
 99  9 18  0 30  0.0000000  0  9G 4G19G14G22G 3G18G 1G27G16
  24637615.0844  -12624750.93847  -8533936.86645  24637614.6414   24637623.8984
      -813.3764       -633.8024
  21567634.7864   -4835096.65848  -3752806.94647  21567633.7944   21567641.1794
      2530.9364       1972.1574
  22512009.1044  -34012263.82548 -26230077.92546  22512008.5864   22512017.8554
     -2531.0464      -1972.2384
  22959179.2464  -17271366.10148 -13148498.04046  22959177.4024   22959186.1014
     -2136.5334      -1664.8264
  24460722.0784   -6609778.28947  -4667040.61345  24460721.4664   24460732.7294
      2945.6374       2295.2964
  20606694.0494  -34523712.87549 -26618724.01547  20606693.0934   20606699.7554
      2434.3324       1896.8814
  23096382.5874  -33812363.46448 -25688833.16846  23096381.8614   23096390.4894
     -1530.2034      -1192.3624
  24519674.3734   -9312189.26847  -6968877.70345  24519673.2114   24519683.8854
      3454.2394       2691.6084
  20782180.5214  -36891399.09849 -28451656.73447  20782179.0674   20782187.1014
      -719.7474       -560.8404
 99  9 18  0 30 30.0000000  0  9G 4G19G14G22G 3G18G 1G27G16
  24642294.6084  -12600161.81447  -8514776.60445  24642294.3584   24642305.4264
      -823.1824       -641.4344
  21553212.3784   -4910886.61648  -3811864.04447  21553211.4384   21553218.4704
      2524.3334       1967.0134
  22526487.7014  -33936182.41848 -26170793.82746  22526486.4924   22526495.3374
     -2538.3564      -1977.9364
  22971414.8364  -17207067.75048 -13098395.52146  22971413.3614   22971421.5644
     -2147.3614      -1673.2684
  24443933.4844   -6697997.72547  -4735782.87745  24443932.3404   24443944.4754
      2938.5224       2289.7494
  20592833.4094  -34596549.88749 -26675480.11947  20592832.6384   20592839.6414
      2424.2974       1889.0624
  23105143.2924  -33766332.49248 -25652964.97646  23105141.3344   23105150.1954
     -1535.7234      -1196.6684
  24499969.8994   -9415735.59847  -7049563.04945  24499968.8204   24499979.7114
      3451.5964       2689.5514
  20786346.7114  -36869505.94649 -28434597.17647  20786345.2804   20786353.1204
      -737.0064       -574.2894
 99  9 18  0 30 59.9990000  0  9G 4G19G14G22G 3G18G 1G27G16
  24647044.1234  -12575213.24047  -8495336.24545  24647043.1334   24647051.7854
      -843.5554       -657.3164
  21538841.5644   -4986406.37848  -3870710.59447  21538840.5834   21538847.8514
      2507.2384       1953.6914
  22541020.2734  -33859812.23448 -26111284.70946  22541019.6684   22541028.3144
     -2556.5004      -1992.0714
  22983723.5374  -17142385.99048 -13047994.21646  22983722.2784   22983729.8784
     -2168.1714      -1689.4804
  24427198.9934   -6785944.76347  -4804312.90345  24427196.9624   24427208.3834
      2921.6304       2276.5894
  20579044.4134  -34669013.26949 -26731945.08247  20579043.2714   20579050.1744
      2403.3354       1872.7284
  23113945.6054  -33720073.22448 -25616918.89846  23113944.6954   23113953.1184
     -1551.5874      -1209.0234
  24480294.1394   -9519132.50647  -7130131.95845  24480292.7704   24480303.2974
      3438.4344       2679.2904
  20790623.2314  -36847031.45449 -28417084.62047  20790621.8614   20790629.7384
      -764.6444       -595.8254
 99  9 18  0 31 29.9990000  0  9G 4G19G14G22G 3G18G 1G27G16
  24651850.1024  -12549961.38747  -8475659.56745  24651848.7684   24651857.1794
      -846.2724       -659.4224
  21524510.0084   -5061718.73648  -3929395.54847  21524508.9114   21524516.3044
      2507.1614       1953.6314
  22555602.2314  -33783188.57248 -26051578.08546  22555600.9544   22555609.8924
     -2558.1644      -1993.3694
  22996091.9614  -17077391.72548 -12997349.41246  22996090.2274   22996098.4674
     -2171.2414      -1691.8754
  24410499.2174   -6873695.33747  -4872689.83545  24410498.5634   24410510.0894
      2922.1314       2276.9824
  20565319.3074  -34741140.76549 -26788148.31547  20565318.3274   20565325.0384
      2399.0234       1869.3684
  23122781.1314  -33673641.04948 -25580738.08546  23122779.7114   23122789.0024
     -1550.2004      -1207.9454
  24460635.4834   -9622435.09147  -7210627.36445  24460634.5644   24460645.4084
      3442.2344       2682.2534
  20795000.0064  -36824030.71549 -28399162.00847  20794998.8044   20795006.4194
      -774.9894       -603.8854
 99  9 18  0 31 59.9990000  0  9G 4G19G14G22G 3G18G 1G27G16
  24656713.8854  -12524404.58147  -8455745.25945  24656712.7804   24656721.6694
      -853.1164       -664.7654
  21510223.8964   -5136791.00548  -3987893.40347  21510222.8814   21510230.4024
      2502.1524       1949.7274
  22570238.2724  -33706277.68248 -25991647.64646  22570236.8704   22570246.1254
     -2564.7194      -1998.4764
  23008522.0364  -17012069.77848 -12946449.27846  23008520.7594   23008528.8714
     -2179.1744      -1698.0564
  24393841.3304   -6961238.32947  -4940905.00945  24393840.8204   24393850.8734
      2918.4814       2274.1364
  20551661.1234  -34812917.20049 -26844077.98747  20551659.7434   20551666.1394
      2390.7014       1862.8834
  23131654.8634  -33627009.27848 -25544401.74546  23131653.4544   23131662.1594
     -1554.0364      -1210.9334
  24441002.5484   -9725610.29847  -7291023.47546  24441000.9224   24441011.8714
      3440.7224       2681.0744
  20799481.7484  -36800480.74949 -28380811.42547  20799480.4744   20799488.0254
      -790.4344       -615.9224
 99  9 18  0 32 29.9990000  0  9G 4G19G14G22G 3G18G 1G27G16
  24661617.3604  -12498626.94747  -8435658.91545  24661616.5604   24661626.3824
      -862.5724       -672.1344
  21495970.6714   -5211694.11048  -4046259.43347  21495969.6224   21495976.9164
      2494.2084       1943.5374
  22584915.9314  -33629145.09848 -25931544.46346  22584914.6214   22584923.5814
     -2574.4884      -2006.0904
  23021002.3744  -16946486.55248 -12895345.54146  23021001.1224   23021008.7964
     -2190.1784      -1706.6304
  24377209.5364   -7048644.28147  -5009013.39345  24377207.6894   24377218.4724
      2911.3824       2268.6014
  20538051.4584  -34884431.93149 -26899803.74047  20538050.8294   20538057.0984
      2380.1014       1854.6254
  23140554.6554  -33580240.20548 -25507958.42246  23140553.5094   23140562.2904
     -1561.0624      -1216.4084
  24421380.2554   -9828720.73347  -7371369.13246  24421379.6384   24421390.1594
      3436.3764       2677.6964
  20804053.2694  -36776456.23649 -28362091.06547  20804051.9904   20804059.7564
      -808.2764       -629.8244
 99  9 18  0 32 59.9990000  0  9G 4G19G14G22G 3G18G 1G27G16
  24666587.1764  -12472516.18647  -8415312.95745  24666586.3744   24666595.0004
      -881.1174       -686.5784
  21481772.3864   -5286306.91448  -4104399.26847  21481771.3634   21481778.5774
      2477.1994       1930.2844
  22599656.7474  -33551676.63448 -25871179.55446  22599656.1714   22599665.3064
     -2592.8214      -2020.3744
  23033554.3874  -16880526.72948 -12843948.35446  23033552.5484   23033561.1304
     -2209.9964      -1722.0694
  24360626.7404   -7135783.17547  -5076913.68645  24360624.3224   24360635.4684
      2894.9784       2255.8224
  20524511.2304  -34955587.71349 -26955249.79147  20524510.4044   20524516.7724
      2360.8874       1839.6514
  23149505.2144  -33533207.31948 -25471309.53046  23149504.2184   23149512.9484
     -1577.1374      -1228.9344
  24401792.3214   -9931657.44248  -7451579.42746  24401791.6154   24401802.4714
      3423.3104       2667.5134
  20808736.1644  -36751849.08949 -28342916.70247  20808734.8284   20808742.3004
      -834.9584       -650.6154
 99  9 18  0 33 29.9990000  0  9G 4G19G14G22G 3G18G 1G27G16
  24671612.6474  -12446104.04347  -8394732.17245  24671611.7604   24671620.2434
      -883.8984       -688.7504
  21467623.4014   -5360659.74148  -4162336.51947  21467622.2264   21467629.7924
      2475.5154       1928.9704
  22614453.4834  -33473917.95348 -25810588.49046  22614452.7994   22614462.3794
     -2594.9454      -2022.0344
  23046170.8894  -16814223.39848 -12792283.50546  23046169.5034   23046178.0034
     -2214.4734      -1725.5604
  24344090.9734   -7222673.00747  -5144619.90345  24344089.3504   24344102.2214
      2893.5994       2254.7504
  20511030.8964  -35026428.90549 -27010450.71147  20511029.8284   20511035.8614
      2358.0194       1837.4174
  23158499.3834  -33485945.80348 -25434482.48346  23158498.1464   23158506.4834
     -1577.7904      -1229.4454
  24382229.8844  -10034458.61248  -7531684.08046  24382228.3854   24382239.5464
      3426.2444       2669.7954
  20813523.9784  -36726690.09749 -28323312.32947  20813522.5704   20813530.1854
      -846.3414       -659.4864
 99  9 18  0 33 59.9990000  0  9G 4G19G14G22G 3G18G 1G27G16
  24676685.8874  -12419442.68947  -8373957.18445  24676684.7764   24676694.2894
      -888.0814       -692.0014
  21453516.0904   -5434795.43348  -4220104.56847  21453514.8844   21453522.7604
      2472.6084       1926.7074
  22629292.7644  -33395940.30948 -25749826.81446  22629291.7254   22629300.9334
     -2597.8444      -2024.2904
  23058847.2754  -16747609.36348 -12740376.55646  23058845.5474   23058853.6484
     -2220.8834      -1730.5564
  24327597.8744   -7309347.08747  -5212158.04745  24327596.6954   24327608.0904
      2890.3144       2252.1814
  20497594.2004  -35097037.34249 -27065470.25847  20497593.1994   20497599.5994
      2354.8714       1834.9644
  23167527.5804  -33438498.66148 -25397510.77846  23167526.5754   23167535.3834
     -1579.5374      -1230.8034
  24362680.0884  -10137190.10448  -7611734.43346  24362679.0864   24362689.9384
      3428.3724       2671.4544
  20818408.5474  -36701022.09949 -28303311.33247  20818407.0724   20818414.6834
      -859.1254       -669.4484
 99  9 18  0 34 29.9990000  0  9G 4G19G14G22G 3G18G 1G27G16
  24681809.8934  -12392522.26347  -8352980.32145  24681808.8884   24681818.1384
      -904.4604       -704.7764
  21439449.7684   -5508713.06348  -4277702.70347  21439448.7874   21439456.7224
      2457.4614       1914.9034
  22644173.1764  -33317747.93948 -25688897.81446  22644171.6904   22644180.6344
     -2612.4024      -2035.6374
  23071584.4884  -16680676.79448 -12688221.38746  23071582.7344   23071591.1174
     -2238.8604      -1744.5664
  24311147.2644   -7395792.89547  -5279518.28545  24311146.3244   24311157.1644
      2875.0794       2240.3154
  20484199.7274  -35167425.18949 -27120317.91647  20484198.6934   20484205.0294
      2340.0114       1823.3844
  23176589.6544  -33390874.90048 -25360401.46146  23176588.4494   23176597.8294
     -1593.0484      -1241.3314
  24343138.9354  -10239876.26748  -7691749.47346  24343138.1904   24343150.1494
      3419.7744       2664.7564
  20823387.4774  -36674854.69649 -28282921.19047  20823386.1454   20823394.1304
      -882.8914       -687.9664
 99  9 18  0 34 59.9990000  0  9G 4G19G14G22G 3G18G 1G27G16
  24686990.3554  -12365293.50547  -8331763.22245  24686989.2784   24686999.2894
      -911.6014       -710.3224
  21425436.7974   -5582352.06148  -4335083.72847  21425435.8294   21425443.5174
      2451.2614       1910.0734
  22659097.4854  -33239317.75948 -25627783.51546  22659096.2934   22659105.9314
     -2616.8864      -2039.1304
  23084387.8114  -16613395.78548 -12635794.71846  23084385.9414   23084394.4064
     -2247.3454      -1751.1744
  24294750.8134   -7481961.40847  -5346662.44545  24294749.6254   24294759.6434
      2868.8324       2235.4464
  20470857.1324  -35237540.98049 -27174953.59147  20470856.0814   20470862.6554
      2333.6484       1818.4274
  23185693.5554  -33343033.18248 -25323122.29746  23185692.7414   23185702.3874
     -1596.9554      -1244.3744
  24323614.4194  -10342484.56948  -7771703.83646  24323613.1364   24323624.3624
      3420.0024       2664.9294
  20828466.6544  -36648163.17049 -28262122.64247  20828465.4404   20828473.1124
      -897.1114       -699.0454
 99  9 18  0 35 29.9990000  0  9G 4G19G14G22G 3G18G 1G27G16
  24692220.8654  -12337802.37747  -8310341.66145  24692220.3334   24692231.7154
      -921.7474       -718.2384
  21411467.6394   -5655758.91648  -4392283.85347  21411466.5604   21411474.2594
      2442.1554       1902.9784
  22674057.7764  -33160701.84048 -25566524.48346  22674056.7724   22674066.1134
     -2624.5884      -2045.1304
  23097251.1914  -16545799.07048 -12583122.03646  23097249.4494   23097257.8954
     -2259.5664      -1760.7004
  24278399.6164   -7567884.89347  -5413615.69245  24278398.9024   24278407.9124
      2859.0334       2227.8184
  20457562.3194  -35307403.65349 -27229392.02647  20457561.5524   20457568.3964
      2323.3894       1810.4334
  23194831.1604  -33295017.82048 -25285707.84446  23194829.6994   23194839.5064
     -1604.5334      -1250.2804
  24304099.2474  -10445038.53348  -7851615.87246  24304097.6454   24304108.7414
      3416.5764       2662.2614
  20833636.7304  -36620997.64549 -28240954.73647  20833635.2894   20833642.6044
      -914.2134       -712.3724
 99  9 18  0 35 59.9990000  0  9G 4G19G14G22G 3G18G 1G27G16
  24697513.3634  -12310000.33147  -8288677.83745  24697512.6524   24697520.6394
      -932.5144       -726.6324
  21397549.9984   -5728894.76148  -4449272.81147  21397549.1104   21397556.7224
      2433.0434       1895.8774
  22689064.2444  -33081842.07948 -25505075.44646  22689063.1674   22689072.4114
     -2633.3764      -2051.9794
  23110184.3194  -16477836.04048 -12530163.91246  23110182.2934   23110191.2474
     -2271.8394      -1770.2614
  24262105.7454   -7653509.33347  -5480335.92145  24262104.7154   24262116.1284
      2848.6894       2219.7484
  20444329.0794  -35376947.41749 -27283581.95947  20444327.7934   20444334.5164
      2312.1094       1801.6434
  23204011.4874  -33246773.96948 -25248115.34846  23204010.4334   23204020.4164
     -1612.2304      -1256.2774
  24284604.3974  -10547479.66348  -7931439.99146  24284603.3674   24284614.7284
      3412.2394       2658.8834
  20838901.7124  -36593328.75549 -28219394.60647  20838900.2744   20838907.7554
      -930.9444       -725.4104
 99  9 18  0 36 29.9990000  0  8G19G14G22G 3G18G 1G27G16
  21383673.7124   -5801819.33748  -4506097.11847  21383672.5794   21383680.0104
      2425.1194       1889.7024
  22704109.3294  -33002779.28648 -25443468.21046  22704108.7854   22704117.8284
     -2640.7434      -2057.7174
  23123172.9754  -16409580.67248 -12476977.99546  23123171.2894   23123179.5624
     -2281.9654      -1778.1554
  24245859.9194   -7738882.88347  -5546860.65845  24245858.5714   24245869.3074
      2839.5614       2212.6374
  20431150.0484  -35446203.32449 -27337547.59347  20431149.0324   20431155.2494
      2301.5284       1793.3984
  23213224.1954  -33198361.41848 -25210391.39446  23213223.1114   23213232.2814
     -1618.7064      -1261.3254
  24265123.5574  -10649847.64348  -8011207.09446  24265122.9174   24265134.2534
      3408.6484       2656.0874
  20844249.2374  -36565227.16649 -28197497.31047  20844247.7944   20844255.4654
      -945.9774       -737.1234
 99  9 18  0 36 59.9990000  0  8G19G14G22G 3G18G 1G27G16
  21369848.0774   -5874471.74948  -4562709.37047  21369846.8674   21369854.3274
      2420.0784       1885.7744
  22719204.5894  -32923453.78548 -25381656.26746  22719203.9524   22719212.7824
     -2646.1634      -2061.9404
  23136228.5014  -16340974.99048 -12423519.09646  23136226.5674   23136234.9774
     -2290.2934      -1784.6434
  24229673.7174   -7823938.51447  -5613137.64645  24229673.1544   24229683.4014
      2832.7514       2207.3354
  20418040.7694  -35515092.34849 -27391227.34047  20418039.7074   20418046.2984
      2292.7284       1786.5404
  23222482.1844  -33149712.24648 -25172483.06446  23222481.1464   23222489.9784
     -1622.8734      -1264.5764
  24245677.1624  -10752044.41548  -8090840.79346  24245675.9964   24245686.8784
      3406.2064       2654.1804
  20849693.0554  -36536618.16649 -28175204.62447  20849691.7874   20849699.5584
      -959.6954       -747.8124
 99  9 18  0 37 29.9990000  0  8G19G14G22G 3G18G 1G27G16
  21356075.2774   -5946847.87848  -4619106.32447  21356074.1954   21356081.9544
      2408.1294       1876.4634
  22734357.7314  -32843823.72448 -25319607.00146  22734356.7344   22734365.9084
     -2659.1684      -2072.0754
  23149355.2714  -16271991.17848 -12369765.55646  23149353.5454   23149362.5234
     -2305.1584      -1796.2274
  24213549.0924   -7908674.65847  -5679165.65745  24213549.0394   24213558.4844
      2819.8004       2197.2484
  20405005.6194  -35583593.75049 -27444605.04547  20405004.4464   20405011.3574
      2277.4464       1774.6344
  23231788.0024  -33100811.41947 -25134378.63146  23231786.7884   23231795.1464
     -1633.8314      -1273.1064
  24226266.3754  -10854047.73348  -8170323.73546  24226265.2914   24226275.6754
      3397.6834       2647.5394
  20855242.1524  -36507459.59949 -28152483.70647  20855240.6284   20855248.0994
      -980.9074       -764.3424
 99  9 18  0 37 59.9990000  0  8G19G14G22G 3G18G 1G27G16
  21342342.5374   -6019016.71348  -4675341.76847  21342341.2524   21342348.4384
      2404.7144       1873.8024
  22749555.8464  -32763955.43448 -25257372.10546  22749554.7184   22749563.8704
     -2663.6374      -2075.5574
  23162535.1114  -16202730.85648 -12315796.55646  23162533.5764   23162542.1484
     -2310.7074      -1800.5514
  24197466.9484   -7993182.14247  -5745015.52545  24197466.1624   24197477.0044
      2815.7424       2194.0784
  20392026.3544  -35651797.39049 -27497750.72847  20392025.4754   20392032.6604
      2271.1414       1769.7204
  23241126.1384  -33051736.81647 -25096138.79846  23241125.1154   23241133.8344
     -1636.2284      -1274.9764
  24206873.9584  -10955955.29747  -8249732.10246  24206872.6604   24206882.2134
      3397.7674       2647.6064
  20860884.8154  -36477806.70049 -28129377.59547  20860883.4624   20860891.0094
      -994.4754       -774.9154
 99  9 18  0 38 29.9990000  0  8G19G14G22G 3G18G 1G27G16
  21328646.5274   -6090986.30948  -4731421.93547  21328645.6554   21328652.9574
      2391.5734       1863.5634
  22764795.7324  -32683873.11548 -25194970.43746  22764794.5424   22764804.1374
     -2676.6154      -2085.6694
  23175765.3464  -16133207.96148 -12261622.95446  23175763.5264   23175772.0464
     -2325.9204      -1812.4044
  24181425.9484   -8077485.82247  -5810706.57645  24181424.5884   24181434.4344
      2802.8314       2184.0194
  20379101.6694  -35719718.66749 -27550676.38547  20379100.6144   20379107.5004
      2255.3234       1757.3944
  23250495.9724  -33002488.19747 -25057763.35646  23250495.7584   23250506.6484
     -1648.6904      -1284.6904
  24187498.8804  -11057770.74147  -8329068.68346  24187497.7344   24187506.8974
      3388.4414       2640.3384
  20866626.2774  -36447634.60749 -28105866.91647  20866624.9574   20866632.6824
     -1018.5494       -793.6734
 99  9 18  0 38 59.9990000  0  8G19G14G22G 3G18G 1G27G16
  21315001.7464   -6162691.48248  -4787296.06947  21315000.5934   21315007.7054
      2388.0894       1860.8494
  22780083.9014  -32603534.72247 -25132369.22546  22780082.8954   22780092.6684
     -2679.8974      -2088.2264
  23189058.4934  -16063351.45148 -12207189.39546  23189056.6404   23189065.2744
     -2331.8914      -1817.0544
  24165432.5184   -8161527.61747  -5876193.56245  24165430.4514   24165441.3874
      2799.1534       2181.1544
  20366245.4494  -35787282.32149 -27603323.38347  20366244.1364   20366250.6344
      2248.2564       1751.8874
  23259917.6924  -32952987.46747 -25019191.47546  23259916.7204   23259926.0764
     -1652.0364      -1287.2964
  24168151.7834  -11159440.89448  -8408292.04446  24168150.8324   24168161.3714
      3389.1404       2640.8824
  20872481.9824  -36416862.20649 -28081888.46447  20872480.7294   20872488.6384
     -1033.3734       -805.2254
 99  9 18  0 39 29.9990000  0  8G19G14G22G 3G18G 1G27G16
  21301392.9384   -6234204.64248  -4843020.58147  21301391.9944   21301399.7004
      2377.2954       1852.4374
  22795403.0974  -32523028.31147 -25069637.07946  22795402.6074   22795412.0534
     -2689.1964      -2095.4754
  23202399.0604  -15993245.43048 -12152561.40846  23202397.2764   23202406.3414
     -2344.0104      -1826.4994
  24149478.6874   -8245367.80747  -5941523.47945  24149477.2704   24149487.7934
      2787.8504       2172.3484
  20353443.4924  -35854554.99849 -27655743.64447  20353442.3884   20353449.1074
      2234.3774       1741.0724
  23269374.2044  -32903300.20647 -24980474.24246  23269372.6784   23269381.0954
     -1662.6604      -1295.5744
  24148812.1544  -11261068.55248  -8487482.30646  24148811.4834   24148821.9974
      3383.8554       2636.7654
  20878435.7474  -36385575.81949 -28057509.50947  20878434.5464   20878442.1974
     -1054.2764       -821.5124
 99  9 18  0 39 59.9990000  0  8G19G14G22G 3G18G 1G27G16
  21287845.7424   -6305396.38349  -4898494.65747  21287844.8304   21287852.2964
      2373.1124       1849.1774
  22810773.5054  -32442257.34647 -25006698.79046  22810772.7984   22810782.4244
     -2691.0734      -2096.9324
  23215809.8294  -15922770.42948 -12097645.91446  23215808.4134   23215816.9584
     -2350.2584      -1831.3694
  24133589.4244   -8328857.81147  -6006580.51345  24133588.9364   24133599.5684
      2782.3474       2168.0604
  20340722.8594  -35921401.90149 -27707832.12947  20340721.9414   20340728.7504
      2226.3674       1734.8314
  23278890.7094  -32853286.51747 -24941502.66346  23278889.5134   23278898.5164
     -1667.1384      -1299.0704
  24129505.7194  -11362524.34348  -8566538.63746  24129504.4154   24129515.3334
      3384.0434       2636.9154
  20884506.8054  -36353675.40649 -28032652.09047  20884505.3474   20884512.7734
     -1067.8794       -832.1124
 99  9 18  0 40 29.9990000  0  8G19G14G22G 3G18G 1G27G16
  21274316.9204   -6376493.25648  -4953894.78147  21274315.8014   21274322.8514
      2367.7194       1844.9764
  22826146.0274  -32361477.77247 -24943753.79246  22826145.0614   22826154.1334
     -2693.1734      -2098.5724
  23229249.1954  -15852143.71948 -12042612.19646  23229247.9924   23229256.8644
     -2357.2194      -1836.7904
  24117728.1604   -8412214.26247  -6071533.47645  24117727.4344   24117737.2314
      2775.7654       2162.9284
  20328042.0344  -35988040.27549 -27759758.12747  20328040.9384   20328047.6564
      2217.4934       1727.9174
  23288424.4894  -32803185.68347 -24902463.15645  23288422.9814   23288432.6234
     -1671.5164      -1302.4754
  24110190.7454  -11464024.34847  -8645629.44646  24110189.6274   24110199.5984
      3383.8604       2636.7684
  20890644.5734  -36321418.26949 -28007516.71147  20890643.3214   20890650.8854
     -1081.1944       -842.4884
 99  9 18  0 40 59.9990000  0  8G19G14G22G 3G18G 1G27G16
  21260858.0104   -6447217.34848  -5009004.43347  21260857.1984   21260864.3944
      2349.9754       1831.1474
  22841572.0074  -32280416.49548 -24880589.29146  22841570.6274   22841580.5734
     -2708.2364      -2110.3124
  23242768.5654  -15781099.35448 -11987253.03246  23242767.1874   23242776.4654
     -2376.3564      -1851.7014
  24101946.4764   -8495154.37747  -6136162.02345  24101944.8514   24101953.6104
      2756.4934       2147.9074
  20315450.5164  -36054205.46149 -27811315.40747  20315449.7744   20315456.8584
      2196.5764       1711.6184
  23298020.4194  -32752761.36847 -24863171.58345  23298019.4024   23298028.1564
     -1687.0994      -1314.6224
  24090917.0864  -11565305.16248  -8724549.43246  24090916.1874   24090926.4134
      3370.9334       2626.6964
  20896895.8124  -36288567.30649 -27981918.60547  20896894.6254   20896902.3164
     -1106.0094       -861.8244
 99  9 18  0 41 29.9990000  0  8G19G14G22G 3G18G 1G27G16
  21247453.7634   -6517658.81548  -5063893.86847  21247452.5254   21247459.7294
      2345.8434       1827.9274
  22857035.8184  -32199152.63248 -24817266.94046  22857034.6434   22857044.7194
     -2709.7034      -2111.4524
  23256348.8734  -15709733.42748 -11931643.30846  23256348.2014   23256357.0424
     -2381.8574      -1855.9904
  24086222.4274   -8577777.75347  -6200543.75845  24086221.1704   24086231.0454
      2751.4414       2143.9734
  20302927.6254  -36120016.12849 -27862596.43947  20302926.5714   20302933.5914
      2190.3944       1706.8014
  23307654.3804  -32702135.85447 -24823723.23745  23307653.1854   23307662.4354
     -1688.2134      -1315.4894
  24071670.5714  -11666447.26148  -8803361.34446  24071669.5944   24071680.8794
      3371.4404       2627.0944
  20903240.6114  -36255226.97149 -27955939.17047  20903239.2034   20903246.6904
     -1117.1684       -870.5194
 99  9 18  0 41 59.9990000  0  8G19G14G22G 3G18G 1G27G16
  21234092.9154   -6587870.53648  -5118604.28547  21234091.9024   21234098.6214
      2339.5264       1823.0084
  22872529.4484  -32117731.38448 -24753821.95546  22872528.3554   22872539.1554
     -2713.8804      -2114.7084
  23269982.9904  -15638088.77047 -11875816.38546  23269981.3494   23269990.2024
     -2390.0444      -1862.3684
  24070550.1414   -8660139.57647  -6264721.70145  24070548.4014   24070558.5044
      2743.9514       2138.1394
  20290460.5154  -36185531.37249 -27913647.26847  20290459.5354   20290466.6014
      2182.0474       1700.2964
  23317312.3774  -32651378.86547 -24784172.44945  23317311.1064   23317321.2374
     -1690.9294      -1317.6034
  24052444.3874  -11767485.89948  -8882092.63346  24052442.7264   24052453.2524
      3369.2024       2625.3534
  20909671.5444  -36221432.92649 -27929606.19347  20909670.0784   20909677.5054
     -1131.2044       -881.4564
 99  9 18  0 42 29.9990000  0  8G19G14G22G 3G18G 1G27G16
  21220772.9164   -6657868.74948  -5173148.30647  21220771.7834   21220778.4984
      2327.0304       1813.2694
  22888054.2404  -32036145.68648 -24690248.83146  22888053.2954   22888064.2974
     -2725.3024      -2123.6064
  23283667.4874  -15566177.79247 -11819781.93546  23283666.1664   23283674.2454
     -2404.2184      -1873.4164
  24054923.5424   -8742249.51447  -6328703.37745  24054922.5824   24054932.9304
      2729.9384       2127.2174
  20278045.5464  -36250773.57949 -27964485.34247  20278044.4914   20278051.0474
      2167.3234       1688.8224
  23326990.6944  -32600520.80247 -24744542.88645  23326989.5944   23326999.1124
     -1699.8824      -1324.5814
  24033232.1434  -11868447.13948  -8960763.59246  24033230.6254   24033240.5984
      3361.4344       2619.2964
  20916187.7034  -36187189.87249 -27902923.34447  20916186.4874   20916193.7924
     -1151.8534       -897.5454
 99  9 18  0 42 59.9990000  0  8G19G14G22G 3G18G 1G27G16
  21207496.0524   -6727637.88648  -5227513.86047  21207494.8374   21207501.9554
      2321.1194       1808.6624
  22903620.5754  -31954348.42148 -24626510.85746  22903619.0364   22903630.1374
     -2731.0614      -2128.0984
  23297406.3454  -15493980.36747 -11763524.27645  23297404.9454   23297412.9244
     -2412.2094      -1879.6374
  24039354.4044   -8824069.77447  -6392459.32545  24039353.6494   24039363.2614
      2721.5354       2120.6764
  20265689.3154  -36315705.76649 -28015081.84547  20265688.1844   20265694.7134
      2158.2594       1681.7604
  23336697.8484  -32549513.42547 -24704796.98946  23336696.0594   23336705.6174
     -1703.9674      -1327.7634
  24014037.3624  -11969315.30448  -9039362.04146  24014036.2374   24014046.2454
      3359.9964       2618.1724
  20922797.7244  -36152455.47949 -27875857.63247  20922796.1484   20922803.4764
     -1166.9734       -909.3274
 99  9 18  0 43 29.9990000  0  8G19G14G22G 3G18G 1G27G16
  21194271.7064   -6797130.00348  -5281663.52147  21194270.6674   21194278.0264
      2310.9994       1800.7784
  22919239.0434  -31872273.16248 -24562556.25146  22919238.1254   22919248.3694
     -2741.2134      -2136.0044
  23311211.2814  -15421435.61947 -11706995.97345  23311209.6434   23311218.4434
     -2424.8344      -1889.4754
  24023853.3984   -8905526.65647  -6455932.12745  24023852.6604   24023863.1654
      2708.0234       2110.1484
  20253406.6044  -36380251.43549 -28065377.16547  20253405.4644   20253411.9644
      2143.9394       1670.6014
  23346450.5764  -32498263.70247 -24664862.26446  23346449.0724   23346458.3354
     -1713.5354      -1335.2214
  23994869.7744  -12070036.60748  -9117846.07846  23994868.7214   23994879.4514
      3354.2034       2613.6634
  20929514.9264  -36117155.28449 -27848351.03947  20929513.6014   20929521.0594
     -1186.9724       -924.9104
 99  9 18  0 43 59.9990000  0  8G19G14G22G 3G18G 1G27G16
  21181082.9354   -6866438.44548  -5335670.08747  21181081.9674   21181088.8054
      2304.3424       1795.5914
  22934892.4404  -31790011.07947 -24498456.07146  22934892.1864   22934902.4774
     -2748.0794      -2141.3574
  23325064.7284  -15348634.55647 -11650267.94945  23325063.1674   23325071.7234
     -2433.6744      -1896.3714
  24008408.4344   -8986688.43847  -6519174.97545  24008407.7294   24008418.3314
      2697.6994       2102.1014
  20241185.0574  -36444474.85249 -28115421.37347  20241184.0324   20241190.9194
      2132.7034       1661.8464
  23356236.0494  -32446831.26547 -24624785.16445  23356235.2504   23356246.1484
     -1720.4234      -1340.5864
  23975714.0524  -12170700.62948  -9196285.46246  23975713.3314   23975722.6284
      3351.7004       2611.7114
  20936322.7814  -36081378.92649 -27820473.40947  20936321.3414   20936328.8744
     -1202.9714       -937.3794
 99  9 18  0 44 29.9990000  0  8G19G14G22G 3G18G 1G27G16
  21167931.5634   -6935548.50148  -5389522.04847  21167930.6294   21167937.8654
      2299.8154       1792.0614
  22950586.6604  -31707545.35447 -24434197.21546  22950585.0824   22950595.0154
     -2752.3654      -2144.6954
  23338967.4024  -15275579.26247 -11593341.82445  23338965.2034   23338973.9054
     -2439.5814      -1900.9704
  23993022.4604   -9067543.11547  -6582178.52145  23993021.7944   23993031.6874
      2689.7584       2095.9084
  20229027.4574  -36508364.08149 -28165205.17747  20229026.2974   20229033.1924
      2123.5964       1654.7504
  23366063.8514  -32395185.72747 -24584542.00845  23366062.8674   23366073.5284
     -1725.4974      -1344.5444
  23956571.9714  -12271291.80448  -9274668.07946  23956571.1394   23956580.8344
      3351.3114       2611.4094
  20943219.9254  -36045133.64049 -27792230.38347  20943218.6864   20943226.2674
     -1216.3544       -947.8064
 99  9 18  0 44 59.9990000  0  8G19G14G22G 3G18G 1G27G16
  21154837.6654   -7004357.09748  -5443139.10447  21154836.8504   21154843.7834
      2292.5364       1786.3914
  22966331.6944  -31624802.23247 -24369722.19945  22966330.6564   22966341.0994
     -2758.5414      -2149.5064
  23352932.7754  -15202190.41047 -11536155.78645  23352930.7284   23352939.5914
     -2447.9014      -1907.4514
  23977709.8324   -9148007.55647  -6644877.97945  23977708.7704   23977718.9764
      2679.9454       2088.2614
  20216951.0934  -36571827.35249 -28214657.06747  20216949.9714   20216956.3364
      2112.6114       1646.1904
  23375949.6634  -32343236.19447 -24544061.97645  23375949.2834   23375959.2774
     -1732.3494      -1349.8824
  23937464.1404  -12371705.37848  -9352912.30146  23937462.9464   23937473.2074
      3348.1254       2608.9234
  20950223.0974  -36008334.55449 -27763555.82247  20950221.6544   20950229.2754
     -1231.5484       -959.6464
 99  9 18  0 45 29.9990000  0  8G19G14G22G 3G18G 1G27G16
  21141769.9494   -7073027.04248  -5496648.12747  21141769.0244   21141776.1494
      2285.0614       1780.5674
  22982093.5674  -31541970.31647 -24305177.99345  22982093.1824   22982103.1894
     -2763.7994      -2153.6024
  23366930.0064  -15128636.89647 -11478841.44345  23366927.8104   23366936.0674
     -2455.9924      -1913.7624
  23962436.8064   -9228270.68547  -6707420.56145  23962435.4324   23962446.4174
      2670.7914       2081.1244
  20204919.3384  -36635052.23449 -28263923.20047  20204918.4894   20204924.9224
      2102.0954       1637.9944
  23385856.0004  -32291180.93147 -24503499.55145  23385855.5454   23385865.0784
     -1738.1974      -1354.4334
  23918357.3624  -12472106.68148  -9431146.96646  23918356.6054   23918366.7904
      3344.9074       2606.4174
  20957293.2624  -35971180.86149 -27734604.94447  20957291.8864   20957299.5004
     -1245.6434       -970.6304
 99  9 18  0 45 59.9990000  0  8G19G14G22G 3G18G 1G27G16
  21128761.9504   -7141386.47048  -5549915.19747  21128760.8804   21128767.6274
      2274.9254       1772.6684
  22997900.3424  -31458908.34047 -24240454.51945  22997899.7414   22997909.2204
     -2770.8864      -2159.1304
  23380986.9184  -15054765.94747 -11421279.74645  23380984.7004   23380993.7284
     -2466.0514      -1921.5934
  23947228.2714   -9308191.63547  -6769696.52945  23947226.9624   23947237.8984
      2660.1084       2072.8024
  20192960.7664  -36697894.35049 -28312891.07147  20192959.9934   20192966.2974
      2090.1784       1628.7094
  23395808.4874  -32238887.19447 -24462751.29945  23395806.3664   23395815.9594
     -1745.1594      -1359.8624
  23899286.0294  -12572332.06348  -9509244.56246  23899284.9094   23899294.7074
      3339.5254       2602.2214
  20964457.3014  -35933534.07749 -27705269.84247  20964455.8524   20964463.4894
     -1261.4354       -982.9364
 99  9 18  0 46 29.9990000  0  8G19G14G22G 3G18G 1G27G16
  21115801.5064   -7209495.89448  -5602987.43747  21115800.4614   21115807.0704
      2267.9734       1767.2514
  23013735.1734  -31375698.48147 -24175615.81445  23013733.9924   23013744.1284
     -2774.0954      -2161.6304
  23395089.2194  -14980655.18347 -11363531.18345  23395087.5304   23395096.5654
     -2472.5094      -1926.6294
  23932069.3674   -9387851.83547  -6831769.32745  23932068.8604   23932079.0414
      2652.6924       2067.0324
  20181060.9874  -36760432.02149 -28361621.71247  20181059.7354   20181066.1104
      2081.1514       1621.6774
  23405784.2714  -32186455.54147 -24421895.57245  23405783.7604   23405794.3964
     -1748.0574      -1362.1204
  23880232.3384  -12672458.48348  -9587265.03746  23880231.1414   23880241.6884
      3337.8954       2600.9534
  20971701.5614  -35895464.09349 -27675604.97647  20971700.3414   20971708.1114
     -1274.3634       -993.0084
 99  9 18  0 46 59.9990000  0  8G19G14G22G 3G18G 1G27G16
  21102887.5434   -7277356.72648  -5655865.98247  21102886.6444   21102893.9054
      2256.6714       1758.4444
  23029595.7884  -31292349.87147 -24110668.98945  23029594.5354   23029605.3704
     -2782.0304      -2167.8134
  23409238.0694  -14906302.36147 -11305594.00845  23409237.1074   23409245.4244
     -2483.9614      -1935.5484
  23916961.7454   -9467242.20147  -6893631.84445  23916961.2544   23916971.5654
      2640.3674       2057.4254
  20169220.3214  -36822652.59249 -28410105.26247  20169219.3794   20169225.7144
      2067.3304       1610.9074
  23415786.5704  -32133893.96847 -24380938.60345  23415786.1724   23415796.2744
     -1755.6794      -1368.0594
  23861196.2024  -12772494.73048  -9665215.24946  23861195.1024   23861204.6694
      3331.7234       2596.1424
  20979028.4624  -35856963.30449 -27645604.41747  20979026.9074   20979034.9914
     -1291.9794      -1006.7354
 99  9 18  0 47 29.9990000  0  8G19G14G22G 3G18G 1G27G16
  21090040.7494   -7344866.68648  -5708471.12447  21090039.7964   21090046.9064
      2250.0224       1753.2654
  23045506.4144  -31208742.26047 -24045520.34545  23045504.7984   23045515.3414
     -2785.7754      -2170.7284
  23423455.1754  -14831594.91647 -11247380.48645  23423453.3194   23423462.0444
     -2490.4404      -1940.5984
  23901930.8144   -9546236.71247  -6955185.91145  23901929.3154   23901938.2684
      2632.0024       2050.9054
  20157463.8314  -36884434.06549 -28458246.65347  20157462.6334   20157469.0724
      2057.5254       1603.2654
  23425839.4634  -32081069.89947 -24339777.09645  23425838.2904   23425848.6684
     -1759.9174      -1371.3604
  23842199.0504  -12872326.00448  -9743005.74146  23842197.8114   23842207.9764
      3329.7024       2594.5684
  20986460.7384  -35817905.31749 -27615169.67747  20986459.4564   20986467.5334
     -1305.9334      -1017.6074
 99  9 18  0 47 59.9990000  0  8G19G14G22G 3G18G 1G27G16
  21077252.3604   -7412070.98848  -5760838.09247  21077251.2724   21077258.3514
      2237.1584       1743.2404
  23061457.6994  -31124914.06247 -23980199.82345  23061457.1744   23061467.5204
     -2795.8894      -2178.6114
  23437727.5794  -14756593.27647 -11188937.73645  23437725.7454   23437734.4474
     -2502.8604      -1950.2714
  23886967.3544   -9624863.33747  -7016453.31445  23886967.1654   23886977.0084
      2616.5744       2038.8854
  20145783.7104  -36945813.37249 -28506074.67247  20145782.7174   20145789.2474
      2041.2614       1590.5934
  23435938.1754  -32028002.26747 -24298425.81845  23435937.0984   23435946.7364
     -1771.2124      -1380.1564
  23823234.1014  -12971987.47348  -9820663.92346  23823232.5774   23823242.2974
      3321.2334       2587.9704
  20993996.4714  -35778305.19249 -27584312.49547  20993994.9674   20994003.1544
     -1327.1764      -1034.1624
 99  9 18  0 48 29.9990000  0  8G19G14G22G 3G18G 1G27G16
  21064500.6104   -7479081.35148  -5813053.93447  21064499.6164   21064506.6704
      2232.7814       1739.8274
  23077432.6624  -31040965.25947 -23914785.31145  23077431.7474   23077442.6684
     -2798.0904      -2180.3244
  23452033.8104  -14681411.41947 -11130354.55445  23452032.1824   23452041.2074
     -2506.9744      -1953.4794
  23872059.2434   -9703202.15847  -7077496.45645  23872058.6054   23872068.2364
      2608.5834       2032.6604
  20134163.8774  -37006877.29049 -28553656.93247  20134162.6594   20134169.3674
      2032.3654       1583.6604
  23446070.1714  -31974757.57147 -24256936.55745  23446068.7534   23446078.8114
     -1775.8884      -1383.8044
  23804283.2144  -13071576.02048  -9898265.29046  23804282.1664   23804291.1264
      3320.7214       2587.5724
  21001617.4124  -35738254.08249 -27553103.89847  21001616.2204   21001624.4844
     -1340.0834      -1044.2184
 99  9 18  0 48 59.9990000  0  9G19G14G22G 3G18G 1G27G16G13
  21051793.2724   -7545858.36948  -5865087.95047  21051792.2324   21051799.2564
      2223.6584       1732.7204
  23093441.4144  -30956841.08847 -23849234.15145  23093440.5854   23093450.7054
     -2805.4734      -2186.0784
  23466384.7524  -14605996.41247 -11071589.70445  23466383.4454   23466391.9154
     -2516.2274      -1960.7004
  23857217.4744   -9781198.81047  -7138272.98345  23857216.0604   23857227.6024
      2595.9864       2022.8474
  20122613.3794  -37067574.60549 -28600953.53147  20122612.2944   20122618.6894
      2018.8624       1573.1384
  23456250.2634  -31921257.15847 -24215248.02945  23456250.0364   23456259.6984
     -1785.8154      -1391.5414
  23785355.6204  -13171040.71748  -9975770.13946  23785354.1714   23785363.5484
      3315.0214       2583.1304
  21009331.9164  -35697714.78249 -27521514.89147  21009330.7094   21009338.9484
     -1357.7294      -1057.9684
  24570164.0044   -6346886.93057  -4367936.23145  24570163.4214   24570171.0734
      3933.7804       3065.2754
 99  9 18  0 49 29.9990000  0  9G19G14G22G 3G18G 1G27G16G13
  21039124.8234   -7612431.49748  -5916963.11447  21039123.7004   21039131.2534
      2218.1854       1728.4554
  23109478.5574  -30872566.28147 -23783565.62145  23109477.1234   23109487.8434
     -2808.9574      -2188.7974
  23480774.7044  -14530374.95247 -11012663.97345  23480773.4314   23480782.8584
     -2521.5884      -1964.8714
  23842433.8734   -9858888.30347  -7198810.14645  23842432.8994   23842442.7674
      2587.0354       2015.8704
  20111126.4914  -37127936.59049 -28647988.82947  20111125.7784   20111132.0444
      2008.9924       1565.4474
  23466475.4854  -31867531.88147 -24173384.28445  23466474.2074   23466483.1934
     -1791.8594      -1396.2484
  23766446.6554  -13270406.32048 -10053197.76446  23766445.2754   23766454.2624
      3313.2674       2581.7614
  21017133.6324  -35656718.49249 -27489569.78847  21017132.2334   21017140.3244
     -1371.4064      -1068.6264
  24547709.2764   -6464878.89147  -4459878.00145  24547709.5154   24547718.0434
      3936.1904       3067.1474
 99  9 18  0 49 59.9990000  0  9G19G14G22G 3G18G 1G27G16G13
  21026502.4544   -7678761.11148  -5968648.49047  21026501.5034   21026509.2284
      2203.4354       1716.9624
  23125550.3724  -30788111.93647 -23717757.19145  23125548.7964   23125558.8884
     -2821.5584      -2198.6104
  23495211.8634  -14454506.90247 -10953546.10345  23495210.4684   23495219.9734
     -2536.7714      -1976.7014
  23827716.2014   -9936229.18647  -7259075.65845  23827715.0344   23827724.7224
      2568.6384       2001.5364
  20099712.2944  -37187919.55849 -28694728.79247  20099711.3734   20099717.6774
      1989.5154       1550.2714
  23476746.2854  -31813555.30847 -24131324.72445  23476745.4494   23476754.7784
     -1806.6324      -1407.7604
  23747560.2444  -13369650.48748 -10130530.80146  23747559.7764   23747569.1594
      3302.8494       2573.6434
  21025027.1074  -35615237.96049 -27457247.35647  21025025.7114   21025033.5444
     -1394.1184      -1086.3254
  24525258.4164   -6582860.68347  -4551811.86945  24525258.0434   24525267.5084
      3929.0804       3061.6164
 99  9 18  0 50 29.9990000  0  9G19G14G22G 3G18G 1G27G16G13
  21013922.1844   -7744872.46948  -6020163.81347  21013921.1514   21013928.6684
      2199.4594       1713.8624
  23141651.5644  -30703501.17247 -23651826.87545  23141650.4294   23141659.7214
     -2823.6024      -2200.2064
  23509696.3734  -14378392.46947 -10894236.24545  23509694.4484   23509703.9904
     -2542.3294      -1981.0344
  23813060.9814  -10013239.83947  -7319083.85845  23813059.6984   23813069.8344
      2560.7824       1995.4154
  20088367.5244  -37247537.57849 -28741184.38147  20088366.3304   20088372.6904
      1980.5984       1543.3244
  23487057.7704  -31759368.65647 -24089101.48745  23487056.4944   23487065.5824
     -1810.0474      -1410.4194
  23728691.2504  -13468811.65348 -10207799.13946  23728690.3914   23728699.6554
      3303.4234       2574.0884
  21033005.4264  -35573310.38449 -27424576.57747  21033004.3664   21033011.9814
     -1405.5974      -1095.2674
  24502805.4354   -6700853.95747  -4643754.66145  24502805.4564   24502811.9394
      3932.9084       3064.6054
 99  9 18  0 50 59.9990000  0  9G19G14G22G 3G18G 1G27G16G13
  21001366.7144   -7810849.98648  -6071574.85447  21001365.7224   21001373.1294
      2194.3324       1709.8684
  23157767.1154  -30618810.48747 -23585834.26545  23157765.9784   23157775.8964
     -2826.8604      -2202.7434
  23524216.8464  -14302086.03947 -10834776.79145  23524215.4564   23524225.0234
     -2549.3844      -1986.5284
  23798455.7034  -10089992.83847  -7378891.30145  23798454.8974   23798465.1504
      2551.3634       1988.0774
  20077077.0754  -37306870.41249 -28787417.75047  20077076.0104   20077082.3844
      1970.3124       1535.3074
  23497388.8994  -31705083.78447 -24046801.70645  23497387.1254   23497397.1004
     -1813.5414      -1413.1474
  23709821.4544  -13567975.31848 -10285069.42046  23709819.6654   23709829.6434
      3302.7774       2573.5874
  21041055.6064  -35531009.27949 -27391614.73547  21041054.1924   21041061.9514
     -1419.1034      -1105.7924
  24480331.9674   -6818949.92447  -4735777.42845  24480332.6144   24480340.4434
      3935.7034       3066.7834
 99  9 18  0 51 29.9990000  0  9G19G14G22G 3G18G 1G27G16G13
  20988854.1724   -7876605.27448  -6122812.74447  20988853.1414   20988860.5634
      2191.8344       1707.9234
  23173913.6424  -30533960.37747 -23519717.43245  23173912.9824   23173922.4174
     -2827.1784      -2202.9924
  23538790.6634  -14225503.40547 -10775102.09745  23538788.8404   23538797.6014
     -2553.6134      -1989.8284
  23783917.9224  -10166388.43547  -7438420.26045  23783916.9124   23783927.0184
      2544.2154       1982.5014
  20065857.6834  -37365825.77749 -28833356.99147  20065856.7134   20065863.2784
      1962.6644       1529.3484
  23507752.9124  -31650622.50947 -24004364.44645  23507751.3244   23507761.0114
     -1814.7444      -1414.0814
  23690968.1844  -13667050.25848 -10362270.56946  23690966.6014   23690976.4584
      3304.7784       2575.1494
  21049194.5654  -35488237.48749 -27358286.12647  21049193.3204   21049201.1084
     -1429.7304      -1114.0724
  24457856.7824   -6937066.60947  -4827816.32845  24457855.8664   24457862.7544
      3941.3454       3071.1664
 99  9 18  0 51 59.9990000  0  9G19G14G22G 3G18G 1G27G16G13
  20976381.6054   -7942147.76048  -6173884.80147  20976380.6014   20976388.5624
      2175.6754       1695.3304
  23190088.2464  -30448968.31247 -23453489.98645  23190086.4444   23190096.9604
     -2840.8194      -2213.6194
  23553413.8684  -14148655.89747 -10715220.99745  23553413.2134   23553420.9534
     -2571.4824      -2003.7524
  23769448.5994  -10242424.34747  -7497668.93845  23769447.8814   23769458.4514
      2523.1544       1966.0904
  20054708.3304  -37424416.78649 -28879012.31547  20054707.4004   20054713.3524
      1941.6414       1512.9664
  23518147.9564  -31595989.10247 -23961793.06645  23518147.8674   23518157.7284
     -1829.4954      -1425.5754
  23672128.4574  -13766045.02148 -10439409.24046  23672127.6534   23672138.3544
      3292.7964       2565.8144
  21057420.3024  -35445009.69149 -27324602.18847  21057419.0804   21057426.8664
     -1453.8924      -1132.9024
  24435372.7764   -7055216.70347  -4919881.27645  24435371.5244   24435379.7754
      3933.5134       3065.0784
 99  9 18  0 52 29.9990000  0  9G19G14G22G 3G18G 1G27G16G13
  20963967.7824   -8007382.76948  -6224717.27047  20963966.7534   20963974.5704
      2168.0014       1689.3514
  23206304.6724  -30363743.68147 -23387081.33145  23206303.5424   23206314.5594
     -2845.8774      -2217.5624
  23568104.9034  -14071456.97247 -10655066.07345  23568103.2204   23568112.1404
     -2580.1264      -2010.4864
  23755064.2474  -10318016.13247  -7556571.52545  23755063.0284   23755073.2774
      2511.2654       1956.8204
  20043643.6114  -37482561.62849 -28924319.97947  20043642.6124   20043648.7944
      1929.5394       1503.5364
  23528596.6074  -31541089.96547 -23919014.63445  23528594.2744   23528604.3994
     -1835.8504      -1430.5284
  23653326.4034  -13864851.53848 -10516401.22446  23653325.4374   23653335.1274
      3289.0764       2562.9134
  21065748.0144  -35401247.89849 -27290502.14747  21065746.7374   21065754.4584
     -1468.7914      -1144.5124
  24412899.2704   -7173309.13147  -5011901.27745  24412899.4784   24412907.2184
      3934.1954       3065.6024
 99  9 18  0 52 59.9990000  0  9G19G14G22G 3G18G 1G27G16G13
  20951589.8814   -8072428.27248  -6275402.05647  20951588.9324   20951596.5004
      2164.5174       1686.6324
  23222538.9484  -30278428.63047 -23320602.23245  23222538.0274   23222548.9214
     -2845.4344      -2217.2124
  23582830.6644  -13994072.72747 -10594766.75545  23582829.2474   23582837.6474
     -2582.4454      -2012.2884
  23740735.5364  -10393311.64047  -7615243.24845  23740734.8394   23740744.1284
      2504.8784       1951.8504
  20032638.5014  -37540395.06949 -28969384.99247  20032637.3684   20032643.8264
      1922.4104       1497.9814
  23539069.9314  -31486049.81447 -23876126.29945  23539068.5094   23539078.5154
     -1837.3184      -1431.6714
  23634535.6474  -13963596.89248 -10593345.53946  23634534.7524   23634544.8534
      3290.2614       2563.8374
  21074151.8244  -35357087.74549 -27256091.69747  21074150.3714   21074157.7554
     -1478.7144      -1152.2424
  24390412.2944   -7291484.32047  -5103985.75845  24390412.2304   24390419.7584
      3940.4414       3070.4664
 99  9 18  0 53 29.9990000  0  9G19G14G22G 3G18G 1G27G16G13
  20939255.1834   -8137248.76748  -6325911.51047  20939254.2974   20939261.6314
      2153.8054       1678.2914
  23238792.2724  -30193019.40647 -23254049.73745  23238791.2564   23238802.1594
     -2851.5774      -2222.0064
  23597588.5854  -13916520.08647 -10534336.21645  23597586.9254   23597596.3964
     -2591.0144      -2018.9724
  23726463.7244  -10468309.19347  -7673682.80345  23726462.7704   23726472.8154
      2491.8644       1941.7064
  20021693.8394  -37597909.71849 -29014201.59547  20021692.7834   20021699.3204
      1908.8364       1487.4054
  23549571.8364  -31430847.87947 -23833111.91245  23549571.6294   23549582.7724
     -1845.7044      -1438.2094
  23615759.7744  -14062264.45448 -10670229.24146  23615758.6874   23615768.5454
      3284.6564       2559.4694
  21082630.8984  -35312529.02349 -27221370.67247  21082629.6654   21082637.1324
     -1494.9824      -1164.9194
  24367910.6184   -7409729.27647  -5196124.56045  24367910.4424   24367918.7424
      3939.4054       3069.6634
 99  9 18  0 53 59.9990000  0  9G19G14G22G 3G18G 1G27G16G13
  20926973.7374   -8201789.73948  -6376203.17247  20926972.5884   20926980.2384
      2144.3464       1670.9174
  23255073.1874  -30107464.28647 -23187383.57145  23255072.1954   23255082.5654
     -2856.5094      -2225.8464
  23612387.7784  -13838751.71947 -10473737.57745  23612385.8184   23612395.7244
     -2598.1324      -2024.5204
  23712259.0004  -10542960.08947  -7731852.24345  23712257.5414   23712267.5174
      2480.4304       1932.7964
  20010819.4694  -37655056.53849 -29058731.58247  20010818.3774   20010824.7544
      1896.4144       1477.7244
  23560115.5784  -31375445.51247 -23789941.35445  23560114.8044   23560125.9284
     -1852.1734      -1443.2504
  23597007.1094  -14160807.36348 -10747015.81746  23597006.2144   23597016.2004
      3280.2264       2556.0154
  21091195.3394  -35267524.63449 -27186302.37347  21091193.8094   21091201.3714
     -1509.8454      -1176.5024
  24345408.5084   -7527979.92947  -5288267.79745  24345407.3294   24345415.7084
      3939.4994       3069.7364
 99  9 18  0 54 29.9990000  0  9G19G14G22G 3G18G 1G27G16G13
  20914741.1274   -8266069.29748  -6426291.12147  20914740.2494   20914747.8474
      2139.7434       1667.3304
  23271376.6624  -30021788.99847 -23120623.76245  23271375.2714   23271387.4044
     -2856.3494      -2225.7244
  23627221.1734  -13760799.01647 -10412995.29745  23627219.8664   23627229.3284
     -2599.9434      -2025.9254
  23698112.4124  -10617300.06447  -7789779.40245  23698110.9174   23698120.7984
      2474.1804       1927.9254
  20000011.2234  -37711853.37649 -29102988.85047  20000010.3404   20000016.8664
      1888.8434       1471.8264
  23570690.3724  -31319881.09147 -23746644.52845  23570689.4154   23570699.6084
     -1853.2384      -1444.0804
  23578276.4194  -14259240.15148 -10823716.58346  23578275.5774   23578284.8544
      3280.8574       2556.5084
  21099839.2164  -35222100.90049 -27150907.31147  21099837.9474   21099845.3864
     -1519.7214      -1184.1974
  24322900.7074   -7646261.25347  -5380434.95345  24322899.5004   24322906.4604
      3944.9684       3073.9904
 99  9 18  0 54 59.9990000  0  9G19G14G22G 3G18G 1G27G16G13
  20902564.3324   -8330061.88248  -6476155.45747  20902563.1484   20902570.5064
      2126.0354       1656.6514
  23287708.0674  -29935965.28947 -23053748.29245  23287707.0424   23287718.8824
     -2865.8724      -2233.1414
  23642093.5304  -13682639.68847 -10352092.00645  23642092.3514   23642102.9254
     -2611.4604      -2034.9014
  23684034.0804  -10691281.45347  -7847427.16245  23684033.2024   23684042.3574
      2457.1464       1914.6554
  19989276.6514  -37768265.86849 -29146946.63447  19989275.5024   19989281.5284
      1871.4464       1458.2694
  23581297.9974  -31264133.48347 -23703204.93945  23581297.3164   23581307.1264
     -1863.7804      -1452.2974
  23559571.0554  -14357540.17548 -10900313.90646  23559569.7854   23559579.7954
      3271.8964       2549.5264
  21108569.8944  -35176220.27649 -27115156.23247  21108568.5464   21108576.3994
     -1539.5174      -1199.6204
  24300387.3974   -7764560.39547  -5472616.00145  24300388.2384   24300395.8204
      3941.0024       3070.9044
 99  9 18  0 55 29.9990000  0 10G31G19G14G22G 3G18G 1G27G16G13
  24064957.6704    -676636.68646   -231105.07045  24064955.5124   24064966.4644
      3785.3024       2949.5764
  20890473.5874   -8393600.20748  -6525665.82147  20890472.5684   20890479.5414
      2113.1774       1646.6324
  23304105.0014  -29849798.82047 -22986605.75145  23304104.0394   23304115.9164
     -2875.3394      -2240.5284
  23657046.2874  -13604065.98747 -10290865.84345  23657045.3154   23657054.8414
     -2623.7344      -2044.4664
  23670065.5804  -10764688.56547  -7904627.42645  23670063.7464   23670074.1484
      2439.8994       1901.2194
  19978650.9154  -37824100.12749 -29190453.84947  19978650.1334   19978656.4194
      1853.9504       1444.6364
  23591978.3714  -31208012.98247 -23659474.78245  23591977.3054   23591987.0254
     -1874.4234      -1460.5824
  23540927.2034  -14455514.55248 -10976657.47146  23540926.1094   23540935.5034
      3263.0154       2542.6074
  21117424.8204  -35129687.92449 -27078897.31347  21117423.5114   21117431.3334
     -1559.3914      -1215.1094
  24277913.3084   -7882667.45547  -5564647.38345  24277914.1454   24277920.2814
      3936.1894       3067.1544
 99  9 18  0 55 59.9990000  0 10G31G19G14G22G 3G18G 1G27G16G13
  24043340.5284    -790248.60347   -319633.61945  24043338.4804   24043348.3464
      3790.4014       2953.5444
  20878413.4344   -8456975.14148  -6575048.86947  20878412.2864   20878419.6674
      2113.1904       1646.6414
  23320515.7464  -29763564.98447 -22919410.71045  23320514.1954   23320525.7844
     -2871.9494      -2237.8774
  23672028.0394  -13525339.57047 -10229520.65545  23672026.5794   23672035.6474
     -2623.2724      -2044.1064
  23656151.7964  -10837796.57547  -7961594.63545  23656150.9884   23656160.4804
      2435.4664       1897.7544
  19968086.9224  -37879616.04849 -29233713.00547  19968085.8094   19968092.2114
      1848.6874       1440.5354
  23602678.6774  -31151788.46447 -23615663.57945  23602676.5124   23602686.1054
     -1872.5594      -1459.1354
  23522292.4264  -14553438.58348 -11052961.79346  23522291.2044   23522301.1214
      3266.7304       2545.5004
  21126350.5574  -35082782.44349 -27042347.64647  21126349.2214   21126357.2504
     -1566.0224      -1220.2764
  24255426.0974   -8000847.55947  -5656735.68345  24255424.8604   24255431.0334
      3944.2644       3073.4494
 99  9 18  0 56 29.9990000  0 10G31G19G14G22G 3G18G 1G27G16G13
  24021698.1424    -903965.54346   -408244.03845  24021697.1844   24021708.8264
      3787.4854       2951.2914
  20866361.8954   -8520306.41148  -6624397.89247  20866360.8674   20866368.4234
      2105.5484       1640.6854
  23336913.3874  -29677391.40847 -22852262.61445  23336913.0764   23336924.4384
     -2876.2364      -2241.2224
  23687014.0764  -13446586.56947 -10168154.77045  23687012.5524   23687022.5134
     -2630.3814      -2049.6474
  23642277.4194  -10910717.69747  -8018416.20445  23642275.2234   23642284.9384
      2422.4684       1887.6324
  19957561.1434  -37934930.44349 -29276815.12947  19957560.1134   19957566.4304
      1835.6124       1430.3484
  23613376.6554  -31095570.04247 -23571857.12545  23613374.7484   23613384.2714
     -1878.8764      -1464.0534
  23503644.6504  -14651434.16248 -11129321.87346  23503643.5504   23503652.6334
      3263.1114       2542.6814
  21135322.4634  -35035634.21249 -27005608.82647  21135321.1274   21135329.3484
     -1580.6324      -1231.6604
  24232897.2084   -8119235.70747  -5748986.09445  24232896.0324   24232903.9614
      3945.0684       3074.0784
 99  9 18  0 56 59.9990000  0 10G31G19G14G22G 3G18G 1G27G16G13
  24000083.3024   -1017549.78346   -496751.02145  24000081.6774   24000095.3344
      3784.2824       2948.7804
  20854361.2744   -8583369.32748  -6673537.80547  20854360.2274   20854367.7694
      2098.0544       1634.8474
  23353345.9054  -29591046.46847 -22784980.98345  23353344.6094   23353355.6874
     -2880.7414      -2244.7294
  23702050.5544  -13367570.09947 -10106583.59745  23702049.0814   23702058.3914
     -2638.0734      -2055.6474
  23628482.6194  -10983198.50647  -8074894.66245  23628482.4694   23628492.0884
      2409.1984       1877.2984
  19947119.4474  -37989803.70349 -29319573.51147  19947118.1464   19947124.4804
      1822.1124       1419.8264
  23624123.0374  -31039100.59747 -23527855.06345  23624121.3214   23624130.7074
     -1886.2914      -1469.8314
  23485025.8384  -14749281.10948 -11205566.14846  23485024.2784   23485032.8694
      3259.3914       2539.7804
  21144387.2874  -34987998.57349 -26968490.20847  21144385.9104   21144394.0564
     -1595.6094      -1243.3304
  24210373.2214   -8237595.66447  -5841214.53545  24210372.7064   24210380.1834
      3945.0234       3074.0454
 99  9 18  0 57 29.9990000  0 10G31G19G14G22G 3G18G 1G27G16G13
  23978477.1744   -1131093.36347   -585226.33145  23978476.1114   23978488.0464
      3778.5214       2944.2894
  20842395.0364   -8646252.13149  -6722537.39547  20842394.0634   20842401.5454
      2087.1464       1626.3494
  23369793.1614  -29504615.38247 -22717632.24045  23369791.5634   23369803.0744
     -2888.1934      -2250.5374
  23717120.9064  -13288371.26647 -10044870.30945  23717118.9754   23717129.4734
     -2648.6834      -2063.9014
  23614754.2084  -11055343.84647  -8131111.71045  23614753.7874   23614763.3364
      2393.7154       1865.2314
  19936743.7394  -38044324.42749 -29362057.18547  19936742.9484   19936749.5034
      1805.6704       1407.0154
  23634901.6324  -30982460.83547 -23483720.28545  23634899.1344   23634909.3944
     -1896.5194      -1477.8104
  23466418.3904  -14847060.49048 -11281757.75946  23466417.2074   23466425.9904
      3252.2744       2534.2344
  21153528.2024  -34939964.86949 -26931061.40547  21153526.7034   21153534.5714
     -1613.4454      -1257.2284
  24187839.3194   -8356008.15147  -5933483.93245  24187838.9914   24187847.2734
      3942.4454       3072.0354
 99  9 18  0 57 59.9990000  0 10G31G19G14G22G 3G18G 1G27G16G13
  23956918.6664   -1244388.98446   -673508.42345  23956916.3764   23956927.2564
      3777.0464       2943.1374
  20830506.5844   -8708727.71349  -6771219.64847  20830505.4784   20830512.4564
      2080.0024       1620.7814
  23386296.0144  -29417890.70247 -22650054.71845  23386294.5984   23386306.5774
     -2891.0684      -2252.7794
  23732264.6374  -13208787.92747  -9982857.40245  23732263.7074   23732273.4034
     -2654.5954      -2068.5184
  23601129.9254  -11126948.89547  -8186907.77145  23601128.0514   23601136.6424
      2382.1524       1856.2204
  19926477.5174  -38098275.42649 -29404096.92147  19926476.3794   19926482.7874
      1793.4954       1397.5284
  23645750.2724  -30925442.58547 -23439290.57945  23645749.5264   23645759.0774
     -1902.2434      -1482.2644
  23447867.0744  -14944544.01548 -11357718.82746  23447866.2384   23447875.6194
      3248.9004       2531.6064
  21162784.1664  -34891322.90749 -26893158.63847  21162782.8004   21162791.0794
     -1627.1354      -1267.8964
  24165335.0144   -8474274.93847  -6025639.78645  24165333.7254   24165342.0524
      3944.3504       3073.5264
 99  9 18  0 58 29.9990000  0 10G31G19G14G22G 3G18G 1G27G16G13
  23935369.3444   -1357619.61346   -761739.90045  23935367.7604   23935379.9144
      3776.2564       2942.5344
  20818663.2654   -8770964.24748  -6819715.62147  20818662.1764   20818669.3524
      2073.3384       1615.5884
  23402820.0304  -29331056.56847 -22582391.93445  23402818.3724   23402830.0234
     -2893.5074      -2254.6734
  23747447.0314  -13129005.05747  -9920689.00145  23747446.6154   23747455.7104
     -2660.0874      -2072.7914
  23587572.0254  -11198181.30947  -8242413.45945  23587571.7124   23587582.1794
      2370.9294       1847.4754
  19916283.9174  -38151842.65349 -29445837.61247  19916282.8364   19916288.8934
      1781.9044       1388.4974
  23656636.4194  -30868234.09547 -23394712.62045  23656635.7684   23656646.2664
     -1907.3574      -1486.2494
  23429340.6074  -15041904.38648 -11433583.94546  23429339.0564   23429348.3474
      3246.0164       2529.3594
  21172124.4454  -34842239.04949 -26854911.53647  21172123.1954   21172131.4034
     -1640.8704      -1278.5994
  24142823.6544   -8592572.38847  -6117819.56945  24142821.8854   24142828.8444
      3946.2414       3074.9954
 99  9 18  0 58 59.9990000  0 10G31G19G14G22G 3G18G 1G27G16G13
  23913816.9094   -1470885.13547   -849998.54145  23913815.6004   23913826.6234
      3770.3774       2937.9434
  20806846.1644   -8833063.04848  -6868104.28647  20806845.2114   20806852.6624
      2061.9584       1606.7214
  23419344.4994  -29244217.27547 -22514725.11845  23419343.3964   23419355.0114
     -2900.4094      -2260.0574
  23762648.3684  -13049123.76347  -9858443.93145  23762647.5274   23762656.8154
     -2669.9364      -2080.4684
  23574069.2964  -11269147.91847  -8297712.02445  23574067.9114   23574077.5484
      2355.6474       1835.5684
  19906145.2894  -38205121.33649 -29487353.45847  19906144.0744   19906150.2674
      1765.6624       1375.8414
  23667539.6454  -30810938.34647 -23350066.67345  23667538.7374   23667548.3964
     -1916.5934      -1493.4454
  23410818.0634  -15139234.49148 -11509425.47146  23410817.2834   23410827.1714
      3238.2394       2523.2974
  21181530.4734  -34792811.45749 -26816396.58647  21181529.2464   21181537.3234
     -1658.5734      -1292.3924
  24120289.6304   -8710975.72847  -6210081.84845  24120288.0004   24120297.7644
      3942.8844       3072.3804
 99  9 18  0 59 29.9990000  0 10G31G19G14G22G 3G18G 1G27G16G13
  23892289.7464   -1584013.31546   -938150.17045  23892288.2544   23892298.1164
      3769.8794       2937.5634
  20795086.9174   -8894856.89648  -6916255.32747  20795086.0324   20795093.7824
      2055.9504       1602.0394
  23435900.5914  -29157215.18247 -22446931.44945  23435900.0634   23435911.1004
     -2901.3104      -2260.7594
  23777896.5624  -12968996.37247  -9796007.08545  23777895.0434   23777904.5504
     -2673.5734      -2083.2994
  23560643.4464  -11339695.59047  -8352684.13345  23560643.0654   23560652.6724
      2345.7194       1827.8334
  19896090.9934  -38257957.24449 -29528524.28847  19896089.9254   19896096.0594
      1755.0604       1367.5794
  23678486.9344  -30753416.68147 -23305244.71945  23678485.3604   23678495.3684
     -1919.9364      -1496.0384
  23392333.6834  -15236374.71748 -11585119.03446  23392332.7074   23392341.5234
      3236.3224       2521.8074
  21191028.2454  -34742900.88149 -26777505.28547  21191026.8984   21191034.8674
     -1670.2894      -1301.5224
  24097770.5394   -8829314.89947  -6302294.14645  24097770.6714   24097778.5074
      3944.7164       3073.8164
 99  9 18  0 59 59.9990000  0 10G31G19G14G22G 3G18G 1G27G16G13
  23870784.7434   -1697012.42046  -1026201.22045  23870783.4814   23870796.1484
      3770.3974       2937.9714
  20783383.0954   -8956361.74048  -6964181.16147  20783382.0944   20783389.1894
      2051.3294       1598.4384
  23452481.8684  -29070079.27147 -22379033.50745  23452481.3884   23452492.4274
     -2900.8584      -2260.3994
  23793185.4234  -12888648.43047  -9733398.38645  23793184.3094   23793194.6524
     -2676.1854      -2085.3304
  23547300.0774  -11409823.12147  -8407328.88545  23547298.7354   23547308.2284
      2336.3334       1820.5204
  19886118.7884  -38310361.26349 -29569358.58147  19886117.6814   19886124.0424
      1745.6634       1360.2584
  23689470.9824  -30695686.68647 -23260260.41345  23689469.9884   23689480.2444
     -1921.9454      -1497.6134
  23373878.0044  -15333359.97148 -11660691.84946  23373877.0444   23373886.0884
      3236.5064       2521.9514
  21200612.4454  -34692535.53749 -26738259.62147  21200611.0634   21200618.9414
     -1680.3944      -1309.3964
  24075265.7754   -8947586.58347  -6394453.90045  24075265.3174   24075272.4124
      3947.1554       3075.7054
 99  9 18  1  0 29.9990000  0 10G31G19G14G22G 3G18G 1G27G16G13
  23849285.6894   -1809991.61346  -1114236.77345  23849285.0234   23849295.8114
      3763.6954       2932.7534
  20771709.6224   -9017707.48648  -7011983.05147  20771708.4894   20771715.2624
      2040.5234       1590.0194
  23469069.7534  -28982915.77847 -22311114.06445  23469068.7134   23469079.6114
     -2907.8974      -2265.8874
  23808496.6604  -12808191.68747  -9670704.89445  23808495.2724   23808505.1554
     -2685.6564      -2092.7164
  23534014.2264  -11479635.70447  -8461728.20745  23534013.2024   23534022.8674
      2319.9804       1807.7774
  19876206.2124  -38362453.15149 -29609949.65547  19876205.1524   19876211.0624
      1729.1484       1347.3884
  23700476.7964  -30637851.45747 -23215194.11345  23700476.1604   23700486.5784
     -1931.7224      -1505.2344
  23355425.1954  -15430327.99048 -11736251.25046  23355423.8034   23355433.7094
      3230.2104       2517.0434
  21210258.5864  -34641844.43549 -26698760.11747  21210257.2124   21210265.2284
     -1696.9384      -1322.2874
  24052752.0654   -9065895.88447  -6486642.94745  24052751.1134   24052759.4664
      3942.5044       3072.0724
 99  9 18  1  0 59.9980000  0 10G31G19G14G22G 3G18G 1G27G16G13
  23827811.1234   -1922846.55447  -1202175.51645  23827808.3584   23827820.1734
      3759.0124       2929.0904
  20760081.9984   -9078810.48248  -7059595.74747  20760080.9734   20760087.9434
      2031.9304       1583.3214
  23485680.1524  -28895622.95647 -22243093.84645  23485679.3254   23485690.9624
     -2913.0084      -2269.8704
  23823846.2924  -12727532.53047  -9607853.68345  23823845.0054   23823853.9734
     -2693.0564      -2098.4864
  23520809.6044  -11549025.54947  -8515798.14045  23520808.7344   23520818.9314
      2305.1144       1796.1904
  19866373.5604  -38414123.06049 -29650211.91047  19866372.6064   19866378.7404
      1714.6544       1336.0934
  23711524.5444  -30579799.25547 -23169958.72445  23711524.2864   23711533.4444
     -1939.5284      -1511.3224
  23336992.6004  -15527190.02448 -11811728.05146  23336991.3384   23337001.1324
      3226.5094       2514.1624
  21219982.0084  -34590747.43049 -26658944.32347  21219980.7894   21219988.9574
     -1710.7694      -1333.0654
  24030248.2844   -9184149.15647  -6578788.31645  24030247.6994   24030257.7964
      3940.4554       3070.4864
 99  9 18  1  1 29.9980000  0 10G31G19G14G22G 3G18G 1G27G16G13
  23806348.9254   -2035635.03647  -1290062.45545  23806346.9524   23806357.3774
      3756.3494       2927.0254
  20748491.3894   -9139721.29548  -7107058.71147  20748490.3034   20748497.1864
      2024.9344       1577.8714
  23502310.3634  -28808236.20347 -22175000.43745  23502309.1254   23502320.0074
     -2916.4904      -2272.5834
  23839227.9184  -12646702.19947  -9544869.07545  23839226.2784   23839235.9624
     -2699.4294      -2103.4554
  23507677.5704  -11618031.01647  -8569568.54845  23507677.2014   23507687.3304
      2291.4884       1785.5694
  19856613.0814  -38465417.85649 -29690181.87647  19856611.7494   19856617.4064
      1701.0404       1325.4864
  23722607.3064  -30521567.31247 -23124583.27645  23722605.4654   23722615.0484
     -1946.3884      -1516.6614
  23318568.6034  -15624004.21648 -11887167.56646  23318568.2954   23318578.0004
      3223.8304       2512.0684
  21229774.4954  -34539289.06649 -26618846.95347  21229773.0294   21229781.3114
     -1723.7244      -1343.1594
  24007743.7344   -9302413.16647  -6670942.07745  24007743.4344   24007752.3654
      3940.1614       3070.2574
 99  9 18  1  1 59.9980000  0 10G31G19G14G22G 3G18G 1G27G16G13
  23784895.6824   -2148371.82447  -1377909.12545  23784893.3564   23784903.2524
      3758.5154       2928.7054
  20736934.4784   -9200451.01648  -7154380.55447  20736933.5714   20736940.3434
      2022.8234       1576.2254
  23518954.3244  -28720775.52847 -22106849.44345  23518951.4574   23518963.4464
     -2915.0694      -2271.4724
  23854640.5784  -12565706.82747  -9481755.90045  23854639.1124   23854649.1944
     -2701.0974      -2104.7534
  23494620.1564  -11686653.01647  -8623040.15745  23494618.3894   23494628.6774
      2282.5514       1778.6094
  19846926.2964  -38516319.66949 -29729845.62247  19846925.3214   19846931.0614
      1691.6374       1318.1584
  23733720.4304  -30463160.95847 -23079071.92145  23733719.4534   23733729.0754
     -1948.2484      -1518.1124
  23300158.1444  -15720755.10748 -11962557.78046  23300157.3174   23300166.0354
      3225.2274       2513.1574
  21239637.1274  -34487459.73049 -26578460.51547  21239635.8574   21239644.2974
     -1732.5254      -1350.0184
  23985233.8814   -9420703.19747  -6763116.13645  23985233.3994   23985240.8804
      3945.1314       3074.1364
 99  9 18  1  2 29.9980000  0 10G31G19G14G22G 3G18G 1G27G16G13
  23763453.0894   -2261030.80847  -1465695.16845  23763452.7624   23763464.3104
      3756.0104       2926.7584
  20725417.4924   -9260973.68049  -7201541.08447  20725416.4434   20725423.3744
      2015.6404       1570.6284
  23535612.2974  -28633232.23847 -22038634.05645  23535611.9094   23535622.8424
     -2917.2064      -2273.1414
  23870088.6274  -12484529.83347  -9418501.17845  23870086.8734   23870096.6444
     -2706.9944      -2109.3424
  23481638.0554  -11754873.96247  -8676199.25745  23481636.9034   23481646.1744
      2269.3634       1768.3334
  19837320.3664  -38566798.62449 -29769179.86347  19837319.2394   19837325.4264
      1677.4184       1307.0784
  23744873.1444  -30404551.40247 -23033402.24045  23744871.5354   23744882.1294
     -1955.0394      -1523.4074
  23281768.1774  -15817397.35548 -12037863.33846  23281766.6514   23281776.3474
      3221.4004       2510.1804
  21249578.0074  -34435219.20649 -26537753.67447  21249576.7394   21249585.3854
     -1746.3814      -1360.8144
  23962720.8114   -9539009.30447  -6855302.69145  23962719.8764   23962728.6424
      3945.8864       3074.7234
 99  9 18  1  2 59.9980000  0 10G31G19G14G22G 3G18G 1G27G16G13
  23742025.6284   -2373654.10847  -1553453.41445  23742023.8374   23742032.6084
      3754.3794       2925.4784
  20713935.9704   -9321309.00448  -7248555.58947  20713935.0254   20713941.9504
      2008.7524       1565.2614
  23552275.2344  -28545671.01647 -21970404.70845  23552274.1664   23552285.4614
     -2918.0624      -2273.8144
  23885561.9844  -12403219.31447  -9355142.39745  23885559.8264   23885569.1724
     -2711.6224      -2112.9474
  23468724.0144  -11822737.16847  -8729079.60345  23468723.2554   23468731.5804
      2257.1414       1758.8104
  19827788.6074  -38616889.23749 -29808211.50047  19827787.4524   19827793.4684
      1664.2794       1296.8414
  23756055.3794  -30345787.95547 -22987612.61645  23756054.7664   23756065.6224
     -1960.2834      -1527.4874
  23263393.2084  -15913959.40448 -12113106.39446  23263391.9064   23263401.2804
      3218.2434       2507.7184
  21259591.8194  -34382598.78849 -26496750.81447  21259590.4324   21259598.5554
     -1759.4754      -1371.0184
  23940196.8684   -9657377.69447  -6947537.76845  23940195.6644   23940203.8704
      3947.5144       3075.9924
 99  9 18  1  3 29.9980000  0 10G31G19G14G22G 3G18G 1G27G16G13
  23720608.2014   -2486196.47447  -1641148.61345  23720607.1244   23720617.7104
      3746.4684       2919.3294
  20702499.4614   -9381411.84848  -7295388.96347  20702498.2654   20702504.6994
      1996.1144       1555.4154
  23568944.9974  -28458065.53347 -21902140.86045  23568944.7284   23568955.9434
     -2924.1704      -2278.5684
  23901062.5974  -12321758.47047  -9291666.50145  23901060.4964   23901070.9454
     -2720.9734      -2120.2334
  23455881.4424  -11890221.87347  -8781665.01345  23455880.5874   23455889.7884
      2239.9324       1745.3984
  19818335.5334  -38666565.91449 -29846920.59347  19818334.3894   19818340.3544
      1645.6584       1282.3314
  23767270.5584  -30286851.11147 -22941687.90445  23767270.5424   23767281.3164
     -1970.8534      -1535.7224
  23245041.2314  -16010394.71248 -12188250.68346  23245040.2114   23245049.6494
      3208.8654       2500.4104
  21269686.0804  -34329554.55349 -26455417.70147  21269684.5454   21269692.8434
     -1778.6324      -1385.9444
  23917667.3464   -9775769.91747  -7039791.43545  23917666.7514   23917674.7914
      3943.4864       3072.8474
 99  9 18  1  3 59.9980000  0 10G31G19G14G22G 3G18G 1G27G16G13
  23699237.2104   -2598502.98847  -1728660.01045  23699235.4584   23699246.3884
      3739.1464       2913.6134
  20691134.4014   -9441134.71648  -7341926.24447  20691133.2814   20691139.8074
      1983.7764       1545.7974
  23585649.7144  -28370277.56347 -21833734.82045  23585649.5834   23585661.2484
     -2929.9684      -2283.0824
  23916616.2954  -12240024.33547  -9227977.65845  23916614.6304   23916624.4514
     -2729.5474      -2126.9144
  23443137.6654  -11957192.88147  -8833850.12645  23443136.3524   23443145.9534
      2223.2734       1732.4184
  19808984.0404  -38715707.89249 -29885213.03847  19808982.8344   19808989.1524
      1629.1624       1269.4764
  23778546.4474  -30227603.25947 -22895520.83745  23778543.6754   23778555.6624
     -1980.6354      -1543.3484
  23226740.8574  -16106564.71648 -12263188.26046  23226739.3874   23226748.5844
      3201.0484       2494.3194
  21279886.6514  -34275947.98649 -26413646.41247  21279885.4354   21279893.8714
     -1796.6044      -1399.9494
  23895157.8964   -9894050.77047  -7131958.32545  23895157.0554   23895165.0184
      3940.2194       3070.3034
 99  9 18  1  4 29.9980000  0 10G31G19G14G22G 3G18G 1G27G16G13
  23677901.6904   -2710616.75747  -1816021.21945  23677901.2904   23677911.5024
      3740.1824       2914.4234
  20679836.2644   -9500506.19248  -7388189.71247  20679834.9514   20679841.8144
      1979.3784       1542.3734
  23602385.0904  -28282336.46947 -21765209.44545  23602384.7384   23602396.4934
     -2927.9854      -2281.5474
  23932212.7394  -12158063.44547  -9164112.11745  23932211.0364   23932222.1104
     -2729.6854      -2127.0204
  23430485.0504  -12023686.46747  -8885663.22545  23430483.5534   23430492.0764
      2214.6384       1725.6914
  19799719.2554  -38764394.16649 -29923150.38847  19799718.0724   19799724.3384
      1621.6674       1263.6364
  23789873.0754  -30168076.70947 -22849136.62745  23789871.2724   23789882.4944
     -1982.4744      -1544.7834
  23208478.9984  -16202530.31548 -12337966.56546  23208477.6874   23208486.9004
      3201.8184       2494.9204
  21290182.9264  -34221840.14649 -26371484.52447  21290181.7104   21290190.3284
     -1805.3264      -1406.7464
  23872666.2024  -10012254.93347  -7224065.42145  23872664.6974   23872673.1264
      3945.2024       3074.1844
 99  9 18  1  4 59.9980000  0 10G31G19G14G22G 3G18G 1G27G16G13
  23656567.5654   -2822723.62047  -1903377.05545  23656566.8504   23656579.8844
      3737.5564       2912.3764
  20668567.7334   -9559721.74849  -7434331.70547  20668566.8174   20668573.6774
      1972.2364       1536.8084
  23619118.9744  -28194405.91747 -21696692.30545  23619117.4944   23619129.2334
     -2930.2134      -2283.2804
  23947817.4994  -12076059.87247  -9100213.31145  23947816.1334   23947826.8574
     -2733.4114      -2129.9264
  23417888.8084  -12089881.13647  -8937243.40245  23417887.1994   23417896.1254
      2202.2234       1716.0134
  19790502.6474  -38812826.14449 -29960889.58447  19790501.7534   19790507.9594
      1611.0024       1255.3264
  23801214.6704  -30108477.81247 -22802696.02945  23801213.1544   23801223.1774
     -1986.9194      -1548.2424
  23190218.5124  -16298491.29848 -12412741.26646  23190217.3454   23190226.1134
      3199.5504       2493.1534
  21300534.0444  -34167446.21649 -26329099.70747  21300532.6014   21300540.9174
     -1816.9724      -1415.8214
  23850150.9054  -10130577.92047  -7316265.10845  23850149.6244   23850156.4604
      3946.8614       3075.4774
 99  9 18  1  5 29.9980000  0 10G31G19G14G22G 3G18G 1G27G16G13
  23635252.9514   -2934742.57947  -1990664.40345  23635251.7974   23635263.1144
      3729.3914       2906.0074
  20657341.3944   -9618716.26648  -7480301.42847  20657340.3464   20657347.2764
      1959.7564       1527.0814
  23635867.1174  -28106398.80747 -21628115.51145  23635863.9034   23635877.7594
     -2937.7984      -2289.1804
  23963445.3354  -11993937.40447  -9036221.83545  23963443.4124   23963454.1424
     -2742.7874      -2137.2364
  23405362.9934  -12155695.41947  -8988527.18145  23405362.3794   23405372.0844
      2184.1254       1701.9114
  19781348.4184  -38860933.27249 -29998375.64747  19781347.5754   19781353.4404
      1594.9994       1242.8574
  23812583.6744  -30048741.97447 -22756148.72145  23812581.8164   23812591.6484
     -1996.5404      -1555.7424
  23171971.7964  -16394380.38448 -12487459.95946  23171970.4574   23171979.5264
      3192.0554       2487.3134
  21310951.0814  -34112703.39248 -26286443.02047  21310949.8864   21310958.0994
     -1833.4954      -1428.6954
  23827625.8864  -10248942.97447  -7408497.53345  23827625.4164   23827631.7134
      3943.2194       3072.6324
 99  9 18  1  5 59.9980000  0 10G31G19G14G22G 3G18G 1G27G16G13
  23613970.2204   -3046582.13247  -2077811.96145  23613968.0304   23613977.7854
      3727.5614       2904.5814
  20646173.4304   -9677402.42248  -7526030.88047  20646172.6104   20646179.4914
      1953.7504       1522.4014
  23652644.7384  -28018226.63747 -21559410.10645  23652643.1984   23652655.5514
     -2939.2394      -2290.3144
  23979116.6724  -11911584.16147  -8972050.54845  23979114.9284   23979124.5244
     -2746.5444      -2140.1604
  23392933.9384  -12221015.43747  -9039425.81845  23392932.4674   23392941.8014
      2171.5344       1692.1044
  19772275.4104  -38908614.03949 -30035529.48147  19772274.1454   19772280.2864
      1584.3714       1234.5754
  23823992.6354  -29988780.07047 -22709425.25645  23823991.6084   23824002.1394
     -2000.0914      -1558.5114
  23153754.7304  -16490106.16648 -12562051.39246  23153753.9624   23153762.7664
      3190.6534       2486.2174
  21321449.4024  -34057533.14148 -26243453.27347  21321448.2794   21321456.9334
     -1843.4514      -1436.4534
  23805111.8754  -10367251.84447  -7500686.17645  23805111.5304   23805119.0464
      3944.8854       3073.9334
 99  9 18  1  6 29.9980000  0 10G31G19G14G22G 3G18G 1G27G16G13
  23592688.5314   -3158417.88247  -2164956.55845  23592687.2504   23592696.0324
      3728.4134       2905.2564
  20635027.1354   -9735978.21049  -7571674.35847  20635026.0754   20635033.2314
      1951.6594       1520.7724
  23669417.5864  -27930085.93247 -21490729.20445  23669415.7304   23669429.0424
     -2936.5424      -2288.2044
  23994798.4784  -11829178.55847  -8907838.45745  23994796.2354   23994806.5984
     -2746.9984      -2140.5074
  23380562.6874  -12286022.64247  -9090080.69845  23380562.2954   23380571.5394
      2162.5554       1685.1094
  19763254.4124  -38956016.24949 -30072466.25647  19763253.6014   19763259.9204
      1575.9754       1228.0334
  23835409.7064  -29928778.72447 -22662671.06645  23835408.6594   23835418.9534
     -1999.7504      -1558.2384
  23135536.3664  -16585845.89248 -12636653.70446  23135535.3854   23135543.7184
      3192.2864       2487.4934
  21331992.5634  -34002129.64948 -26200281.78347  21331991.4284   21332000.1424
     -1849.8794      -1441.4644
  23782578.6454  -10485667.71347  -7592958.20145  23782577.6624   23782584.9824
      3949.9134       3077.8504
 99  9 18  1  6 59.9980000  0 10G31G19G14G22G 3G18G 1G27G16G13
  23571450.8074   -3270023.53347  -2251921.85845  23571449.0174   23571458.8084
      3715.5444       2895.2154
  20623940.2334   -9794240.93048  -7617073.84147  20623939.2254   20623946.3594
      1935.8434       1508.4464
  23686223.3764  -27841774.86747 -21421915.55445  23686221.2294   23686233.9504
     -2947.2504      -2296.5534
  24010530.8644  -11746503.26947  -8843416.22245  24010529.2764   24010539.9444
     -2761.1224      -2151.5224
  23368291.8074  -12350509.86947  -9140330.41745  23368290.7954   23368300.3644
      2140.1344       1667.6344
  19754332.8034  -39002900.33349 -30108999.29847  19754331.6244   19754338.1844
      1553.0384       1210.1594
  23846874.7714  -29868536.73947 -22615729.35645  23846873.0184   23846882.7054
     -2013.1414      -1568.6774
  23117356.5954  -16681382.52748 -12711097.77246  23117355.5164   23117363.9114
      3180.2224       2478.0934
  21342623.0504  -33946268.93248 -26156754.01047  21342621.5974   21342630.0604
     -1870.8134      -1457.7744
  23760066.6614  -10603970.97847  -7685142.44745  23760065.9454   23760072.3614
      3940.3294       3070.3824
 99  9 18  1  7 29.9980000  0 10G31G19G14G22G 3G18G 1G27G16G13
  23550227.3134   -3381552.93247  -2338827.74345  23550225.2494   23550235.2274
      3717.5664       2896.8034
  20612885.5034   -9852334.00648  -7662341.15547  20612884.3474   20612891.4644
      1934.9614       1507.7624
  23703028.2934  -27753458.20547 -21353097.54145  23703028.7054   23703040.1394
     -2942.4554      -2292.8204
  24026285.2024  -11663712.09647  -8778903.67845  24026283.6114   24026294.3484
     -2760.2184      -2150.8134
  23356088.8854  -12414636.49647  -9190299.13645  23356087.6394   23356097.2694
      2132.8304       1661.9424
  19745484.5914  -39049398.29849 -30145231.47047  19745483.5654   19745490.1584
      1544.7684       1203.7164
  23858359.0144  -29808188.30747 -22568704.69545  23858357.4124   23858367.0654
     -2012.2394      -1567.9694
  23099188.8374  -16776857.74048 -12785493.96946  23099187.4694   23099196.0284
      3182.7414       2480.0584
  21353315.7194  -33890077.61548 -26112968.62747  21353314.4724   21353322.3244
     -1877.3994      -1462.9074
  23737552.0274  -10722280.45547  -7777331.51045  23737551.1134   23737560.0244
      3945.1004       3074.1024
 99  9 18  1  7 59.9980000  0 10G31G19G14G22G 3G18G 1G27G16G13
  23529021.3404   -3492983.36947  -2425656.48645  23529019.6374   23529029.9694
      3712.6864       2892.9914
  20601865.2204   -9910244.65748  -7707466.31647  20601864.2194   20601871.4654
      1927.1224       1501.6554
  23719837.0984  -27665130.41047 -21284270.85045  23719836.0484   23719848.5094
     -2944.5604      -2294.4584
  24042061.8364  -11580805.61247  -8714301.28545  24042059.9534   24042071.6484
     -2765.4324      -2154.8834
  23343957.2654  -12478389.08847  -9239976.41645  23343955.5994   23343964.9614
      2119.0134       1651.1744
  19736714.4824  -39095484.90349 -30181143.10247  19736713.5914   19736719.7994
      1529.3444       1191.6964
  23869870.2184  -29747701.41347 -22521572.15645  23869867.8544   23869877.8034
     -2018.5794      -1572.9104
  23081036.3504  -16872243.93048 -12859820.79046  23081035.5904   23081044.4514
      3178.0844       2476.4284
  21364077.0814  -33833527.86148 -26068903.94247  21364075.6604   21364083.4084
     -1891.0204      -1473.5204
  23715042.7354  -10840565.57647  -7869501.60045  23715041.8244   23715049.8644
      3942.4074       3072.0004
 99  9 18  1  8 29.9980000  0 10G31G19G14G22G 3G18G 1G27G16G13
  23507858.1414   -3604202.06047  -2512320.26845  23507855.6484   23507867.1304
      3705.6224       2887.5034
  20590903.2334   -9967849.38448  -7752353.09447  20590902.2604   20590909.2624
      1916.9164       1493.7004
  23736668.3934  -27576674.90547 -21215344.63845  23736668.1934   23736680.8244
     -2948.7954      -2297.7554
  24057879.7694  -11497679.73347  -8649527.94445  24057878.2844   24057888.1964
     -2772.6074      -2160.4714
  23331915.6944  -12541662.61247  -9289280.36845  23331914.4414   23331924.5494
      2102.9444       1638.6584
  19728043.1334  -39141053.07749 -30216650.76147  19728042.2924   19728048.4614
      1512.4264       1178.5144
  23881427.8964  -29686958.20447 -22474239.88045  23881426.6454   23881437.0024
     -2027.1104      -1579.5664
  23062922.3174  -16967437.16648 -12933997.26546  23062921.3774   23062929.7554
      3171.7904       2471.5224
  21374928.4294  -33776503.81748 -26024469.68747  21374927.0574   21374934.8874
     -1906.8794      -1485.8774
  23692558.1074  -10958722.27147  -7961571.63145  23692557.8684   23692565.0234
      3938.7474       3069.1434
 99  9 18  1  8 59.9980000  0 10G31G19G14G22G 3G18G 1G27G16G13
  23486702.6224   -3715371.16447  -2598945.40345  23486702.0194   23486711.6524
      3700.9794       2883.8714
  20579968.8804  -10025309.46849  -7797127.19147  20579967.9724   20579975.0134
      1909.1104       1487.6164
  23753496.7014  -27488243.14347 -21146436.95745  23753496.5124   23753509.3714
     -2951.0414      -2299.5024
  24073708.4764  -11414501.30547  -8584713.67145  24073706.8834   24073716.8934
     -2777.2334      -2164.0744
  23319937.0114  -12604610.78047  -9338330.81245  23319936.6184   23319945.9164
      2088.8644       1627.6874
  19719437.9984  -39186272.65449 -30251886.78747  19719437.1114   19719443.5874
      1497.5894       1166.9534
  23893006.0164  -29626118.45847 -22426832.40045  23893003.5764   23893014.4904
     -2033.5114      -1584.5464
  23044814.2634  -17062596.99848 -13008147.71146  23044812.8534   23044820.8384
      3167.6424       2468.2914
  21385839.7294  -33719164.05548 -25979789.41047  21385838.3874   21385846.1564
     -1920.1854      -1496.2464
  23670065.2344  -11076931.28747  -8053682.42545  23670062.8754   23670070.5764
      3937.4884       3068.1704
 99  9 18  1  9 29.9980000  0 10G31G19G14G22G 3G18G 1G27G16G13
  23465586.6014   -3826341.10747  -2685415.32945  23465584.3704   23465595.0064
      3698.6584       2882.0604
  20569088.7724  -10082486.37348  -7841680.58247  20569087.6384   20569094.5724
      1904.2854       1483.8584
  23770346.1154  -27399701.98447 -21077444.02845  23770345.5324   23770359.0744
     -2950.1654      -2298.8254
  24089571.7464  -11331137.50847  -8519754.94145  24089569.9844   24089580.6394
     -2778.7974      -2165.2884
  23308050.7444  -12667079.53047  -9387007.69145  23308049.7894   23308058.1274
      2077.3044       1618.6724
  19710926.4244  -39231001.11749 -30286740.12647  19710925.4014   19710931.9574
      1485.9574       1157.8874
  23904630.9864  -29565036.77147 -22379236.39445  23904629.6754   23904639.1594
     -2036.8234      -1587.1304
  23026738.2004  -17157582.05748 -13082161.95946  23026737.5424   23026746.1784
      3166.5204       2467.4184
  21396834.9024  -33661385.35548 -25934767.10947  21396833.5064   21396841.3814
     -1929.8174      -1503.7524
  23647582.1744  -11195074.79947  -8145742.17845  23647581.7404   23647589.0304
      3940.5184       3070.5304
 99  9 18  1  9 59.9980000  0 10G31G19G14G22G 3G18G 1G27G16G13
  23444503.0874   -3937132.43047  -2771746.09845  23444502.0454   23444511.7624
      3688.1694       2873.8974
  20558258.6264  -10139400.21648  -7886029.01347  20558257.4464   20558264.3034
      1890.6544       1473.2384
  23787212.0684  -27311073.13147 -21008382.74345  23787209.4254   23787224.1524
     -2957.7884      -2304.7644
  24105465.5104  -11247614.26747  -8454671.97245  24105464.4324   24105474.8624
     -2789.0064      -2173.2524
  23296249.5234  -12729089.29647  -9435326.90945  23296248.6714   23296258.0934
      2057.3314       1603.1144
  19702502.9774  -39275266.82749 -30321232.87947  19702502.0224   19702508.5374
      1465.8894       1142.2494
  23916291.9164  -29503750.46247 -22331480.90945  23916289.7424   23916300.6014
     -2048.1864      -1595.9824
  23008688.2564  -17252435.99648 -13156074.02646  23008687.0914   23008696.5454
      3157.9144       2460.7114
  21407901.8254  -33603227.79348 -25889449.58847  21407900.2764   21407908.7484
     -1946.5384      -1516.7804
  23625100.4474  -11313211.15847  -8237796.35945  23625100.4714   23625108.7064
      3936.0934       3067.0824
 99  9 18  1 10 29.9980000  0 10G31G19G14G22G 3G18G 1G27G16G13
  23423468.3314   -4047672.45747  -2857881.02945  23423466.6594   23423477.7364
      3677.6944       2865.7294
  20547491.5624  -10195975.80148  -7930113.86347  20547490.7734   20547498.2984
      1877.7244       1463.1604
  23804108.7544  -27222280.41547 -20939193.80245  23804107.7904   23804120.8404
     -2964.9534      -2310.3464
  24121405.6614  -11163847.12447  -8389398.93445  24121404.5144   24121415.6084
     -2798.8954      -2180.9534
  23284553.4984  -12790553.38547  -9483220.93545  23284552.5534   23284561.7184
      2036.7714       1587.0914
  19694180.6714  -39319000.50649 -30355311.06147  19694179.9184   19694186.2464
      1446.2824       1126.9734
  23928005.8904  -29442187.44447 -22283509.81845  23928005.1104   23928016.7204
     -2059.4154      -1604.7324
  22990673.5354  -17347103.20348 -13229840.59646  22990672.6904   22990681.4574
      3149.6434       2454.2664
  21419050.4884  -33544639.46648 -25843796.41247  21419049.3954   21419058.1564
     -1962.8104      -1529.4604
  23602633.3044  -11431279.83647  -8329797.82945  23602631.9094   23602640.3414
      3931.7234       3063.6744
 99  9 18  1 10 59.9980000  0 10G31G19G14G22G 3G18G 1G27G16G13
  23402448.2374   -4158126.24647  -2943948.77445  23402447.0364   23402457.4474
      3678.8644       2866.6404
  20536757.6074  -10252384.89649  -7974069.01047  20536756.5894   20536764.1244
      1875.6844       1461.5704
  23821003.6354  -27133494.07847 -20870009.80445  23821001.9004   23821016.0934
     -2961.1084      -2307.3594
  24137360.5414  -11080005.50647  -8324067.87745  24137358.9604   24137369.4554
     -2797.6554      -2179.9894
  23272933.4294  -12851621.41747  -9530806.33945  23272931.9824   23272940.0474
      2027.4154       1579.7994
  19685927.7914  -39362367.71149 -30389103.68247  19685926.8694   19685933.5344
      1437.8574       1120.4074
  23939744.9304  -29380510.65247 -22235450.09145  23939743.1354   23939751.8264
     -2059.3434      -1604.6704
  22972665.4144  -17441736.78548 -13303580.97846  22972664.3604   22972673.5784
      3152.3484       2456.3744
  21430250.8604  -33485781.60148 -25797933.20047  21430249.5124   21430258.1964
     -1968.0434      -1533.5364
  23580150.6714  -11549424.50347  -8421858.52745  23580149.7394   23580157.8394
      3937.5304       3068.2084
 99  9 18  1 11 29.9980000  0 10G31G19G14G22G 3G18G 1G27G16G13
  23381449.9904   -4268475.94447  -3029935.39345  23381448.0694   23381458.1114
      3673.8314       2862.7204
  20526063.6314  -10308582.77248  -8017859.52947  20526062.7484   20526070.0254
      1866.9364       1454.7534
  23837904.7584  -27044678.46747 -20800803.01945  23837904.4374   23837917.6994
     -2963.7764      -2309.4274
  24153335.7154  -10996057.13047  -8258653.64245  24153334.7304   24153344.6304
     -2802.9264      -2184.0964
  23261392.5304  -12912266.12247  -9578061.88645  23261391.2744   23261399.4324
      2011.7534       1567.5964
  19677749.9614  -39405344.51149 -30422592.08747  19677749.0424   19677755.8444
      1423.3774       1109.1264
  23951508.0484  -29318692.28447 -22187280.01545  23951505.5384   23951516.1544
     -2065.7184      -1609.6374
  22954668.7744  -17536312.33848 -13377276.11846  22954667.4504   22954676.6204
      3148.7814       2453.5924
  21441507.8624  -33426624.42748 -25751836.77047  21441506.7164   21441515.4204
     -1979.7564      -1542.6654
  23557663.0834  -11667591.99447  -8513937.02345  23557662.3444   23557671.4374
      3936.2374       3067.1954
 99  9 18  1 11 59.9980000  0  9G31G19G14G 3G18G 1G27G16G13
  23360476.8784   -4378691.56047  -3115817.54945  23360475.6764   23360484.6554
      3675.1464       2863.7514
  20515415.7314  -10364538.21648  -8061461.15947  20515414.6174   20515422.2464
      1864.8994       1453.1674
  23854816.8174  -26955809.25747 -20731554.47245  23854815.6734   23854828.5334
     -2959.3904      -2306.0084
  23249938.0184  -12972458.07547  -9624964.63845  23249936.8814   23249946.0394
      2002.4094       1560.3134
  19669650.6764  -39447908.27149 -30455758.64547  19669649.5424   19669656.0334
      1415.6244       1103.0834
  23963302.4084  -29256700.78347 -22138975.03945  23963301.3724   23963313.9724
     -2065.6904      -1609.6294
  22936688.9444  -17630796.87448 -13450900.33946  22936687.5284   22936696.5924
      3151.2634       2455.5264
  21452831.4164  -33367122.03048 -25705471.34247  21452829.9964   21452838.7734
     -1985.8944      -1547.4484
  23535185.1054  -11785719.56147  -8605984.39545  23535184.9734   23535191.2494
      3940.3664       3070.4114
 99  9 18  1 12 29.9980000  0  9G31G19G14G 3G18G 1G27G16G13
  23339526.4894   -4488778.83047  -3201599.69645  23339525.9424   23339533.5824
      3669.8554       2859.6204
  20504808.5044  -10420280.01848  -8104896.31147  20504807.4324   20504814.8424
      1857.1644       1447.1404
  23871733.4014  -26866910.29547 -20662282.76345  23871732.9534   23871746.1424
     -2961.2694      -2307.4804
  23238568.2524  -13032209.30247  -9671523.97045  23238567.0884   23238576.5014
      1986.9974       1548.3084
  19661625.1634  -39490080.19849 -30488619.87847  19661624.2834   19661630.8204
      1401.5894       1092.1484
  23975131.2434  -29194545.06447 -22090542.12045  23975130.2664   23975141.9124
     -2071.8984      -1614.4624
  22918729.2894  -17725172.97248 -13524440.07246  22918728.1764   22918736.9184
      3146.2494       2451.6204
  21464222.9984  -33307257.23748 -25658823.51947  21464221.9424   21464230.7804
     -1999.1704      -1557.7944
  23512717.8194  -11903796.17147  -8697992.07345  23512716.9564   23512721.7434
      3937.5034       3068.1874
 99  9 18  1 12 59.9980000  0  9G31G19G14G 3G18G 1G27G16G13
  23318593.6604   -4598784.81347  -3287318.49645  23318593.1194   23318600.7964
      3666.7344       2857.1914
  20494229.5084  -10475870.00548  -8148213.16247  20494228.7234   20494236.0874
      1851.8444       1442.9954
  23888648.0894  -26778031.77647 -20593026.97845  23888646.4774   23888657.9414
     -2960.8754      -2307.1644
  23227267.7384  -13091592.55647  -9717796.57146  23227266.9904   23227275.9104
      1974.9264       1538.9054
  19653666.8464  -39531905.46249 -30521210.98047  19653665.6594   19653671.7014
      1389.6364       1082.8354
  23986978.5074  -29132287.03947 -22042029.46845  23986976.9454   23986989.3204
     -2075.5164      -1617.2814
  22900784.4074  -17819473.06148 -13597920.57346  22900783.4354   22900792.0734
      3143.6254       2449.5754
  21475675.5274  -33247075.36748 -25611928.61947  21475674.1854   21475683.1584
     -2009.7234      -1566.0154
  23490248.5714  -12021872.17747  -8789999.29045  23490247.5194   23490253.2554
      3937.5004       3068.1794
 99  9 18  1 13 29.9980000  0  9G31G19G14G 3G18G 1G27G16G13
  23297707.0684   -4708551.71747  -3372851.04245  23297704.9314   23297713.2014
      3653.7734       2847.0944
  20483704.2364  -10531182.25348  -8191313.60547  20483703.2254   20483711.1434
      1838.5244       1432.6184
  23905579.8114  -26689054.59147 -20523694.29145  23905579.2384   23905591.1764
     -2967.8874      -2312.6344
  23216060.0044  -13150487.12447  -9763688.37646  23216059.0394   23216068.0634
      1954.2484       1522.7884
  19645800.7834  -39573240.59249 -30553420.16247  19645799.8694   19645805.9724
      1369.0504       1066.7924
  23998870.6394  -29069796.43147 -21993335.57545  23998868.7444   23998881.1564
     -2087.5284      -1626.6434
  22882877.0014  -17913574.85548 -13671246.55746  22882876.1604   22882885.1064
      3132.7014       2441.0624
  21487210.2194  -33186461.23648 -25564696.89847  21487208.8824   21487217.3854
     -2028.3694      -1580.5444
  23467800.5904  -12139827.29047  -8881912.31145  23467800.8544   23467806.9834
      3929.3004       3061.7894
 99  9 18  1 13 59.9980000  0  9G31G19G14G 3G18G 1G27G16G13
  23276859.2154   -4818102.01447  -3458214.76745  23276857.8064   23276866.8794
      3650.5844       2844.6064
  20473220.3404  -10586276.43948  -8234244.12747  20473219.1064   20473226.5904
      1835.2484       1430.0614
  23922516.0834  -26600052.64247 -20454342.31145  23922515.7194   23922527.0824
     -2964.8414      -2310.2574
  23204937.9154  -13208935.70247  -9809232.64846  23204936.8174   23204945.5974
      1943.2864       1514.2464
  19638017.7674  -39614139.58649 -30585289.50047  19638016.8204   19638023.1694
      1358.4554       1058.5354
  24010796.1534  -29007125.35147 -21944501.06045  24010796.4164   24010807.0634
     -2089.5464      -1628.2144
  22864999.0044  -18007523.94048 -13744453.55046  22864998.2354   22865006.7184
      3131.5724       2440.1854
  21498817.5834  -33125466.62348 -25517168.70347  21498815.9174   21498824.3994
     -2036.8114      -1587.1234
  23445366.2074  -12257719.50647  -8973776.32745  23445366.0664   23445373.0834
      3931.4324       3063.4534
 99  9 18  1 14 29.9980000  0  9G31G19G14G 3G18G 1G27G16G13
  23256045.0384   -4927482.67947  -3543446.34345  23256043.7404   23256052.6444
      3645.1584       2840.3784
  20462770.3624  -10641192.26448  -8277035.64847  20462769.2824   20462776.2224
      1829.3004       1425.4274
  23939452.4744  -26511057.70247 -20384995.80045  23939451.2494   23939463.4214
     -2964.4074      -2309.9174
  23193892.7604  -13266980.43447  -9854462.24446  23193891.7644   23193900.0164
      1929.9394       1503.8514
  19630311.4364  -39654636.17749 -30616845.27647  19630310.3874   19630316.8534
      1344.9114       1047.9824
  24022749.6964  -28944319.12947 -21895561.22345  24022747.4514   24022757.6254
     -2093.8274      -1631.5514
  22847140.2484  -18101372.91748 -13817582.54046  22847139.3004   22847147.5124
      3129.0504       2438.2174
  21510482.7594  -33064162.79848 -25469399.55347  21510481.2394   21510489.8444
     -2046.4454      -1594.6314
  23422933.9504  -12375607.86847  -9065637.32045  23422932.6854   23422939.1524
      3931.7264       3063.6774
 99  9 18  1 14 59.9980000  0  9G31G19G14G 3G18G 1G27G16G13
  23235255.9904   -5036727.40147  -3628571.98245  23235254.7214   23235264.1264
      3637.7364       2834.5934
  20452351.3184  -10695945.89448  -8319700.81647  20452350.0314   20452357.0254
      1820.6024       1418.6524
  23956376.4254  -26422115.47447 -20315690.37245  23956376.0294   23956389.3484
     -2965.0594      -2310.4374
  23182918.5844  -13324645.92847  -9899396.34546  23182917.6404   23182926.4364
      1914.3424       1491.6894
  19622677.3714  -39694754.11349 -30648105.99547  19622676.3224   19622682.5334
      1329.4814       1035.9594
  24034718.4274  -28881412.06147 -21846542.80545  24034716.8534   24034729.0804
     -2100.1364      -1636.4614
  22829287.3204  -18195193.82148 -13890689.66946  22829285.9354   22829294.0924
      3125.6034       2435.5324
  21522197.8214  -33002599.19948 -25421427.98947  21522196.5574   21522205.2044
     -2057.9524      -1603.5974
  23400493.0284  -12493537.09747  -9157530.18745  23400492.0584   23400498.4624
      3930.1734       3062.4714
 99  9 18  1 15 29.9980000  0  9G31G19G14G 3G18G 1G27G16G13
  23214505.3054   -5145772.15547  -3713541.79745  23214503.6484   23214513.2834
      3632.0064       2830.1264
  20441979.5084  -10750446.11048  -8362168.48047  20441978.5854   20441985.7054
      1812.5524       1412.3764
  23973301.0154  -26333179.99547 -20246390.20445  23973299.7784   23973312.8474
     -2964.2734      -2309.8094
  23172033.2914  -13381848.19547  -9943969.47745  23172031.9284   23172041.0874
      1899.0824       1479.8034
  19615127.4934  -39734429.27549 -30679021.69447  19615126.4514   19615132.7554
      1315.4384       1025.0164
  24046719.1354  -28818339.19946 -21797395.19945  24046718.8824   24046732.6154
     -2104.8274      -1640.1274
  22811449.7154  -18288928.43048 -13963729.53746  22811448.7154   22811456.8724
      3123.1804       2433.6434
  21533975.1584  -32940710.42248 -25373203.04447  21533973.7674   21533982.5184
     -2068.2514      -1611.6214
  23378057.4224  -12611434.24547  -9249398.04245  23378057.3484   23378064.1094
      3929.7054       3062.1054
 99  9 18  1 15 59.9980000  0  9G31G19G14G 3G18G 1G27G16G13
  23193808.9964   -5254533.82447  -3798291.02445  23193807.0314   23193817.4704
      3621.9244       2822.2784
  20431679.5014  -10804573.64348  -8404345.76347  20431678.2944   20431685.9024
      1798.9994       1401.8164
  23990246.6504  -26244132.21947 -20177002.52045  23990244.4154   23990258.5934
     -2969.4064      -2313.8144
  23161257.6214  -13438474.86647  -9988094.10446  23161257.0764   23161265.4054
      1878.9724       1464.1354
  19607683.3754  -39773549.45049 -30709504.93647  19607682.2364   19607688.4854
      1295.5334       1009.5074
  24058775.0524  -28754994.04946 -21748035.43645  24058773.5054   24058784.8614
     -2115.0734      -1648.1124
  22793650.1864  -18382464.05448 -14036614.35446  22793649.0814   22793657.5114
      3115.5194       2427.6744
  21545835.7774  -32878381.94448 -25324635.48147  21545834.4834   21545843.0344
     -2083.8714      -1623.7954
  23355647.3294  -12729197.39147  -9341161.50845  23355646.9734   23355653.9814
      3924.2734       3057.8754
 99  9 18  1 16 29.9980000  0  9G31G19G14G 3G18G 1G27G16G13
  23173141.9374   -5363132.90647  -3882913.57345  23173140.2594   23173151.0184
      3618.7384       2819.7944
  20421428.9494  -10858439.61748  -8446319.23847  20421427.9734   20421434.9094
      1792.7454       1396.9454
  24007193.5894  -26155073.26847 -20107606.13845  24007193.0474   24007205.6544
     -2967.0834      -2312.0094
  23150570.1304  -13494638.14047 -10031857.63746  23150569.2364   23150577.8254
      1865.9404       1453.9774
  19600326.8504  -39812206.08449 -30739626.98247  19600325.8254   19600332.4014
      1282.4524        999.3134
  24070860.4664  -28691490.78447 -21698552.46945  24070859.1454   24070869.9774
     -2117.7774      -1650.2204
  22775867.8284  -18475912.41048 -14109431.17846  22775866.7624   22775875.1694
      3115.0084       2427.2774
  21557759.0174  -32815724.73048 -25275811.74847  21557757.6304   21557766.4274
     -2092.6044      -1630.5984
  23333240.2834  -12846941.43147  -9432910.06145  23333240.1084   23333248.2194
      3926.0294       3059.2394
 99  9 18  1 16 59.9980000  0  9G31G19G14G 3G18G 1G27G16G13
  23152510.1934   -5471551.64547  -3967395.61245  23152508.6934   23152519.7164
      3613.7244       2815.8794
  20411230.8994  -10912030.11848  -8488078.04747  20411230.0124   20411237.2414
      1784.8404       1390.7834
  24024144.4164  -26065998.46747 -20038197.37945  24024142.3184   24024154.2314
     -2966.4934      -2311.5484
  23139972.8964  -13550327.44648 -10075251.84446  23139971.9684   23139980.7404
      1851.5234       1442.7464
  19593060.5954  -39850392.09949 -30769382.30947  19593059.5884   19593065.7674
      1268.0664        988.1034
  24082974.3044  -28627831.94347 -21648948.26245  24082971.8354   24082984.6424
     -2121.5434      -1653.1514
  22758106.7174  -18569249.30148 -14182161.15246  22758105.2974   22758114.0024
      3111.9714       2424.9074
  21569750.0224  -32752712.13848 -25226711.10046  21569748.7234   21569757.3154
     -2103.3134      -1638.9414
  23310841.7854  -12964650.78447  -9524631.57745  23310841.6914   23310848.2194
      3926.0354       3059.2444
 99  9 18  1 17 29.9980000  0  9G31G19G14G 3G18G 1G27G16G13
  23131900.6574   -5579861.99747  -4051793.18345  23131899.1714   23131908.3714
      3606.4724       2810.2344
  20401066.4224  -10965446.04348  -8529700.85947  20401065.4474   20401072.5584
      1775.9394       1383.8494
  24041083.1844  -25976977.72847 -19968830.74245  24041083.1874   24041097.0014
     -2968.7034      -2313.2694
  23129449.1994  -13605632.53148 -10118346.66046  23129447.7574   23129456.7914
      1835.1314       1429.9704
  19585867.8454  -39888192.32949 -30798837.02847  19585866.6044   19585872.8944
      1251.5124        975.2044
  24095100.7014  -28564100.80447 -21599287.71145  24095098.6744   24095112.3544
     -2127.6504      -1657.8994
  22740354.0044  -18662535.68148 -14254851.76146  22740352.8124   22740362.1924
      3106.6854       2420.7924
  21581790.9164  -32689438.72948 -25177407.20947  21581789.6534   21581798.1814
     -2115.3424      -1648.3154
  23288433.6394  -13082411.13647  -9616392.85745  23288432.3864   23288438.5564
      3924.2354       3057.8464
 99  9 18  1 17 59.9980000  0  9G31G19G14G 3G18G 1G27G16G13
  23111329.2604   -5687961.13347  -4136026.16645  23111327.8234   23111337.6664
      3597.0904       2802.9334
  20390947.1734  -11018623.71048  -8571137.95847  20390946.0914   20390953.3034
      1766.2174       1376.2714
  24058032.9434  -25887906.60147 -19899424.86345  24058032.2414   24058046.9374
     -2972.3034      -2316.0634
  23119013.5154  -13660468.99347 -10161076.31746  23119011.9454   23119021.5744
      1817.5334       1416.2574
  19578765.2974  -39925514.64749 -30827919.34747  19578764.1184   19578770.6844
      1233.8314        961.4274
  24107262.6494  -28500198.14247 -21549493.49045  24107260.9314   24107271.5274
     -2135.4814      -1664.0284
  22722627.7754  -18755683.05948 -14327434.05946  22722627.0944   22722635.8884
      3100.1794       2415.7204
  21593897.3354  -32625818.28648 -25127832.90747  21593896.1094   21593905.2014
     -2128.8534      -1658.8444
  23266032.3124  -13200130.28547  -9708122.01745  23266031.4944   23266037.6984
      3920.6784       3055.0724
 99  9 18  1 18 29.9980000  0  9G31G19G14G 3G18G 1G27G16G13
  23090822.5474   -5795723.93147  -4219997.05945  23090820.9794   23090831.0914
      3590.2384       2797.5864
  20380893.1444  -11071456.23348  -8612306.13747  20380892.1134   20380899.1724
      1759.0214       1370.6644
  24075011.7634  -25798684.79947 -19829901.55945  24075010.2054   24075024.1904
     -2972.5144      -2316.2514
  23108689.5234  -13714720.05447 -10203349.80646  23108688.5834   23108697.4734
      1802.3354       1404.4104
  19571771.7064  -39962266.74149 -30856557.33347  19571770.6474   19571777.1794
      1219.4814        950.2464
  24119477.0044  -28436009.64347 -21499476.53645  24119477.2754   24119486.2244
     -2140.7704      -1668.1244
  22704949.0624  -18848589.94048 -14399828.95846  22704948.2184   22704956.2854
      3096.7064       2413.0154
  21606088.9984  -32561751.29348 -25077910.64847  21606087.3574   21606096.6824
     -2139.1344      -1666.8544
  23243661.5224  -13317683.09247  -9799721.57545  23243661.6694   23243668.4824
      3919.3804       3054.0614
 99  9 18  1 18 59.9980000  0  9G31G19G14G 3G18G 1G27G16G13
  23070336.4274   -5903375.34247  -4303881.16045  23070336.2744   23070345.1434
      3584.8524       2793.3864
  20370861.3164  -11124174.27148  -8653385.13147  20370860.3674   20370867.2094
      1753.9154       1366.6904
  24091971.5324  -25709558.55447 -19760452.71845  24091971.8944   24091986.4694
     -2970.7474      -2314.8624
  23098434.7714  -13768615.83848 -10245346.46046  23098432.8984   23098441.3244
      1789.1134       1394.1124
  19564840.1634  -39998691.31749 -30884940.11547  19564839.2354   19564845.4714
      1207.1174        940.6114
  24131706.2124  -28371754.08247 -21449407.33845  24131704.2334   24131715.2284
     -2144.7934      -1671.2654
  22687271.6604  -18941488.60248 -14472217.45846  22687270.2764   22687278.4114
      3094.8424       2411.5624
  21618319.9264  -32497474.88348 -25027825.20846  21618318.9014   21618327.8474
     -2147.5594      -1673.4204
  23221281.0544  -13435296.48747  -9891368.33645  23221280.0064   23221287.0214
      3919.8114       3054.3994
 99  9 18  1 19 29.9980000  0  9G31G19G14G 3G18G 1G27G16G13
  23049907.9764   -6010733.20547  -4387536.50845  23049906.4334   23049916.3244
      3575.4784       2786.0744
  20360883.3234  -11176610.94548  -8694244.84547  20360882.3074   20360888.8774
      1744.7464       1359.5414
  24108948.0404  -25620359.07546 -19690946.81945  24108945.6584   24108959.0854
     -2973.0314      -2316.6334
  23088277.8554  -13821979.72947 -10286928.64446  23088277.2324   23088286.3774
      1771.3664       1380.2824
  19558005.5704  -40034607.64949 -30912926.85947  19558004.6634   19558011.0554
      1190.3274        927.5274
  24143982.5824  -28307233.53047 -21399131.65245  24143981.8354   24143993.6834
     -2153.3644      -1677.9584
  22669628.9304  -19034197.70248 -14544458.24646  22669627.9814   22669636.5704
      3088.8254       2406.8764
  21630624.9244  -32432814.14948 -24977440.28646  21630623.7184   21630632.5674
     -2160.1914      -1683.2634
  23198923.5314  -13552780.51047  -9982914.29745  23198923.1764   23198930.2024
      3915.5154       3051.0494
 99  9 18  1 19 59.9980000  0  8G31G19G14G 3G18G27G16G13
  23029501.4914   -6117962.97747  -4471092.07045  23029500.8244   23029510.8604
      3571.0544       2782.6334
  20350930.8434  -11228912.37448  -8734999.18247  20350929.8564   20350936.4004
      1739.7824       1355.6754
  24125904.5044  -25531248.39546 -19621510.10645  24125904.3584   24125917.4314
     -2969.6894      -2314.0454
  23078197.5254  -13874956.28447 -10328209.01746  23078196.6394   23078205.5554
      1758.1564       1369.9894
  19551238.0014  -40070175.73549 -30940642.24347  19551236.6484   19551242.3994
      1178.8164        918.5594
  22651991.9804  -19126881.89948 -14616679.62846  22651991.0784   22651998.5594
      3087.9874       2406.2204
  21642973.2564  -32367924.30148 -24926876.84146  21642971.9674   21642980.7224
     -2167.7444      -1689.1504
  23176564.2934  -13670286.05647 -10074477.01445  23176563.4284   23176568.9134
      3916.2274       3051.6064
 99  9 18  1 20 29.9980000  0  8G31G19G14G 3G18G27G16G13
  23009135.1274   -6224987.25447  -4554487.48345  23009134.1474   23009144.3174
      3564.0164       2777.1404
  20341020.1224  -11280991.43448  -8775580.25547  20341019.1154   20341026.3334
      1732.4664       1349.9764
  24142856.8694  -25442165.80347 -19552095.30545  24142855.8404   24142869.3844
     -2968.8054      -2313.3564
  23068207.3114  -13927457.87347 -10369119.27346  23068205.9144   23068214.5344
      1742.2964       1357.6324
  19544549.7284  -40105318.83549 -30968026.46647  19544548.5854   19544554.7904
      1164.1704        907.1454
  22634373.6104  -19219465.81148 -14688822.86446  22634372.5114   22634380.4484
      3084.4664       2403.4754
  21655377.9884  -32302738.23448 -24876082.58346  21655376.4374   21655385.3854
     -2177.7594      -1696.9544
  23154213.2414  -13787738.73147 -10165998.53245  23154212.4734   23154219.1464
      3914.3264       3050.1254
 99  9 18  1 20 59.9980000  0  8G31G19G14G 3G18G27G16G13
  22988810.5254   -6331801.59047  -4637719.32345  22988808.9834   22988818.5714
      3552.8354       2768.4364
  20331147.8744  -11332869.43848  -8816004.68247  20331146.9434   20331154.1384
      1721.8014       1341.6604
  24159801.3094  -25353120.16547 -19482709.32145  24159800.7084   24159815.1194
     -2971.8544      -2315.7324
  23058304.3634  -13979497.08447 -10409669.23946  23058303.2604   23058312.1884
      1722.7864       1342.4314
  19537945.0084  -40140027.11149 -30995071.86747  19537943.8794   19537949.9314
      1145.6174        892.6884
  22616775.1904  -19311944.78548 -14760884.32646  22616774.1814   22616782.2164
      3076.7834       2397.4904
  21667838.6814  -32237255.21548 -24825056.93246  21667837.2804   21667846.5524
     -2191.8704      -1707.9484
  23131871.5754  -13905144.61847 -10257483.56845  23131870.3814   23131878.2694
      3908.4544       3045.5424
 99  9 18  1 21 29.9980000  0  8G31G19G14G 3G18G27G16G13
  22968539.0384   -6438328.50747  -4720727.21345  22968538.3004   22968547.1774
      3546.9264       2763.8304
  20321329.6094  -11384465.25148  -8856209.18047  20321328.6464   20321335.8294
      1715.7194       1336.9244
  24176757.0164  -25264014.89246 -19413276.86545  24176756.1734   24176771.0394
     -2970.4774      -2314.6404
  23048506.4204  -14030984.60047 -10449789.33146  23048505.4524   23048514.0654
      1707.7014       1330.6754
  19531438.1604  -40174220.97649 -31021716.42947  19531437.2794   19531443.0704
      1131.8714        881.9784
  22599212.1354  -19404240.87648 -14832803.28246  22599211.0134   22599219.0814
      3074.4114       2395.6414
  21680369.6774  -32171402.64648 -24773743.31546  21680368.4324   21680378.0944
     -2200.3754      -1714.5764
  23109555.3484  -14022415.12747 -10348863.11645  23109555.0474   23109562.0884
      3907.5934       3044.8774
 99  9 18  1 21 59.9980000  0  7G31G19G 3G18G27G16G13
  22948303.0014   -6544664.48247  -4803586.30745  22948302.3424   22948311.4834
      3541.5584       2759.6444
  20311549.1594  -11435865.31048  -8896261.15947  20311548.2204   20311555.0514
      1710.4624       1332.8264
  23038796.1304  -14082015.57047 -10489553.66646  23038794.7524   23038803.0954
      1693.8154       1319.8524
  19525012.3584  -40207990.11049 -31048030.03047  19525011.3074   19525017.1354
      1118.9104        871.8774
  22581661.9634  -19496467.04348 -14904667.75446  22581660.9254   22581669.0664
      3073.3784       2394.8364
  21692951.8854  -32105286.02748 -24722223.95146  21692950.3294   21692960.0234
     -2207.9074      -1720.4444
  23087246.7824  -14139654.01647 -10440218.00845  23087245.9774   23087253.2074
      3907.7534       3045.0034
 99  9 18  1 22 29.9980000  0  7G31G19G 3G18G27G16G13
  22928131.7834   -6650669.24847  -4886187.29445  22928130.6174   22928139.1964
      3532.4984       2752.5954
  20301829.8264  -11486940.01448  -8936059.61247  20301828.5784   20301835.5614
      1701.3464       1325.7254
  23029194.7344  -14132468.58248 -10528867.62246  23029193.5524   23029201.9654
      1676.6824       1306.5044
  19518692.6424  -40241199.89249 -31073907.77347  19518691.6784   19518697.6744
      1101.9684        858.6754
  22564152.2774  -19588483.35648 -14976368.72146  22564151.0254   22564158.9284
      3067.9684       2390.6224
  21705609.7054  -32038766.77348 -24670390.84246  21705608.6484   21705618.0274
     -2219.8364      -1729.7394
  23064970.2054  -14256714.98147 -10531434.27845  23064969.4074   23064976.8854
      3903.3754       3041.5874
 99  9 18  1 22 59.9980000  0  7G31G19G 3G18G27G16G13
  22907999.1134   -6756468.61447  -4968628.24645  22907997.6704   22908006.7474
      3523.3224       2745.4464
  20292152.8714  -11537793.19448  -8975685.46647  20292151.7954   20292158.6624
      1691.0854       1317.7264
  23019679.5954  -14182469.80348 -10567829.55246  23019678.6744   23019687.0664
      1659.0724       1292.7834
  19512456.4914  -40273970.82549 -31099443.55547  19512455.3174   19512461.6174
      1085.1624        845.5804
  22546661.7354  -19680396.38948 -15047989.20046  22546660.2914   22546668.3204
      3061.9584       2385.9384
  21718325.5404  -31971949.15948 -24618325.25646  21718323.7134   21718332.9734
     -2232.2204      -1739.3914
  23042706.4674  -14373707.96147 -10622597.56945  23042706.3634   23042712.9834
      3898.6334       3037.8974
 99  9 18  1 23 29.9980000  0  7G31G19G 3G18G27G16G13
  22887877.1394   -6862205.18547  -5051020.26745  22887876.6844   22887885.6454
      3519.1084       2742.1604
  20282496.6034  -11588537.10548  -9015226.14347  20282495.5014   20282502.1754
      1685.3914       1313.2914
  23010226.3884  -14232148.15548 -10606539.89446  23010225.0824   23010234.2434
      1646.3564       1282.8744
  19506277.3634  -40306441.25649 -31124745.17247  19506276.5484   19506282.7254
      1072.8914        836.0184
  22529164.7894  -19772339.26148 -15119632.93146  22529164.2084   22529171.9664
      3060.9654       2385.1684
  21731070.1684  -31904974.30948 -24566137.14346  21731068.9694   21731077.8014
     -2239.3624      -1744.9534
  23020430.5674  -14490766.99847 -10713812.32945  23020429.9584   23020437.3884
      3898.9334       3038.1274
 99  9 18  1 23 59.9980000  0  7G31G19G 3G18G27G16G13
  22867820.7834   -6967600.24747  -5133146.17645  22867819.4244   22867829.6524
      3510.3894       2735.3634
  20272911.1794  -11638906.77248  -9054475.21747  20272910.3324   20272916.9744
      1675.8874       1305.8854
  23000884.5184  -14281239.84848 -10644793.09746  23000883.1624   23000892.4104
      1629.5814       1269.8014
  19500208.3274  -40338334.67049 -31149597.16747  19500207.2524   19500213.2944
      1056.6484        823.3634
  22511715.0764  -19864039.23948 -15191087.40246  22511714.0774   22511721.9084
      3055.4384       2380.8604
  21743896.1524  -31837572.49048 -24513616.32446  21743894.9034   21743904.1924
     -2250.8144      -1753.8764
  22998192.1694  -14607627.41847 -10804872.31945  22998192.0314   22998199.1704
      3895.1724       3035.1974
 99  9 18  1 24 29.9980000  0  7G31G19G 3G18G27G16G13
  22847796.4464   -7072832.59847  -5215145.29345  22847794.5174   22847804.0424
      3501.0034       2728.0454
  20263361.3134  -11689094.28948  -9093582.35947  20263360.0784   20263366.6074
      1665.8054       1298.0284
  22991618.4434  -14329927.83047 -10682731.71346  22991617.9424   22991626.6784
      1612.1014       1256.1834
  19494212.0114  -40369846.35949 -31174151.71147  19494210.8504   19494216.9644
      1039.8424        810.2664
  22494278.1944  -19955669.91548 -15262487.85846  22494277.1164   22494285.6594
      3049.1944       2375.9924
  21756767.5244  -31769932.09348 -24460909.60946  21756766.5494   21756776.1544
     -2262.5464      -1763.0214
  22975956.8054  -14724479.47247 -10895925.80045  22975956.4394   22975963.0764
      3891.1514       3032.0654
 99  9 18  1 24 59.9980000  0  7G31G19G 3G18G27G16G13
  22827814.0074   -7177837.56647  -5296967.22545  22827812.8974   22827822.7684
      3498.9694       2726.4634
  20253855.3874  -11739045.66948  -9132505.49947  20253854.4244   20253860.9084
      1664.0134       1296.6344
  22982442.9114  -14378145.68847 -10720304.00846  22982442.3114   22982450.8794
      1602.1524       1248.4334
  19488302.3454  -40400903.70549 -31198352.22647  19488301.2274   19488307.0434
      1030.3314        802.8554
  22476864.8994  -20047177.95648 -15333792.76146  22476864.0264   22476872.2954
      3051.1794       2377.5394
  21769693.3854  -31702007.33848 -24407981.31346  21769691.9734   21769701.9254
     -2265.9394      -1765.6654
  22953727.7264  -14841288.92147 -10986946.06845  22953727.8914   22953734.3094
      3895.8944       3035.7624
 99  9 18  1 25 29.9980000  0  7G31G19G 3G18G27G16G13
  22807879.2104   -7282596.87047  -5378597.72445  22807877.9254   22807887.1444
      3491.1394       2720.3664
  20244392.9354  -11788772.80248  -9171253.90947  20244391.7404   20244398.4114
      1657.3704       1291.4554
  22973358.1774  -14425884.04847 -10757502.66746  22973358.2224   22973366.9984
      1586.7244       1236.4034
  19482482.7714  -40431484.78949 -31222181.63047  19482481.6334   19482487.5834
      1014.8054        790.7574
  22459473.2964  -20138572.86848 -15405009.51246  22459472.1654   22459480.6234
      3048.2284       2375.2414
  21782669.8394  -31633814.20948 -24354843.89646  21782668.8274   21782678.7494
     -2274.0054      -1771.9474
  22931507.2494  -14958058.96147 -11077935.61545  22931507.1704   22931514.5034
      3895.4114       3035.3854
 99  9 18  1 25 59.9980000  0  7G31G19G 3G18G27G16G13
  22787988.3114   -7387126.48547  -5460049.23745  22787986.7694   22787996.3124
      3476.6414       2709.0644
  20234965.0904  -11838313.79248  -9209857.26047  20234963.9894   20234971.1784
      1644.3584       1281.3174
  22964360.6104  -14473173.14148 -10794351.24546  22964358.9624   22964367.2474
      1564.8554       1219.3684
  19476746.9834  -40461622.69349 -31245665.69447  19476746.0444   19476752.2714
       993.5184        774.1704
  22442093.9864  -20229898.32148 -15476172.13946  22442092.9234   22442101.5624
      3039.2764       2368.2644
  21795691.0614  -31565389.15948 -24301525.76546  21795689.6614   21795699.7214
     -2288.5874      -1783.3144
  22909285.6444  -15074837.88447 -11168932.08745  22909284.8594   22909291.6114
      3888.9344       3030.3374
 99  9 18  1 26 29.9980000  0  7G31G19G 3G18G27G16G13
  22768162.0234   -7491309.92347  -5541231.01645  22768160.5784   22768170.0284
      3468.0764       2702.3934
  20225594.7334  -11887554.41748  -9248226.58947  20225593.8194   20225600.9544
      1637.3004       1275.8164
  22955469.8354  -14519890.47847 -10830754.29746  22955468.9274   22955477.4654
      1548.6334       1206.7304
  19471116.9604  -40491209.83149 -31268720.58847  19471115.8404   19471122.3034
       977.9174        762.0124
  22424749.2714  -20321045.94548 -15547196.19546  22424748.1374   22424756.8744
      3036.3454       2365.9804
  21808776.4174  -31496620.88348 -24247940.18246  21808775.9274   21808786.0834
     -2296.9464      -1789.8254
  22887084.8164  -15191505.40447 -11259841.75645  22887084.2184   22887090.3854
      3887.8994       3029.5314
 99  9 18  1 26 59.9980000  0  7G31G19G 3G18G27G16G13
  22748383.8444   -7595240.57547  -5622215.82445  22748383.1224   22748392.4364
      3460.5464       2696.5264
  20216262.7024  -11936593.45748  -9286438.79847  20216261.8284   20216269.2094
      1631.7074       1271.4594
  22946672.6084  -14566123.45947 -10866779.93946  22946671.6224   22946679.6644
      1533.4444       1194.8934
  19465575.2184  -40520334.00649 -31291414.73947  19465574.1674   19465580.1694
       963.7374        750.9644
  22407418.5304  -20412119.40448 -15618162.46446  22407417.3444   22407425.7464
      3035.0674       2364.9864
  21821910.3774  -31427607.90748 -24194163.92646  21821908.8494   21821918.9214
     -2304.2004      -1795.4794
  22864889.6824  -15308141.24047 -11350726.73546  22864889.0344   22864895.8524
      3887.5554       3029.2594
 99  9 18  1 27 29.9980000  0  7G31G19G 3G18G27G16G13
  22728667.3414   -7698861.44947  -5702959.23745  22728665.0674   22728673.8904
      3453.7644       2691.2414
  20206980.1274  -11985376.03248  -9324451.18147  20206979.0224   20206986.4794
      1626.7424       1267.5904
  22937978.7224  -14611810.63248 -10902380.27746  22937977.4424   22937985.4724
      1518.6914       1183.3944
  19460127.0854  -40548961.20049 -31313721.63147  19460126.1644   19460132.3954
       951.0714        741.0944
  22390110.5444  -20503072.98148 -15689035.32446  22390109.1404   22390117.3514
      3034.7864       2364.7694
  21835100.6884  -31358293.69148 -24140152.94946  21835099.2754   21835108.8704
     -2310.5644      -1800.4354
  22842714.2324  -15424672.26048 -11441530.03846  22842714.2474   22842721.5144
      3887.5924       3029.2954
 99  9 18  1 27 59.9980000  0  7G31G19G 3G18G27G16G13
  22709000.4094   -7802204.49547  -5783486.15545  22708999.2524   22709008.3274
      3438.7194       2679.5224
  20197738.5544  -12033941.22448  -9362294.17747  20197737.5104   20197744.2884
      1613.5954       1257.3464
  22929382.2374  -14656982.61047 -10937579.14946  22929381.0124   22929389.3034
      1495.4864       1165.3084
  19454764.9944  -40577141.82149 -31335680.54447  19454763.8594   19454769.8054
       930.2464        724.8674
  22372818.3424  -20593942.44448 -15759842.64346  22372817.3714   22372825.6774
      3025.8164       2357.7764
  21848342.1574  -31288709.60448 -24085931.67446  21848340.6704   21848350.3344
     -2325.6004      -1812.1524
  22820553.7484  -15541127.95747 -11532274.64246  22820552.7204   22820560.1434
      3878.7034       3022.3654
 99  9 18  1 28 29.9980000  0  7G31G19G 3G18G27G16G13
  22689379.8654   -7905313.11747  -5863830.40145  22689377.7374   22689387.5964
      3432.5824       2674.7324
  20188531.5244  -12082321.85148  -9399993.37947  20188530.9254   20188538.1354
      1608.9614       1253.7364
  22920878.0314  -14701672.79447 -10972402.60446  22920877.2104   22920885.0794
      1481.3044       1154.2604
  19449482.9604  -40604898.13349 -31357308.83247  19449481.8694   19449487.6894
       917.4374        714.8854
  22355539.6684  -20684747.42048 -15830599.71546  22355538.6694   22355546.3164
      3025.1464       2357.2534
  21861628.3054  -31218887.10648 -24031524.62346  21861627.3784   21861637.2494
     -2331.8544      -1817.0264
  22798404.0144  -15657524.30347 -11622973.01246  22798403.3064   22798410.5014
      3878.5484       3022.2394
 99  9 18  1 28 59.9980000  0  8G 2G31G19G 3G18G27G16G13
  24214986.3624   -1968516.22957  -1223194.73845  24214985.3724   24214999.5854
      4070.0724       3171.4644
  22669816.2374   -8008115.95047  -5943936.36945  22669815.4714   22669824.5864
      3423.2374       2667.4504
  20179376.3144  -12130436.72248  -9437485.46147  20179375.2164   20179381.7804
      1600.9184       1247.4684
  22912477.8884  -14745818.31947 -11006801.66446  22912476.5584   22912484.9394
      1464.1024       1140.8574
  19444298.1884  -40632142.27649 -31378538.02247  19444297.1694   19444303.3534
       901.2424        702.2664
  22338286.9324  -20775410.11948 -15901245.91046  22338285.7584   22338293.4994
      3021.2974       2354.2574
  21874974.5814  -31148752.54948 -23976874.41346  21874973.4934   21874983.4454
     -2341.4044      -1824.4694
  22776277.4714  -15773797.65247 -11713575.55746  22776277.0984   22776284.4544
      3875.4134       3019.8014
 99  9 18  1 29 29.9980000  0  8G 2G31G19G 3G18G27G16G13
  24191759.4464   -2090575.04547  -1318305.21945  24191757.7694   24191771.7044
      4067.0784       3169.1484
  22650296.3574   -8110698.19847  -6023870.43445  22650295.0404   22650303.7834
      3415.4254       2661.3644
  20170255.5984  -12178364.57648  -9474831.82747  20170254.6504   20170261.8714
      1594.0944       1242.1504
  22904164.2354  -14789508.63147 -11040846.00146  22904162.7824   22904170.2924
      1448.4604       1128.6674
  19439196.4334  -40658953.92949 -31399430.20947  19439195.5244   19439201.4524
       885.9674        690.3634
  22321047.0634  -20866005.92448 -15971839.98446  22321045.9094   22321053.3604
      3018.1974       2351.8424
  21888362.7174  -31078399.45748 -23922053.91446  21888361.3534   21888371.0414
     -2348.9674      -1830.3624
  22754157.3774  -15890039.00747 -11804153.14746  22754156.4864   22754164.5124
      3873.8844       3018.6054
 99  9 18  1 29 59.9980000  0  8G 2G31G19G 3G18G27G16G13
  24168562.9064   -2212467.05447  -1413285.67645  24168563.1084   24168576.7074
      4059.8244       3163.4854
  22630831.5964   -8212982.55147  -6103572.38545  22630830.3174   22630838.0124
      3404.4534       2652.8174
  20161186.4574  -12226021.98448  -9511967.45747  20161185.5214   20161192.6844
      1583.7914       1234.1244
  22895948.9534  -14832674.39847 -11074481.59446  22895947.9114   22895956.0364
      1430.0674       1114.3354
  19434195.0834  -40685234.30049 -31419908.41547  19434194.1744   19434200.3984
       866.9894        675.5754
  22303839.3764  -20956431.17548 -16042301.15846  22303837.9014   22303846.4764
      3011.0014       2346.2354
  21901806.8904  -31007752.41548 -23867004.35946  21901805.2784   21901814.6464
     -2360.0004      -1838.9584
  22732059.8444  -16006161.18247 -11894637.88446  22732059.6784   22732066.9124
      3868.4994       3014.4094
 99  9 18  1 30 29.9980000  0  8G 2G31G19G 3G18G27G16G13
  24145371.3604   -2334344.95347  -1508255.19145  24145370.4014   24145383.0704
      4059.1554       3162.9744
  22611391.2174   -8315144.59347  -6183179.04145  22611389.8564   22611397.2614
      3400.0234       2649.3624
  20152137.0624  -12273577.55948  -9549023.73947  20152136.0054   20152143.0234
      1580.4274       1231.5014
  22887799.6774  -14875500.48247 -11107852.51246  22887798.6324   22887806.5554
      1418.6534       1105.4394
  19429262.6374  -40711157.54149 -31440108.33847  19429261.4674   19429267.5894
       855.1134        666.3224
  22286632.2314  -21046852.62448 -16112759.36746  22286631.1974   22286640.3824
      3010.9474       2346.1914
  21915273.2124  -30936987.77948 -23811863.17946  21915271.3144   21915280.6704
     -2363.8134      -1841.9294
  22709954.1094  -16122332.02348 -11985160.55046  22709953.0094   22709959.9344
      3870.0514       3015.6234
 99  9 18  1 30 59.9980000  0  8G 2G31G19G 3G18G27G16G13
  24122230.1704   -2455949.28747  -1603011.53845  24122228.3104   24122243.2334
      4050.4204       3156.1664
  22592023.1054   -8416919.57347  -6262484.08645  22592022.3034   22592031.0034
      3387.3014       2639.4514
  20143153.1024  -12320790.58448  -9585813.10547  20143151.9594   20143159.0984
      1569.5664       1223.0414
  22879764.7284  -14917727.79348 -11140756.85346  22879762.8564   22879771.5954
      1398.8174       1089.9854
  19424442.6984  -40736483.79249 -31459843.07347  19424441.7674   19424448.0244
       835.7964        651.2704
  22269473.0454  -21137025.95148 -16183024.23946  22269472.0684   22269480.6634
      3003.0104       2340.0054
  21928806.8094  -30865866.94748 -23756444.44046  21928805.5604   21928814.5344
     -2375.1484      -1850.7624
  22687888.6644  -16238289.57348 -12075517.02646  22687887.5044   22687893.6154
      3863.0354       3010.1564
 99  9 18  1 31 29.9970000  0  8G 2G31G19G 3G18G27G16G13
  24099121.4814   -2577382.56847  -1697634.57645  24099120.6754   24099134.5764
      4053.1764       3158.3114
  22572713.0084   -8518387.52147  -6341549.86545  22572712.3634   22572721.8014
      3385.1004       2637.7344
  20134213.5974  -12367767.59648  -9622418.55647  20134212.5814   20134219.1554
      1569.9414       1223.3294
  22871825.6104  -14959442.26648 -11173261.58146  22871825.0134   22871833.4994
      1389.8214       1082.9764
  19419716.4004  -40761322.83749 -31479198.17047  19419715.1924   19419721.1084
       827.8374        645.0684
  22252343.4584  -21227042.51048 -16253166.95546  22252342.1574   22252350.6454
      3006.0884       2342.4044
  21942387.5634  -30794500.80248 -23700834.54846  21942385.8894   21942395.0964
     -2375.1784      -1850.7884
  22665844.4884  -16354124.60948 -12165778.02046  22665844.0474   22665851.3334
      3867.3664       3013.5314
 99  9 18  1 31 59.9970000  0  8G 2G31G19G 3G18G27G16G13
  24076012.5774   -2698824.03347  -1792264.02145  24076011.1824   24076024.6964
      4047.0834       3153.5644
  22553432.6744   -8619714.71747  -6420505.98445  22553431.2634   22553440.2314
      3373.8064       2628.9334
  20125286.2444  -12414681.58848  -9658974.89147  20125284.9834   20125292.1264
      1561.5564       1216.7964
  22863953.1144  -15000811.11648 -11205496.99846  22863952.2924   22863960.9414
      1371.8684       1068.9894
  19415046.9404  -40785858.79149 -31498317.08847  19415045.8894   19415052.0424
       811.9144        632.6624
  22235207.4734  -21317090.78548 -16323334.38546  22235206.4274   22235214.9544
      3001.1414       2338.5504
  21955983.9554  -30723050.58748 -23645159.14846  21955982.4734   21955991.6344
     -2384.1934      -1857.8124
  22643789.5504  -16470023.34248 -12256088.63846  22643788.6794   22643796.1934
      3863.3364       3010.3914
 99  9 18  1 32 29.9970000  0  9G 2G10G31G19G 3G18G27G16G13
  24052935.1504   -2820100.86247  -1886765.20045  24052933.0624   24052946.4784
      4038.6754       3147.0144
  24075674.2774    -815273.29057   -350746.17445  24075672.0494   24075680.9424
      3555.9274       2770.8474
  22534216.2044   -8720696.61447  -6499193.03845  22534215.2864   22534224.5534
      3358.8674       2617.2934
  20116404.7944  -12461352.73048  -9695342.01447  20116403.6504   20116410.8744
      1550.5324       1208.2094
  22856185.5734  -15041631.55648 -11237305.08346  22856184.8724   22856193.1824
      1349.9754       1051.9254
  19410467.6094  -40809923.88349 -31517069.10247  19410466.6064   19410472.5014
       792.8964        617.8414
  22218097.9024  -21407002.57448 -16393395.46046  22218096.8094   22218104.7974
      2993.6484       2332.7104
  21969629.2674  -30651343.56448 -23589283.64546  21969627.6194   21969637.0944
     -2395.7604      -1866.8234
  22621756.1764  -16585809.56248 -12346311.60846  22621756.1004   22621762.5044
      3856.4474       3005.0234
 99  9 18  1 32 59.9970000  0  9G 2G10G31G19G 3G18G27G16G13
  24029885.3084   -2941227.98647  -1981149.70545  24029883.2564   24029896.4174
      4034.2524       3143.5644
  24055401.8814    -921799.54447   -433753.58045  24055400.7524   24055409.2464
      3543.5664       2761.2274
  22515067.0814   -8821328.21647  -6577607.14845  22515065.6874   22515073.5554
      3347.6694       2608.5664
  20107567.9304  -12507790.96549  -9731527.64447  20107566.8214   20107574.0604
      1542.8414       1202.2134
  22848526.6124  -15081882.92248 -11268669.72246  22848525.1254   22848533.2034
      1331.4174       1037.4634
  19405979.9134  -40833505.00349 -31535443.99747  19405979.1704   19405985.4634
       776.8324        605.3234
  22201013.5474  -21496783.84648 -16463354.83146  22201012.3404   22201019.7674
      2989.4684       2329.4544
  21983323.8334  -30579377.87848 -23533206.58546  21983322.5884   21983331.8544
     -2404.3264      -1873.4974
  22599743.4074  -16701488.98448 -12436451.33646  22599742.8054   22599749.7664
      3853.4264       3002.6684
 99  9 18  1 33 29.9970000  0  9G 2G10G31G19G 3G18G27G16G13
  24006857.8514   -3062233.66147  -2075439.62145  24006855.9734   24006868.3124
      4035.9314       3144.8744
  24035202.9524   -1027954.31947   -516471.59345  24035200.7404   24035207.6094
      3536.4704       2755.6874
  22495979.6734   -8921629.74047  -6655764.03645  22495978.5574   22495986.4014
      3342.3834       2604.4464
  20098775.7524  -12553991.61749  -9767528.13747  20098774.7514   20098782.2294
      1540.2004       1200.1554
  22840968.9854  -15121591.44948 -11299611.36546  22840968.1964   22840976.6914
      1319.0584       1027.8324
  19401583.6924  -40856605.48749 -31553444.37347  19401582.9984   19401589.5534
       766.3024        597.1184
  22183950.3374  -21586450.79348 -16533225.10646  22183949.3574   22183956.7784
      2991.5894       2331.1064
  21997066.9564  -30507155.45548 -23476929.46846  21997065.8664   21997075.5664
     -2407.3384      -1875.8464
  22577746.3804  -16817085.49248 -12526526.46946  22577745.9514   22577752.2744
      3856.0244       3004.6914
 99  9 18  1 33 59.9970000  0  9G 2G10G31G19G 3G18G27G16G13
  23983851.6484   -3183125.65747  -2169640.93845  23983850.1154   23983863.6444
      4023.0754       3134.8534
  24015073.7974   -1133730.27847   -598894.34645  24015071.3804   24015079.1254
      3514.8624       2738.8594
  22476954.5244   -9021610.30447  -6733670.83345  22476952.9254   22476960.7794
      3322.4704       2588.9344
  20090032.5754  -12599941.81648  -9803333.45347  20090031.2674   20090038.2274
      1522.6024       1186.4454
  22833513.7294  -15160768.82248 -11330139.12446  22833513.3464   22833521.4974
      1292.2314       1006.9324
  19397280.4604  -40879222.30149 -31571067.85747  19397279.4894   19397285.5534
       740.8834        577.3124
  22166906.5524  -21676018.07548 -16603017.72446  22166905.2774   22166912.4194
      2978.8274       2321.1624
  22010858.7384  -30434675.50548 -23420451.67746  22010857.7784   22010868.2034
     -2425.2074      -1889.7704
  22555767.8194  -16932580.60348 -12616522.60546  22555767.1424   22555773.6614
      3842.9954       2994.5394
 99  9 18  1 34 29.9970000  0  9G 2G10G31G19G 3G18G27G16G13
  23960875.1344   -3303866.31747  -2263724.32745  23960873.9334   23960887.3894
      4022.6064       3134.4914
  23995023.6424   -1239084.07847   -680988.18245  23995023.3324   23995033.0364
      3505.2564       2731.3584
  22457998.0044   -9121228.91547  -6811295.57545  22457996.2354   22458004.7754
      3315.3214       2583.3604
  20081344.9104  -12645593.70348  -9838906.34247  20081343.8044   20081350.6244
      1517.2294       1182.2574
  22826169.4474  -15199365.52948 -11360214.41446  22826168.3864   22826177.3134
      1277.3864        995.3634
  19393081.6444  -40901287.07949 -31588261.18947  19393080.7884   19393086.8564
       726.4654        566.0774
  22149892.7624  -21765424.39048 -16672684.91746  22149891.6914   22149899.3514
      2978.0564       2320.5624
  22024711.1264  -30361884.37348 -23363731.41946  22024709.8784   22024720.1304
     -2431.1874      -1894.4274
  22533823.1104  -17047900.06648 -12706381.84046  22533822.7924   22533829.5184
      3841.4974       2993.3704
 99  9 18  1 34 59.9970000  0  9G 2G10G31G19G 3G18G27G16G13
  23937907.4904   -3424569.39347  -2357778.46545  23937905.8904   23937917.7634
      4017.1794       3130.2614
  23975036.6824   -1344111.50747   -762827.65945  23975035.7244   23975045.5364
      3489.9364       2719.4274
  22439084.1914   -9220612.12047  -6888736.89245  22439083.4954   22439092.0454
      3303.3394       2574.0264
  20072695.3804  -12691048.91948  -9874325.96747  20072694.3354   20072701.0724
      1506.0984       1173.5824
  22818911.5254  -15237504.00348 -11389932.65146  22818910.7434   22818919.3974
      1258.3104        980.5004
  19388970.3074  -40922894.65649 -31605098.25847  19388969.3024   19388975.1594
       707.2434        551.0984
  22132888.5204  -21854783.75548 -16742315.52346  22132887.4534   22132894.7734
      2972.2074       2316.0024
  22038601.2324  -30288889.27048 -23306852.21646  22038600.6554   22038610.6814
     -2441.8954      -1902.7724
  22511891.5174  -17163151.06148 -12796187.73446  22511891.2564   22511897.4434
      3835.1594       2988.4324
 99  9 18  1 35 29.9970000  0  9G 2G10G31G19G 3G18G27G16G13
  23914952.8324   -3545190.51147  -2451768.73245  23914951.9524   23914964.6784
      4025.5754       3136.8054
  23955118.5584   -1448778.14247   -844386.01345  23955118.6134   23955127.7224
      3489.3204       2718.9514
  22420226.0164   -9319720.09647  -6965963.75845  22420224.3694   22420232.5434
      3305.1774       2575.4644
  20064091.2884  -12736261.34148  -9909556.40047  20064090.2804   20064097.2174
      1509.6214       1176.3284
  22811746.7124  -15275153.07148 -11419269.54046  22811746.3004   22811754.7954
      1252.9654        976.3354
  19384949.4464  -40944022.20449 -31621561.27647  19384948.4604   19384954.7814
       702.7594        547.6044
  22115899.5964  -21944059.60048 -16811881.05346  22115898.2704   22115905.9534
      2980.9164       2322.7904
  22052535.2234  -30215670.47248 -23249798.70146  22052533.6194   22052543.5244
     -2437.8044      -1899.5854
  22489981.2244  -17278296.54348 -12885911.43246  22489980.4844   22489985.6234
      3842.8084       2994.3934
 99  9 18  1 35 59.9970000  0  9G 2G10G31G19G 3G18G27G16G13
  23892015.6534   -3665726.37547  -2545692.57845  23892014.6304   23892026.9394
      4015.2614       3128.7734
  23935269.7824   -1553093.66947   -925670.78945  23935267.7224   23935279.1524
      3470.2884       2704.1174
  22401419.6724   -9418542.54047  -7042968.12645  22401418.3894   22401426.6244
      3288.1694       2562.2054
  20055528.0024  -12781261.73448  -9944621.61747  20055527.0384   20055533.8224
      1495.6054       1165.4054
  22804680.2804  -15312296.94148 -11448212.73946  22804678.3954   22804686.0944
      1228.3594        957.1614
  19381017.9094  -40964679.26549 -31637657.68147  19381017.2864   19381023.9734
       679.5674        529.5314
  22098927.5044  -22033247.07948 -16881377.72446  22098926.4544   22098933.7654
      2970.0114       2314.2944
  22066508.2894  -30142237.97248 -23192578.66646  22066507.3844   22066517.6094
     -2452.5704      -1911.0914
  22468089.5064  -17393336.91848 -12975553.21946  22468088.8924   22468093.7584
      3832.0084       2985.9734
 99  9 18  1 36 29.9970000  0  9G 2G10G31G19G 3G18G27G16G13
  23869105.6154   -3786121.15647  -2639506.45445  23869104.1574   23869115.5514
      4015.4384       3128.9004
  23915492.1354   -1657016.40346  -1006649.48945  23915490.4794   23915501.3184
      3462.3704       2697.9364
  22382679.0924   -9517026.35247  -7119708.63745  22382678.1044   22382685.9484
      3281.8974       2557.3154
  20047009.3414  -12826027.05448  -9979503.65847  20047008.4364   20047015.2094
      1493.1484       1163.4904
  22797719.0074  -15348874.83448 -11476714.92846  22797717.7744   22797725.4094
      1214.8294        946.6174
  19377186.9664  -40984813.65749 -31653346.81347  19377185.9864   19377192.4084
       667.3634        520.0214
  22081983.5154  -22122291.16348 -16950762.66646  22081982.1334   22081989.5304
      2970.8224       2314.9244
  22080531.3174  -30068546.01648 -23135156.45746  22080530.6474   22080540.8034
     -2455.6454      -1913.4874
  22446221.3074  -17508248.58648 -13065094.71246  22446221.2844   22446227.3184
      3833.4764       2987.1234
 99  9 18  1 36 59.9970000  0  9G 2G10G31G19G 3G18G27G16G13
  23846208.3344   -3906447.05847  -2733266.66445  23846206.3164   23846219.2304
      4005.4714       3121.1384
  23895774.5314   -1760638.27546  -1087393.76945  23895773.8184   23895783.4944
      3444.9974       2684.4224
  22363986.8234   -9615255.25047  -7196250.50945  22363985.8994   22363993.3874
      3265.8594       2544.8244
  20038516.1324  -12870661.07749 -10014283.42347  20038514.9224   20038521.6884
      1481.5714       1154.4704
  22790844.0284  -15384996.59248 -11504861.67946  22790843.5394   22790852.2134
      1192.4754        929.1944
  19373433.5334  -41004539.08149 -31668717.26947  19373432.5174   19373438.8834
       646.9164        504.0904
  22065046.0264  -22211297.63848 -17020118.30346  22065044.9234   22065052.2894
      2962.0954       2308.1244
  22094581.7544  -29994710.36548 -23077622.27946  22094581.1104   22094591.5324
     -2467.4274      -1922.6664
  22424356.6204  -17623148.27248 -13154626.85946  22424356.4544   22424362.9494
      3825.7524       2981.1034
 99  9 18  1 37 29.9970000  0  9G 2G10G31G19G 3G18G27G16G13
  23823344.3814   -4026594.49847  -2826887.79445  23823343.3164   23823355.1484
      4003.7244       3119.7744
  23876130.5704   -1863868.28947  -1167832.76545  23876130.3344   23876138.4664
      3436.0674       2677.4474
  22345362.2504   -9713124.28047  -7272511.94845  22345361.5504   22345369.7394
      3257.9364       2538.6444
  20030063.6034  -12915079.39649 -10048895.07147  20030062.4534   20030069.0284
      1478.7324       1152.2574
  22784074.6824  -15420575.22448 -11532585.21746  22784073.5014   22784080.9034
      1178.6744        918.4434
  19369772.5004  -41023775.84149 -31683706.95247  19369771.3704   19369778.3814
       634.7694        494.6264
  22048134.7024  -22300165.87148 -17089366.22246  22048133.4954   22048141.3794
      2961.7244       2307.8354
  22108675.1304  -29920651.53148 -23019914.20146  22108674.1914   22108684.7554
     -2470.5414      -1925.0934
  22402514.2014  -17737933.10148 -13244069.51246  22402513.6424   22402519.7894
      3825.8264       2981.1594
 99  9 18  1 37 59.9970000  0  9G 2G10G31G19G 3G18G27G16G13
  23800493.1904   -4146676.84047  -2920458.20745  23800491.2074   23800504.7514
      4001.8754       3118.3304
  23856542.3794   -1966809.67247  -1248046.77345  23856539.8124   23856551.0704
      3426.8164       2670.2364
  22326788.0814   -9810740.00647  -7348576.02545  22326785.6174   22326793.6834
      3250.0564       2532.5074
  20021631.5194  -12959387.74948 -10083421.02147  20021630.4044   20021637.7544
      1475.1144       1149.4394
  22777385.8364  -15455726.32048 -11559975.61246  22777384.3444   22777392.2094
      1164.9214        907.7264
  19366184.8764  -41042630.55349 -31698398.92747  19366183.5804   19366189.9624
       622.4084        484.9944
  22031228.4834  -22389007.37748 -17158593.31646  22031227.5484   22031234.7564
      2961.2674       2307.4794
  22122789.5254  -29846482.10648 -22962119.93846  22122788.6604   22122798.8234
     -2473.8304      -1927.6504
  22380674.3014  -17852700.82148 -13333498.84146  22380674.4374   22380680.4634
      3825.6154       2980.9984
 99  9 18  1 38 29.9970000  0  9G 2G10G31G19G 3G18G27G16G13
  23777668.3194   -4266622.48047  -3013922.05645  23777666.5674   23777678.7374
      3994.5284       3112.6164
  23837019.4664   -2069403.42147  -1327989.94945  23837017.5884   23837028.1844
      3412.7204       2659.2684
  22308268.4224   -9908054.43947  -7424405.33045  22308267.2814   22308274.7344
      3237.4514       2522.6894
  20013234.8864  -13003511.98548 -10117803.51847  20013233.8464   20013241.1524
      1466.2014       1142.4944
  22770786.5494  -15490403.84948 -11586996.99946  22770785.1654   22770793.8004
      1146.7404        893.5634
  19362679.8334  -41061050.35849 -31712752.02047  19362678.6924   19362684.6734
       605.5304        471.8424
  22014335.9444  -22477775.36248 -17227763.12546  22014334.9694   22014342.5024
      2956.4744       2303.7444
  22136934.1074  -29772156.99748 -22904204.36746  22136932.3254   22136942.0024
     -2481.2754      -1933.4564
  22358848.3404  -17967397.90648 -13422873.12146  22358847.6794   22358854.1124
      3820.6864       2977.1574
 99  9 18  1 38 59.9970000  0  9G 2G10G31G19G 3G18G27G16G13
  23754892.8954   -4386302.70747  -3107179.12245  23754891.8744   23754904.8084
      3984.5754       3104.8544
  23817587.8034   -2171523.85347  -1407564.26445  23817585.8634   23817595.0144
      3395.6194       2645.9344
  22289832.7424  -10004938.90547  -7499899.59345  22289831.2444   22289838.2574
      3221.8104       2510.4964
  20004901.1094  -13047305.89448 -10151928.61447  20004900.1214   20004907.2254
      1453.5144       1132.6084
  22764301.0524  -15524481.54748 -11613550.99346  22764300.3674   22764308.5714
      1125.0574        876.6654
  19359280.0214  -41078915.10349 -31726672.59547  19359279.0774   19359285.3534
       585.5244        456.2544
  21997483.5514  -22566337.71748 -17296772.69946  21997482.2754   21997489.8774
      2947.9194       2297.0784
  22151129.8154  -29697557.94848 -22846075.33946  22151128.2854   22151137.7084
     -2491.8334      -1941.6884
  22337064.2384  -18081876.59548 -13512077.24246  22337063.6764   22337069.0404
      3811.5454       2970.0334
 99  9 18  1 39 29.9970000  0  9G 2G10G31G19G 3G18G27G16G13
  23732156.3034   -4505785.19547  -3200282.07945  23732154.6814   23732167.0754
      3981.8234       3102.7094
  23798234.3274   -2273227.11247  -1486813.57245  23798230.9364   23798240.5414
      3385.2374       2637.8504
  22271467.9854  -10101443.58847  -7575097.91346  22271466.6304   22271474.7944
      3212.6934       2503.3974
  19996624.1284  -13090802.51548 -10185822.06547  19996623.0194   19996630.0094
      1447.0994       1127.6074
  22757925.9554  -15557984.34148 -11639656.99646  22757924.7174   22757932.8624
      1109.2314        864.3364
  19355981.2284  -41096251.76649 -31740181.68047  19355980.0384   19355986.2294
       571.0034        444.9374
  21980662.1854  -22654732.96448 -17365652.06846  21980661.3774   21980669.4884
      2945.8694       2295.4824
  22165369.3404  -29622727.26348 -22787765.80746  22165368.0634   22165377.6294
     -2496.1314      -1945.0344
  22315316.1964  -18196165.39848 -13601133.40546  22315315.3654   22315320.3694
      3808.7344       2967.8444
 99  9 18  1 39 59.9970000  0  9G 2G10G31G19G 3G18G27G16G13
  23709431.4904   -4625205.17447  -3293336.35345  23709429.6544   23709443.0344
      3982.4724       3103.2154
  23778935.8744   -2374627.83347  -1565827.10245  23778935.6854   23778946.4494
      3377.8234       2632.0694
  22253151.3574  -10197692.94247  -7650097.28546  22253150.3444   22253158.7274
      3206.9494       2498.9194
  19988379.9864  -13134125.53148 -10219580.22647  19988378.9074   19988385.6164
      1444.0934       1125.2664
  22751639.4294  -15591021.44548 -11665400.12846  22751638.0234   22751646.7124
      1096.3094        854.2614
  19352762.6004  -41113164.24949 -31753360.22847  19352761.4194   19352768.0004
       559.3534        435.8604
  21963851.1864  -22743076.47848 -17434491.12546  21963850.1304   21963858.1314
      2946.6494       2296.0884
  22179632.1134  -29547774.78248 -22729361.37646  22179630.8774   22179640.4464
     -2497.7564      -1946.3014
  22293578.8544  -18310391.79748 -13690140.94346  22293578.0904   22293584.3054
      3809.5664       2968.4924
 99  9 18  1 40 29.9970000  0  9G 2G10G31G19G 3G18G27G16G13
  23686739.1504   -4744455.70847  -3386258.57445  23686737.0154   23686749.2444
      3965.5444       3090.0304
  23759717.0974   -2475624.62547  -1644525.85545  23759715.4684   23759726.0334
      3353.0064       2612.7264
  22234904.6654  -10293581.61847  -7724815.62046  22234903.7054   22234911.3364
      3183.4014       2480.5694
  19980187.5174  -13177175.73149 -10253125.84047  19980186.5364   19980193.5364
      1423.6144       1109.3084
  22745460.6824  -15623491.41748 -11690701.34246  22745459.2764   22745467.5314
      1066.1214        830.7424
  19349647.4894  -41129532.97649 -31766115.07647  19349646.4544   19349653.3904
       529.6674        412.7274
  21947072.3374  -22831253.06048 -17503200.11346  21947070.7614   21947078.2344
      2929.6114       2282.8134
  22193939.2964  -29472591.44848 -22670777.05746  22193937.7794   22193947.8144
     -2516.7194      -1961.0754
  22271871.1414  -18424461.28048 -13779026.19346  22271871.1834   22271877.1744
      3792.8244       2955.4434
 99  9 18  1 40 59.9970000  0  9G 2G10G31G19G 3G18G27G16G13
  23664073.7124   -4863559.00047  -3479066.08445  23664072.1934   23664084.6914
      3971.0004       3094.2784
  23740575.4614   -2576220.79647  -1722912.46445  23740573.7054   23740583.6824
      3349.7144       2610.1684
  22216724.9184  -10389114.38947  -7799256.62046  22216723.7334   22216732.3454
      3181.8604       2479.3644
  19972047.0554  -13219955.26248 -10286460.49147  19972046.0994   19972052.9584
      1424.8144       1110.2454
  22739387.1744  -15655406.21748 -11715569.96446  22739386.0434   22739393.8034
      1057.9054        824.3374
  19346637.3474  -41145354.53349 -31778443.56147  19346636.1624   19346642.4794
       521.4964        406.3604
  21930322.2254  -22919271.39748 -17571785.79246  21930321.2584   21930329.1354
      2934.6814       2286.7624
  22208288.0984  -29397187.39048 -22612020.75946  22208287.0584   22208296.4614
     -2513.8364      -1958.8264
  22250196.1494  -18538368.78348 -13867785.25146  22250195.9464   22250201.6594
      3797.5974       2959.1664
 99  9 18  1 41 29.9970000  0  9G 2G10G31G19G 3G18G27G16G13
  23641448.5734   -4982452.13147  -3571709.84545  23641447.0614   23641459.6374
      3966.0034       3090.3844
  23721526.3384   -2676331.63847  -1800920.84245  23721524.2974   23721532.1384
      3335.2804       2598.9224
  22198626.9864  -10484221.31247  -7873365.78146  22198625.2524   22198634.0584
      3169.5694       2469.7934
  19963969.0484  -13262406.18048 -10319539.09547  19963968.0504   19963974.9314
      1416.3334       1103.6354
  22733431.3444  -15686704.84148 -11739958.44146  22733430.1924   22733438.1134
      1039.7574        810.1994
  19343742.7924  -41160562.27549 -31790293.74347  19343741.8694   19343748.3064
       503.5074        392.3444
  21913614.5754  -23007072.51848 -17640202.21346  21913613.3594   21913621.2414
      2929.7934       2282.9544
  22222692.4074  -29321495.37248 -22553040.06846  22222690.8894   22222700.2604
     -2521.3214      -1964.6624
  22228562.4124  -18652054.85848 -13956371.76446  22228561.3584   22228568.4284
      3792.7164       2955.3604
 99  9 18  1 41 59.9970000  0  9G 2G10G31G19G 3G18G27G16G13
  23618834.6004   -5101291.06247  -3664311.36145  23618833.1854   23618845.2454
      3961.5344       3086.8994
  23702539.0214   -2776107.18747  -1878668.00745  23702537.0054   23702546.5804
      3321.6434       2588.2924
  22180578.5394  -10579063.95047  -7947269.01746  22180577.2954   22180585.3864
      3158.2804       2460.9944
  19955918.3354  -13304713.73548 -10352505.98947  19955917.1784   19955924.0204
      1409.1194       1098.0134
  22727558.2144  -15717567.76548 -11764007.41746  22727557.2954   22727565.7124
      1022.8174        796.9994
  19340929.0114  -41175350.00549 -31801816.64447  19340927.9004   19340934.6824
       487.3834        379.7794
  21896913.0774  -23094838.09548 -17708590.94246  21896912.1144   21896919.4984
      2926.4304       2280.3344
  22237117.8424  -29245687.62048 -22493969.18746  22237116.8824   22237126.0864
     -2527.4494      -1969.4384
  22206934.3384  -18765710.42748 -14044934.50146  22206933.8394   22206940.3664
      3789.4114       2952.7884
 99  9 18  1 42 29.9970000  0  9G 2G10G31G19G 3G18G27G16G13
  23596242.4084   -5220018.03647  -3756825.65445  23596239.7534   23596252.4524
      3950.7554       3078.5084
  23683622.1624   -2875512.18147  -1956126.39645  23683621.0234   23683630.8984
      3302.3154       2573.2374
  22162590.1724  -10673595.19047  -8020929.60146  22162588.7714   22162596.5174
      3140.9474       2447.4864
  19947902.6844  -13346834.12948 -10385327.06047  19947901.6824   19947908.8764
      1396.0464       1087.8254
  22721775.0594  -15747955.98948 -11787686.49946  22721774.3834   22721783.0074
      1000.0404        779.2504
  19338200.0154  -41189691.32949 -31812991.70047  19338198.8784   19338205.4434
       465.9144        363.0514
  21880223.0654  -23182545.20048 -17776934.10346  21880221.9934   21880228.9734
      2917.8064       2273.6134
  22251572.1454  -29169731.32748 -22434782.56746  22251570.8964   22251580.0944
     -2539.0974      -1978.5154
  22185319.6324  -18879296.54348 -14133443.14246  22185318.9304   22185325.6454
      3780.0694       2945.5094
 99  9 18  1 42 59.9970000  0  9G 2G10G31G19G 3G18G27G16G13
  23573690.2274   -5338527.83247  -3849170.72545  23573688.6314   23573699.8154
      3949.7914       3077.7524
  23664797.5444   -2974434.89147  -2033208.95545  23664796.0464   23664805.1164
      3292.4244       2565.5214
  22144681.6904  -10767704.11048  -8094261.09146  22144680.1864   22144688.6904
      3132.8704       2441.1894
  19939941.9854  -13388671.04248 -10417927.20947  19939940.6014   19939947.1414
      1393.0814       1085.5164
  22716104.8954  -15777753.10848 -11810904.98546  22716104.1464   22716111.5414
       986.3654        768.5944
  19335571.8414  -41203500.30549 -31823751.93947  19335570.9454   19335577.9224
       454.5844        354.2214
  21863561.7544  -23270099.35148 -17845158.08846  21863560.7354   21863567.7624
      2918.9664       2274.5204
  22266072.2874  -29093533.14648 -22375407.46046  22266071.2434   22266080.1034
     -2540.8404      -1979.8744
  22163738.8104  -18992703.11148 -14221811.87546  22163738.0684   22163744.6574
      3780.5024       2945.8454
 99  9 18  1 43 29.9970000  0  9G 2G10G31G19G 3G18G27G16G13
  23551154.1554   -5456950.11147  -3941447.58745  23551152.3964   23551165.3584
      3943.1944       3072.6134
  23646041.2184   -3073004.55347  -2110016.42445  23646039.0774   23646047.0014
      3277.1224       2553.6014
  22126831.8414  -10861506.85348  -8167354.01146  22126830.5724   22126838.8894
      3118.8984       2430.3094
  19932006.4804  -13430370.29048 -10450420.10547  19932005.5904   19932012.0744
      1385.0484       1079.2574
  22710523.4884  -15807082.41048 -11833758.93746  22710522.7864   22710530.9604
       967.1224        753.6004
  19333019.5134  -41216913.33049 -31834203.64647  19333018.6364   19333025.6334
       437.7784        341.1264
  21846905.3714  -23357628.03548 -17913362.22946  21846904.4834   21846911.7824
      2914.5744       2271.0974
  22280593.0134  -29017226.27148 -22315947.65746  22280591.4864   22280600.4734
     -2548.0144      -1985.4604
  22142164.1524  -19106077.58348 -14310155.58546  22142163.7914   22142169.7484
      3776.0464       2942.3764
 99  9 18  1 43 59.9970000  0  9G 2G10G31G19G 3G18G27G16G13
  23528640.3264   -5575263.57347  -4033639.68345  23528638.1484   23528651.0924
      3938.8434       3069.2244
  23627352.1494   -3171217.03847  -2186545.59545  23627350.5014   23627357.9344
      3264.8364       2544.0294
  22109042.3764  -10954990.17648  -8240198.04746  22109040.9724   22109048.7784
      3107.7934       2421.6554
  19924100.0184  -13471919.67149 -10482796.23547  19924098.9024   19924105.4944
      1379.1354       1074.6534
  22705034.4604  -15835930.26348 -11856237.72746  22705033.1374   22705041.6124
       950.6274        740.7444
  19330547.1324  -41229907.22249 -31844328.75447  19330546.1544   19330552.9344
       422.7664        329.4294
  21830255.3924  -23445122.52648 -17981539.72046  21830254.3834   21830262.2204
      2912.6424       2269.5894
  22295135.9024  -28940802.56848 -22256396.82546  22295134.4374   22295144.1384
     -2552.4624      -1988.9224
  22120598.0914  -19219405.27648 -14398462.86046  22120597.7444   22120603.9774
      3773.5064       2940.3924
 99  9 18  1 44 29.9970000  0  9G 2G10G31G19G 3G18G27G16G13
  23506166.9484   -5693358.49547  -4125661.47145  23506165.6424   23506177.2644
      3936.3184       3067.2564
  23608750.2824   -3268968.39747  -2262715.41345  23608749.4814   23608757.7604
      3253.9044       2535.5054
  22091333.5524  -11048050.57248  -8312712.51746  22091331.8934   22091339.5234
      3098.2804       2414.2394
  19916245.4154  -13513195.09849 -10514958.88547  19916244.2914   19916251.1504
      1374.6964       1071.1914
  22699655.9084  -15864198.80948 -11878265.12046  22699654.3544   22699662.7374
       936.0584        729.3974
  19328179.4724  -41242348.94149 -31854023.59947  19328178.4284   19328185.3784
       408.7864        318.5354
  21813636.5044  -23532457.75948 -18049593.10746  21813635.4964   21813642.9704
      2911.7494       2268.8944
  22309721.2774  -28864154.50048 -22196671.16046  22309720.5494   22309730.0304
     -2555.1544      -1991.0254
  22099067.1404  -19332551.45148 -14486628.67946  22099067.1944   22099074.0204
      3771.7594       2939.0314
 99  9 18  1 44 59.9970000  0  9G 2G10G31G19G 3G18G27G16G13
  23483718.5744   -5811327.71347  -4217585.32345  23483716.6574   23483729.1914
      3925.6424       3058.9344
  23590223.8214   -3366330.54447  -2338581.91445  23590221.8324   23590229.7844
      3234.3284       2520.2494
  22073690.1174  -11140766.12048  -8384958.28546  22073688.8054   22073695.9654
      3080.2344       2400.1804
  19908427.3644  -13554279.57748 -10546972.72847  19908426.1554   19908433.3654
      1361.6434       1061.0194
  22694370.5054  -15891970.15248 -11899905.07946  22694369.2974   22694377.8344
       912.9034        711.3534
  19325903.2234  -41254309.00149 -31863343.12047  19325902.6164   19325909.4554
       385.9294        300.7234
  21797033.7634  -23619705.70348 -18117578.48146  21797032.7514   21797040.7644
      2902.2614       2261.5004
  22324332.9764  -28787373.31748 -22136841.76246  22324331.4634   22324341.1324
     -2566.2334      -1999.6614
  22077557.3734  -19445587.01348 -14574708.31046  22077557.0384   22077563.3464
      3761.4544       2931.0024
 99  9 18  1 45 29.9970000  0  9G 2G10G31G19G 3G18G27G16G13
  23461301.9004   -5929129.35947  -4309378.57945  23461299.8974   23461310.9644
      3921.7224       3055.8804
  23571777.0944   -3463265.06847  -2414115.19445  23571774.5154   23571783.9974
      3221.9604       2510.6154
  22056118.4664  -11233105.86548  -8456911.20846  22056117.2174   22056124.8484
      3069.7614       2392.0184
  19900652.7154  -13595135.94548 -10578808.83047  19900651.5704   19900658.3414
      1355.9454       1056.5794
  22689186.8644  -15919212.47048 -11921132.81346  22689185.4254   22689193.3964
       897.2124        699.1254
  19323727.3234  -41265742.99649 -31872252.72547  19323726.3434   19323733.4204
       370.3974        288.6224
  21780454.9754  -23706827.81948 -18185465.80446  21780453.7534   21780461.4234
      2899.9044       2259.6644
  22338977.3524  -28710414.53548 -22076873.97546  22338976.1614   22338985.8164
     -2570.2074      -2002.7574
  22056077.0634  -19558470.39548 -14662669.34846  22056076.3774   22056082.4784
      3758.0574       2928.3524
 99  9 18  1 45 59.9970000  0  9G 2G10G31G19G 3G18G27G16G13
  23438916.7734   -6046760.03647  -4401038.60945  23438915.5584   23438926.5274
      3918.5214       3053.3894
  23553410.2044   -3559780.14747  -2489321.65845  23553408.6904   23553417.6714
      3210.5364       2501.7074
  22038616.0124  -11325080.65248  -8528579.75246  22038614.4354   22038622.1194
      3060.0274       2384.4354
  19892921.1744  -13635764.87948 -10610467.71947  19892920.1324   19892926.7414
      1350.7054       1052.4954
  22684101.3274  -15945935.55348 -11941955.93846  22684100.3104   22684108.1684
       882.4754        687.6414
  19321649.2054  -41276662.81049 -31880761.67047  19321648.0604   19321655.5984
       355.8424        277.2794
  21763899.6044  -23793827.71348 -18253257.89346  21763898.6834   21763906.0744
      2898.1544       2258.3004
  22353653.2674  -28633290.80648 -22016777.66146  22353651.8624   22353662.2384
     -2573.2374      -2005.1144
  22034627.7504  -19671186.84848 -14750500.31246  22034627.1664   22034633.3084
      3754.6624       2925.7084
 99  9 18  1 46 29.9970000  0  9G 2G10G31G19G 3G18G27G16G13
  23416552.5404   -6164281.11447  -4492613.25545  23416551.3684   23416562.5664
      3922.1754       3056.2344
  23535112.1334   -3655939.25847  -2564250.75245  23535110.1494   23535119.3174
      3206.0444       2498.2104
  22021172.2524  -11416745.18348  -8600006.55146  22021171.2814   22021179.1194
      3056.6904       2381.8314
  19885220.8684  -13676230.17048 -10641999.08847  19885219.7754   19885226.3574
      1352.9894       1054.2764
  22679104.8914  -15972190.01848 -11962413.91346  22679103.7614   22679111.8674
       873.6264        680.7474
  19319655.1204  -41287144.45149 -31888929.18047  19319654.0664   19319661.1964
       348.9964        271.9464
  21747355.7264  -23880764.12248 -18321000.50946  21747354.5184   21747362.5554
      2903.7344       2262.6504
  22368347.1254  -28556072.51148 -21956607.66446  22368345.9354   22368356.5674
     -2568.7474      -2001.6134
  22013200.0504  -19783791.17948 -14838243.90846  22013199.5814   22013205.1864
      3758.3564       2928.5904
 99  9 18  1 46 59.9970000  0  9G 2G10G31G19G 3G18G27G16G13
  23394202.4094   -6281730.93147  -4584132.35545  23394200.6724   23394212.8894
      3914.0694       3049.9224
  23516871.8064   -3751788.91847  -2638938.71645  23516870.2744   23516880.2504
      3190.2774       2485.9334
  22003784.6454  -11508123.33948  -8671210.20146  22003782.8054   22003790.5284
      3041.5004       2369.9964
  19877540.7344  -13716590.89148 -10673448.97647  19877539.6164   19877546.2124
      1343.8874       1047.1834
  22674194.3194  -15997991.84548 -11982519.17946  22674193.5694   22674202.2124
       852.9264        664.6144
  19317731.7114  -41297250.27949 -31896803.84647  19317730.6884   19317737.9724
       331.0204        257.9364
  21730813.1844  -23967695.80448 -18388739.44746  21730812.0454   21730819.6284
      2897.9874       2258.1714
  22383049.8334  -28478812.29948 -21896405.01346  22383048.2554   22383058.4904
     -2575.7014      -2007.0384
  21991782.9794  -19896338.13248 -14925942.77546  21991782.0074   21991789.0194
      3751.1094       2922.9404
 99  9 18  1 47 29.9970000  0  9G 2G10G31G19G 3G18G27G16G13
  23371895.4314   -6398956.82447  -4675476.95745  23371893.9444   23371905.0344
      3904.3604       3042.3464
  23498717.8734   -3847191.45547  -2713278.26945  23498715.7124   23498726.4244
      3173.2234       2472.6434
  21986476.1214  -11599071.18948  -8742078.53546  21986475.2864   21986484.3844
      3024.8964       2357.0594
  19869906.8444  -13756704.19548 -10704706.07147  19869905.8774   19869912.4934
      1333.3954       1039.0084
  22669396.0934  -16023208.50548 -12002168.47046  22669395.3684   22669403.2904
       831.5004        647.9244
  19315905.4504  -41306843.86549 -31904279.36447  19315904.7684   19315912.3274
       311.8364        242.9904
  21714298.6734  -24054480.21548 -18456363.61646  21714297.4094   21714305.1414
      2890.9044       2252.6514
  22397787.8894  -28401366.34448 -21836057.62246  22397786.1774   22397796.2354
     -2584.0144      -2013.5124
  21970401.4964  -20008698.95048 -15013496.57946  21970400.6464   21970407.6714
      3742.9684       2916.5974
 99  9 18  1 47 59.9970000  0  9G 2G10G31G19G 3G18G27G16G13
  23349640.8864   -6515899.81947  -4766601.13546  23349639.8154   23349652.1724
      3893.4364       3033.8374
  23480658.8154   -3942091.71247  -2787226.43945  23480657.3864   23480666.9104
      3154.9194       2458.3794
  21969264.9594  -11689515.85448  -8812554.79446  21969263.7264   21969272.3244
      3006.3284       2342.5914
  19862334.2134  -13796500.02748 -10735715.79347  19862333.1484   19862339.8194
      1321.1814       1029.4934
  22664720.5984  -16047782.79748 -12021317.21546  22664719.1984   22664727.4774
       808.3304        629.8654
  19314190.7674  -41315858.87149 -31911304.04047  19314189.6744   19314196.7184
       290.7084        226.5264
  21697823.3244  -24141056.60148 -18523825.69146  21697822.2764   21697830.1524
      2882.4004       2246.0264
  22412571.5274  -28323674.54148 -21775518.65546  22412570.3554   22412580.6624
     -2593.9214      -2021.2304
  21949065.5304  -20120818.02348 -15100862.02646  21949064.7504   21949071.5004
      3733.4754       2909.2004
 99  9 18  1 48 29.9970000  0  9G 2G10G31G19G 3G18G27G16G13
  23327430.9144   -6632612.02647  -4857545.47446  23327429.7064   23327442.2654
      3885.5944       3027.7264
  23462688.8804   -4036527.48247  -2860812.67745  23462686.0424   23462695.4704
      3138.8474       2445.8484
  21952143.7194  -11779492.86248  -8882666.64146  21952142.1364   21952150.1784
      2990.3214       2330.1184
  19854812.6124  -13836025.15248 -10766514.57647  19854811.6194   19854818.4124
      1311.8684       1022.2344
  22660159.2364  -16071753.66448 -12039995.74546  22660157.7234   22660166.2424
       788.0204        614.0384
  19312578.6664  -41324326.42749 -31917902.13247  19312577.8224   19312585.4664
       271.9204        211.8874
  21681379.9414  -24227470.30248 -18591160.99946  21681378.9544   21681386.4344
      2876.6904       2241.5754
  22427395.3054  -28245775.39048 -21714818.11546  22427394.1914   22427405.0024
     -2601.2784      -2026.9684
  21927764.2544  -20232756.14248 -15188086.47546  21927763.4694   21927770.1634
      3727.3484       2904.4254
 99  9 18  1 48 59.9970000  0  9G 2G10G31G19G 3G18G27G16G13
  23305256.2404   -6749143.44747  -4948348.92546  23305254.9204   23305266.5774
      3880.8524       3024.0294
  23444799.7304   -4130525.63147  -2934057.90645  23444798.5184   23444807.9684
      3125.2724       2435.2744
  21935101.7894  -11869042.49448  -8952445.47046  21935100.9094   21935109.3814
      2977.4944       2320.1214
  19847336.3794  -13875314.33949 -10797129.53647  19847335.2214   19847342.1854
      1305.0074       1016.8894
  22655701.3854  -16095175.41148 -12058246.40846  22655700.3594   22655708.8934
       771.1734        600.9134
  19311066.8894  -41332273.13449 -31924094.36947  19311065.8364   19311073.2514
       255.5814        199.1554
  21664960.2324  -24313755.78448 -18658396.39246  21664959.1564   21664966.4424
      2873.3914       2239.0054
  22442253.8844  -28167695.24548 -21653976.54746  22442252.1584   22442263.7614
     -2606.4884      -2031.0274
  21906488.1714  -20344562.97648 -15275208.61746  21906487.5424   21906494.0464
      3724.1644       2901.9434
 99  9 18  1 49 29.9970000  0  9G 2G10G31G19G 3G18G27G16G13
  23283092.2404   -6865619.97148  -5039109.58046  23283089.8774   23283101.8574
      3882.2614       3025.1304
  23426975.8374   -4224194.09347  -3007046.22245  23426973.3864   23426982.8614
      3117.2404       2429.0124
  21918118.4024  -11958294.66648  -9021992.50946  21918116.8834   21918125.0054
      2970.6314       2314.7754
  19839883.3324  -13914478.84848 -10827647.30147  19839882.5934   19839888.9854
      1303.8764       1016.0074
  22651324.2144  -16118177.07848 -12076169.73446  22651322.9264   22651331.1264
       760.0374        592.2334
  19309631.1484  -41339817.12849 -31929972.80247  19309630.2964   19309637.5044
       245.3184        191.1574
  21648543.7504  -24400026.36648 -18725620.17646  21648542.5354   21648549.8224
      2876.0624       2241.0884
  22457126.6784  -28089536.92948 -21593074.06946  22457125.5114   22457136.9044
     -2606.0264      -2030.6674
  21885215.5104  -20456353.14148 -15362317.76946  21885214.7164   21885220.8194
      3726.4604       2903.7314
 99  9 18  1 49 59.9970000  0  9G 2G10G31G19G 3G18G27G16G13
  23260955.4964   -6981946.11648  -5129753.09046  23260953.3544   23260965.3034
      3873.9354       3018.6424
  23409234.8304   -4317423.02547  -3079692.06745  23409232.9384   23409243.5924
      3098.9484       2414.7624
  21901211.2584  -12047143.07048  -9091224.93046  21901210.0374   21901217.8174
      2953.8264       2301.6814
  19832474.0684  -13953414.68448 -10857986.89647  19832472.9194   19832479.6644
      1292.9164       1007.4674
  22647050.4174  -16140637.03948 -12093670.94546  22647049.4034   22647057.8114
       738.2774        575.2814
  19308291.2604  -41346860.22349 -31935460.92647  19308290.3414   19308297.3064
       225.2894        175.5504
  21632147.2334  -24486190.32748 -18792760.87546  21632146.0854   21632153.3104
      2869.2284       2235.7594
  22472034.1394  -28011201.50848 -21532033.59146  22472032.5634   22472043.9104
     -2615.1144      -2037.7464
  21863966.9444  -20568010.73248 -15449323.62046  21863966.5654   21863972.8614
      3718.5534       2897.5714
 99  9 18  1 50 29.9970000  0  9G 2G10G31G19G 3G18G27G16G13
  23238846.0714   -7098124.77547  -5220281.67046  23238845.1434   23238856.9214
      3869.8804       3015.4804
  23391578.6564   -4410198.51447  -3151984.58145  23391578.4174   23391587.5984
      3084.8254       2403.7554
  21884378.6774  -12135599.87548  -9160152.19946  21884377.3894   21884384.6564
      2942.0634       2292.5134
  19825107.7804  -13992124.86048 -10888150.65447  19825106.7824   19825113.5874
      1286.4074       1002.3954
  22642880.8384  -16162549.93548 -12110745.88446  22642879.7594   22642887.5654
       721.2314        561.9964
  19307045.1144  -41353409.44649 -31940564.21147  19307043.8454   19307051.0594
       210.0184        163.6504
  21615769.0274  -24572256.58948 -18859825.45246  21615768.0354   21615775.3264
      2867.2234       2234.1984
  22486971.7704  -27932701.46648 -21470864.83446  22486970.6294   22486982.4944
     -2619.4434      -2041.1234
  21842745.4564  -20679531.36048 -15536222.74046  21842744.7344   21842751.1784
      3714.8114       2894.6564
 99  9 18  1 50 59.9970000  0  9G 2G10G31G19G 3G18G27G16G13
  23216769.3604   -7214143.12348  -5310685.32646  23216767.8384   23216779.1484
      3862.2454       3009.5344
  23374012.1224   -4502514.47347  -3223919.02345  23374010.6954   23374021.0104
      3067.4514       2390.2134
  21867617.7134  -12223673.46048  -9228780.86346  21867616.5784   21867624.6514
      2927.1234       2280.8734
  19817785.4044  -14030604.73649 -10918134.98447  19817784.3774   19817790.9804
      1276.5144        994.6874
  22638815.3594  -16183913.49748 -12127392.76546  22638814.0994   22638822.1604
       700.6394        545.9544
  19305890.4944  -41359473.41749 -31945289.37947  19305889.8054   19305896.9344
       191.9084        149.5384
  21599408.6844  -24658231.43348 -18926818.79246  21599407.4294   21599414.8164
      2862.1014       2230.2084
  22501939.3274  -27854047.42748 -21409576.08246  22501938.1034   22501949.3604
     -2626.2654      -2046.4414
  21821554.8164  -20790892.32548 -15622997.44646  21821553.7184   21821560.1934
      3706.9934       2888.5644
 99  9 18  1 51 29.9970000  0  9G 2G10G31G19G 3G18G27G16G13
  23194735.0194   -7329931.18248  -5400909.54246  23194733.4314   23194745.9064
      3857.4084       3005.7644
  23356541.8504   -4594320.83247  -3295456.38345  23356540.6194   23356550.7644
      3053.2834       2379.1754
  21850942.8734  -12311300.81548  -9297061.81546  21850941.9854   21850949.6774
      2914.9454       2271.3814
  19810518.8264  -14068789.85548 -10947889.59247  19810517.7564   19810524.5064
      1269.4504        989.1784
  22634866.4094  -16204665.56748 -12143563.16046  22634865.3854   22634872.5954
       683.0894        532.2804
  19304840.8664  -41364991.32049 -31949589.03547  19304839.9554   19304847.1954
       176.1874        137.2904
  21583075.6394  -24744058.47748 -18993696.97246  21583074.9104   21583082.5624
      2859.9954       2228.5664
  22516940.8504  -27775215.84048 -21348148.96946  22516939.3364   22516950.5884
     -2628.6144      -2048.2664
  21800407.8444  -20902018.46248 -15709589.17846  21800407.4104   21800413.0024
      3701.7594       2884.4854
 99  9 18  1 51 59.9970000  0  9G 2G10G31G19G 3G18G27G16G13
  23172711.4294   -7445667.68548  -5491093.59946  23172709.8924   23172720.9284
      3851.8694       3001.4504
  23339134.5114   -4685798.17747  -3366737.36045  23339133.1724   23339142.8324
      3038.7584       2367.8594
  21834320.4064  -12398657.05948  -9365131.51846  21834318.8914   21834327.1974
      2902.2464       2261.4904
  19803274.2574  -14106859.39348 -10977554.15547  19803273.4904   19803280.2804
      1262.1214        983.4714
  22630999.3744  -16224985.86848 -12159397.12146  22630998.2324   22631006.0514
       665.2954        518.4134
  19303863.1614  -41370128.96849 -31953592.39347  19303862.1264   19303869.1734
       159.8664        124.5714
  21566737.3714  -24829919.56348 -19060601.66047  21566736.3734   21566743.7874
      2857.4604       2226.5924
  22531933.8424  -27696426.69548 -21286754.93546  22531932.8444   22531943.6314
     -2630.3104      -2049.5894
  21779275.2974  -21013074.96048 -15796126.65646  21779274.4154   21779279.7044
      3695.8114       2879.8504
 99  9 18  1 52 29.9970000  0  9G 2G10G31G19G 3G18G27G16G13
  23150738.0384   -7561137.25548  -5581069.65346  23150736.3754   23150747.7154
      3848.9264       2999.1564
  23321827.6514   -4776751.36747  -3437609.93845  23321825.7764   23321833.8644
      3027.8024       2359.3214
  21817787.6164  -12485533.03848  -9432826.98846  21817786.3704   21817795.1414
      2892.2094       2253.6664
  19796088.7644  -14144622.66748 -11006980.08147  19796087.4664   19796093.8084
      1258.2084        980.4234
  22627249.8134  -16244691.20248 -12174751.89546  22627248.4784   22627255.9724
       651.1504        507.3894
  19302996.7144  -41374681.50349 -31957139.81747  19302995.7654   19303002.9474
       146.5654        114.2074
  21550431.7064  -24915606.76148 -19127370.86247  21550430.6954   21550438.3444
      2857.7444       2226.8134
  22546953.5094  -27617499.75248 -21225253.52446  22546952.0524   22546963.5124
     -2628.7154      -2048.3474
  21758192.7694  -21123859.59048 -15882452.28846  21758192.4164   21758198.0354
      3692.7404       2877.4594
 99  9 18  1 52 59.9970000  0  9G 2G10G31G19G 3G18G27G16G13
  23128809.8664   -7676370.36948  -5670861.48146  23128808.5884   23128819.2394
      3835.9624       2989.0544
  23304608.0904   -4867236.07547  -3508117.45645  23304606.6154   23304615.3434
      3007.1584       2343.2354
  21801343.4604  -12571949.07848  -9500164.05246  21801342.0434   21801350.1844
      2871.3954       2237.4444
  19788952.7544  -14182122.00048 -11036200.33247  19788951.6844   19788958.0484
      1244.3424        969.6194
  22623609.0604  -16263821.98548 -12189658.95746  22623607.8334   22623615.4114
       626.8564        488.4594
  19302234.0584  -41378692.62349 -31960265.35947  19302232.9244   19302239.7444
       123.3474         96.1144
  21534153.9684  -25001143.91648 -19194023.15047  21534153.2134   21534161.2024
      2847.1474       2218.5544
  22561991.3114  -27538477.15148 -21163677.57346  22561989.4624   22562000.4924
     -2637.0554      -2054.8474
  21737157.1804  -21234403.87048 -15968590.64246  21737156.3734   21737161.8094
      3679.6734       2867.2774
 99  9 18  1 53 29.9970000  0  9G 2G10G31G19G 3G18G27G16G13
  23106922.2014   -7791388.98948  -5760486.17346  23106920.8294   23106931.3914
      3833.7084       2987.2994
  23287473.9444   -4957276.14647  -3578278.49245  23287472.8984   23287481.4784
      2997.0344       2335.3494
  21784984.8274  -12657912.07348  -9567148.09446  21784983.7804   21784991.6034
      2860.9804       2229.3324
  19781861.4694  -14219386.01048 -11065237.21547  19781860.3654   19781866.8174
      1241.6034        967.4824
  22620073.5454  -16282401.53648 -12204136.48646  22620072.2724   22620079.9474
       613.2734        477.8774
  19301571.0394  -41382175.60249 -31962979.36647  19301570.0204   19301576.5894
       110.6264         86.2034
  21517905.5644  -25086533.69448 -19260560.60147  21517904.3334   21517911.1644
      2847.1564       2218.5624
  22577045.1894  -27459368.83147 -21102034.82646  22577043.5074   22577054.6604
     -2635.4504      -2053.5954
  21716160.5864  -21344739.01348 -16054566.03646  21716159.9344   21716165.9624
      3677.7014       2865.7404
 99  9 18  1 53 59.9970000  0  9G 2G10G31G19G 3G18G27G16G13
  23085040.3624   -7906375.06448  -5850085.49446  23085039.3464   23085050.3724
      3832.1214       2986.0644
  23270390.6954   -5047049.31347  -3648231.56345  23270389.3614   23270396.2134
      2987.8244       2328.1704
  21768680.7904  -12743591.78548  -9633911.40846  21768679.3444   21768687.3614
      2850.9284       2221.4954
  19774778.1444  -14256610.91548 -11094243.61947  19774776.9794   19774783.1234
      1239.9474        966.1974
  22616608.4674  -16300608.89348 -12218323.99246  22616607.2874   22616615.2304
       600.6354        468.0264
  19300971.5544  -41385325.44249 -31965433.77747  19300970.5424   19300977.3984
        99.3324         77.4024
  21501649.3644  -25171959.61348 -19327126.21447  21501648.2724   21501655.6594
      2847.8584       2219.1124
  22592087.6894  -27380320.30447 -21040438.67446  22592086.2954   22592096.7684
     -2634.5644      -2052.9004
  21695167.6664  -21455055.00948 -16140526.51246  21695167.6084   21695173.6534
      3677.0044       2865.1984
 99  9 18  1 54 29.9970000  0  9G 2G10G31G19G 3G18G27G16G13
  23063202.9314   -8021134.48848  -5939508.22246  23063201.7294   23063212.3464
      3825.1604       2980.6404
  23253395.4534   -5136362.13147  -3717825.90945  23253392.9224   23253402.2584
      2972.9544       2316.5824
  21752468.5614  -12828790.02848  -9700299.55246  21752467.0104   21752475.1624
      2835.6734       2209.6144
  19767738.8024  -14293601.43248 -11123067.38847  19767737.9134   19767744.0934
      1232.4384        960.3394
  22613250.3324  -16318253.31248 -12232072.84246  22613249.7354   22613257.1394
       582.0104        453.5124
  19300472.1594  -41387951.22749 -31967479.83547  19300470.9854   19300477.4574
        82.3454         64.1654
  21485424.9374  -25257218.79248 -19393561.90347  21485423.6264   21485431.2524
      2842.5534       2214.9744
  22607162.3964  -27301102.57647 -20978710.68246  22607160.7424   22607171.3554
     -2640.2104      -2057.3034
  21674213.6334  -21565172.56148 -16226332.37246  21674213.0274   21674218.8824
      3670.6794       2860.2694
 99  9 18  1 54 59.9970000  0  9G 2G10G31G19G 3G18G27G16G13
  23041386.1674   -8135778.17448  -6028840.77046  23041384.9284   23041395.9064
      3819.8254       2976.4824
  23236470.7614   -5225302.86747  -3787130.31445  23236468.8804   23236477.4874
      2958.2404       2305.1254
  21736324.8974  -12913619.80348  -9766400.57246  21736323.9534   21736332.1504
      2821.6634       2198.6944
  19760727.2434  -14330446.83848 -11151778.07947  19760726.3064   19760732.9804
      1225.8544        955.2114
  22609983.5204  -16335422.93748 -12245451.71846  22609982.2694   22609990.2984
       564.6424        439.9794
  19300053.7544  -41390150.16849 -31969193.28747  19300052.7354   19300058.9884
        66.1424         51.5394
  21469214.7624  -25342401.85448 -19459938.26847  21469213.6654   21469221.4574
      2838.4124       2211.7494
  22622254.3474  -27221795.30847 -20916912.90545  22622252.4934   22622263.8644
     -2644.9574      -2061.0064
  21653278.7134  -21675184.03848 -16312055.57246  21653278.4904   21653284.7144
      3665.6084       2856.3174
 99  9 18  1 55 29.9970000  0  9G 2G10G31G19G 3G18G27G16G13
  23019608.9994   -8250220.21948  -6118016.20446  23019607.3124   23019618.3844
      3812.6464       2970.8864
  23219639.7274   -5313751.14047  -3856051.00245  23219637.8614   23219646.5654
      2941.2244       2291.8624
  21720271.6034  -12997985.98848  -9832140.34846  21720270.1554   21720276.9964
      2805.7644       2186.3054
  19753763.3514  -14367044.76848 -11180295.93647  19753762.0434   19753768.7654
      1216.8694        948.2094
  22606822.7894  -16352026.16948 -12258389.26746  22606822.4044   22606831.2744
       545.2114        424.8384
  19299737.4314  -41391813.63749 -31970489.48947  19299736.3134   19299742.2524
        47.8044         37.2504
  21453035.0664  -25427426.75948 -19526191.39547  21453034.0084   21453041.4284
      2833.0244       2207.5494
  22637381.5054  -27142299.53847 -20854968.24345  22637380.0434   22637391.1614
     -2651.5014      -2066.0994
  21632380.9204  -21785003.55048 -16397629.18946  21632380.6294   21632386.6204
      3658.6984       2850.9334
 99  9 18  1 55 59.9970000  0  9G 2G10G31G19G 3G18G27G16G13
  22997877.7024   -8364418.69148  -6207001.85146  22997875.7384   22997886.6484
      3800.9184       2961.7474
  23202912.4834   -5401654.22547  -3924546.85645  23202910.6584   23202920.2424
      2919.4724       2274.9094
  21704312.4904  -13081849.76248  -9897488.64346  21704310.9894   21704318.2464
      2785.7424       2170.7064
  19746857.3124  -14403333.48349 -11208572.87347  19746856.3944   19746863.1994
      1202.6744        937.1484
  22603780.0654  -16368017.56348 -12270850.05746  22603779.5274   22603787.5104
       521.3034        406.2094
  19299531.2034  -41392896.80549 -31971333.50247  19299530.0994   19299536.0434
        24.7304         19.2704
  21436891.6314  -25512262.14748 -19592296.85747  21436890.5394   21436898.0304
      2823.2014       2199.8974
  22652549.3644  -27062592.45047 -20792858.92545  22652548.1704   22652559.3494
     -2661.5224      -2073.9074
  21611530.0594  -21894580.54848 -16483013.84046  21611528.7464   21611535.1764
      3646.9804       2841.8034
 99  9 18  1 56 29.9970000  0  9G 2G10G31G19G 3G18G27G16G13
  22976169.5194   -8478492.05648  -6295890.01846  22976167.8204   22976179.2574
      3801.0614       2961.8614
  23186266.0244   -5489134.99647  -3992713.65845  23186263.7414   23186272.5564
      2909.8334       2267.4004
  21688421.5744  -13165352.37848  -9962555.50646  21688420.4444   21688428.4024
      2778.2514       2164.8654
  19739989.4164  -14439425.37148 -11236696.36747  19739988.3884   19739994.7974
      1200.6884        935.6014
  22600829.3194  -16383524.57148 -12282933.40146  22600828.7974   22600836.5254
       509.5724        397.0684
  19299411.9774  -41393521.73649 -31971820.45247  19299411.1914   19299417.1144
        14.1784         11.0464
  21420759.3024  -25597035.82248 -19658354.22347  21420758.3314   21420765.9914
      2825.5904       2201.7564
  22667727.1724  -26982836.58247 -20730711.59945  22667725.2544   22667735.8984
     -2658.3124      -2071.4064
  21590700.5804  -22004036.45448 -16568304.13846  21590699.8384   21590706.1264
      3647.3284       2842.0724
 99  9 18  1 56 59.9970000  0  9G 2G10G31G19G 3G18G27G16G13
  22954511.7464   -8592303.92348  -6384574.40546  22954510.6164   22954521.3604
      3789.0204       2952.4764
  23169722.0064   -5576063.91447  -4060450.46245  23169721.0644   23169730.6864
      2888.0064       2250.3954
  21672627.3474  -13248357.56248 -10027234.77446  21672625.8174   21672632.7314
      2757.8604       2148.9794
  19733181.6654  -14475199.22748 -11264572.09047  19733180.8284   19733187.6454
      1186.7834        924.7664
  22597994.7884  -16398420.60748 -12294540.65846  22597994.1054   22598002.0454
       486.1044        378.7814
  19299402.8934  -41393569.69649 -31971857.81147  19299402.1084   19299407.6354
        -8.3794         -6.5304
  21404662.7564  -25681627.34148 -19724269.64247  21404661.5464   21404668.7614
      2816.4714       2194.6514
  22682934.2554  -26902920.33347 -20668439.28945  22682932.3434   22682945.0324
     -2666.8104      -2078.0274
  21569918.9274  -22113242.36648 -16653399.63146  21569918.3194   21569925.0404
      3635.8694       2833.1414
 99  9 18  1 57 29.9970000  0  9G 2G10G31G19G 3G18G27G16G13
  22932872.9404   -8706016.44348  -6473181.39546  22932871.8424   22932882.5444
      3785.9434       2950.0794
  23153252.6264   -5662616.44247  -4127893.95145  23153250.4824   23153260.1974
      2876.2954       2241.2664
  21656897.3774  -13331010.58648 -10091639.63446  21656896.5264   21656904.2684
      2746.5174       2140.1384
  19726403.8434  -14510820.33148 -11292328.77347  19726402.6334   19726408.7554
      1182.1644        921.1654
  22595243.2724  -16412879.21648 -12305807.07146  22595241.8484   22595250.6314
       471.9544        367.7554
  19299470.0374  -41393219.84349 -31971585.18547  19299468.9184   19299474.5564
       -20.7984        -16.2084
  21388566.4574  -25766210.68748 -19790178.69147  21388565.5864   21388572.9584
      2816.4494       2194.6334
  22698136.5224  -26823026.45847 -20606184.44645  22698135.0754   22698146.9674
     -2665.3014      -2076.8544
  21549151.2634  -22222375.17448 -16738438.15446  21549151.2304   21549157.5824
      3633.6374       2831.4034
 99  9 18  1 57 59.9970000  0  9G 2G10G31G19G 3G18G27G16G13
  22911294.7544   -8819412.55448  -6561541.84346  22911293.2484   22911304.1934
      3778.9184       2944.6074
  23136890.7744   -5748599.64747  -4194893.82145  23136889.7314   23136897.1864
      2861.0194       2229.3664
  21641275.9794  -13413107.67448 -10155611.30146  21641274.3864   21641281.6954
      2731.6324       2128.5424
  19719690.3494  -14546096.63948 -11319816.78847  19719689.3584   19719695.9294
      1174.7544        915.3904
  22592613.9664  -16426695.69848 -12316573.10546  22592612.9774   22592621.2704
       454.3144        354.0104
  19299648.2204  -41392281.70549 -31970854.15847  19299647.2694   19299653.1184
       -36.6124        -28.5284
  21372513.0044  -25850574.39348 -19855916.59247  21372512.0064   21372519.1094
      2812.9104       2191.8764
  22713372.9474  -26742961.09647 -20543795.96245  22713371.6824   22713383.3414
     -2667.4204      -2078.5064
  21528440.2494  -22331213.80348 -16823247.44346  21528439.9944   21528446.0174
      3627.4424       2826.5774
 99  9 18  1 58 29.9970000  0  9G 2G10G31G19G 3G18G27G16G13
  22889739.0154   -8932686.87148  -6649807.37746  22889737.6814   22889748.5924
      3768.2954       2936.3274
  23120597.4544   -5834215.72947  -4261607.62045  23120596.3924   23120603.8464
      2842.1464       2214.6574
  21625723.8184  -13494835.68448 -10219295.37346  21625722.3314   21625729.2814
      2712.3884       2113.5434
  19712999.8424  -14581253.92349 -11347212.07447  19712998.9214   19713005.8724
      1164.5584        907.4474
  22590067.9244  -16440077.48748 -12327000.41946  22590066.9244   22590075.0014
       433.1664        337.5284
  19299898.7264  -41390962.88549 -31969826.49247  19299897.8804   19299903.8394
       -56.0124        -43.6464
  21356462.4404  -25934920.92748 -19921641.11347  21356461.1234   21356468.8024
      2805.5744       2186.1614
  22728605.7774  -26662913.70247 -20481421.47545  22728604.6524   22728615.8834
     -2673.7314      -2083.4214
  21507747.5554  -22439958.61148 -16907983.61946  21507746.8544   21507752.7224
      3617.7944       2819.0594
 99  9 18  1 58 59.9970000  0  9G 2G10G31G19G 3G18G27G16G13
  22868219.3394   -9045772.50748  -6737925.89346  22868217.8074   22868228.6844
      3771.1754       2938.5784
  23104390.7174   -5919377.26247  -4327967.24745  23104388.8214   23104398.3264
      2835.5784       2209.5404
  21610258.0134  -13576104.84548 -10282621.89246  21610256.8094   21610264.0274
      2705.9304       2108.5144
  19706346.1054  -14616222.27948 -11374460.11447  19706345.0264   19706351.1754
      1167.0234        909.3684
  22587620.0214  -16452939.14748 -12337022.45346  22587619.4064   22587627.3134
       424.7424        330.9654
  19300240.6064  -41389168.80749 -31968428.49847  19300239.4884   19300245.0044
       -63.2824        -49.3114
  21340430.8394  -26019167.08548 -19987287.41147  21340429.6474   21340437.1144
      2811.3334       2190.6494
  22743851.2084  -26582792.51247 -20418989.49045  22743850.6224   22743863.4854
     -2667.2624      -2078.3834
  21487087.6984  -22548527.49848 -16992582.70546  21487086.9794   21487092.4744
      3620.5304       2821.1924
 99  9 18  1 59 29.9970000  0  9G 2G10G31G19G 3G18G27G16G13
  22846728.6124   -9158703.77448  -6825924.12346  22846727.8174   22846738.2714
      3755.3744       2926.2644
  23088268.5924   -6004105.37847  -4393989.12845  23088266.7274   23088276.2104
      2810.5874       2190.0704
  21594874.4274  -13656951.28748 -10345619.01346  21594872.7884   21594879.5704
      2681.6694       2089.6084
  19699721.9234  -14651033.89949 -11401586.04447  19699720.8844   19699726.8994
      1151.5454        897.3124
  22585266.4414  -16465308.25848 -12346660.68146  22585265.5654   22585273.5004
       397.5694        309.7964
  19300670.0124  -41386911.94149 -31966669.88947  19300669.0874   19300674.7424
       -89.5134        -69.7514
  21324411.1824  -26103349.58748 -20052884.11047  21324410.0654   21324417.7134
      2798.6524       2180.7674
  22759105.6454  -26502632.17647 -20356527.00645  22759104.2284   22759116.3114
     -2678.9504      -2087.4894
  21466458.6434  -22656935.34448 -17077056.31046  21466457.6064   21466462.9584
      3604.3484       2808.5824
 99  9 18  1 59 59.9970000  0  9G 2G10G31G19G 3G18G27G16G13
  22825312.9744   -9271245.53648  -6913618.84346  22825311.7584   22825322.7364
      3743.8794       2917.3024
  23072275.0504   -6088153.14047  -4459480.87245  23072273.3424   23072281.6554
      2789.0854       2173.3104
  21579611.0534  -13737154.27148 -10408114.74546  21579610.1204   21579617.7244
      2661.6294       2073.9924
  19693169.9334  -14685465.07249 -11428415.50647  19693168.7154   19693174.8594
      1140.1554        888.4314
  22583053.9454  -16476936.63448 -12355721.71246  22583053.0794   22583060.7534
       374.0574        291.4734
  19301236.3294  -41383937.48249 -31964352.11747  19301235.1404   19301240.8154
      -112.2904        -87.4994
  21308446.3374  -26187242.69548 -20118255.30547  21308445.4334   21308453.1464
      2790.5944       2174.4864
  22774410.4384  -26422202.26647 -20293854.46745  22774409.8864   22774422.1414
     -2686.5884      -2093.4454
  21445905.8404  -22764937.15648 -17161213.50146  21445905.2734   21445911.0974
      3592.3894       2799.2604
 99  9 18  2  0 29.9970000  0  9G 2G10G31G19G 3G18G27G16G13
  22803933.2044   -9383597.31148  -7001165.53146  22803931.5194   22803941.7404
      3739.0444       2913.5374
  23056377.0644   -6171708.04047  -4524588.54245  23056374.6254   23056381.7414
      2774.0784       2161.6214
  21564434.1694  -13816907.97248 -10470260.38846  21564433.0814   21564440.6194
      2648.0624       2063.4214
  19686655.2044  -14719696.89348 -11455089.62847  19686654.3064   19686660.7184
      1134.5594        884.0714
  22580948.9624  -16487999.59948 -12364342.15546  22580947.5014   22580955.3954
       356.2304        277.5814
  19301905.0524  -41380422.73149 -31961613.34047  19301903.9684   19301909.4794
      -129.2724       -100.7324
  21292501.0014  -26271035.14748 -20183548.06647  21292500.0104   21292507.9624
      2788.2934       2172.6924
  22789731.5894  -26341695.15947 -20231121.76245  22789730.7044   22789741.5954
     -2687.7734      -2094.3664
  21425392.6784  -22872734.15248 -17245211.09846  21425391.9774   21425397.8344
      3586.9364       2795.0144
 99  9 18  2  0 59.9970000  0  9G 2G10G31G19G 3G18G27G16G13
  22782583.8944   -9495788.56948  -7088587.14646  22782582.2414   22782592.7744
      3741.0784       2915.1194
  23040565.8104   -6254790.55947  -4589328.17045  23040564.2574   23040572.2314
      2765.7294       2155.1104
  21549337.3644  -13896242.21448 -10532079.18346  21549336.2034   21549343.3794
      2641.5524       2058.3484
  19680178.2774  -14753734.81648 -11481612.66947  19680177.1704   19680183.4144
      1135.3134        884.6594
  22578947.4044  -16498512.83648 -12372534.23546  22578946.7324   22578954.7244
       345.4504        269.1844
  19302673.8944  -41376380.82449 -31958463.78647  19302672.9314   19302678.5924
      -139.1544       -108.4324
  21276572.0604  -26354742.53348 -20248774.54247  21276571.0684   21276578.4854
      2792.9814       2176.3464
  22805061.0354  -26261139.45347 -20168351.18745  22805060.0424   22805070.8734
     -2681.8244      -2089.7314
  21404914.4044  -22980346.02948 -17329064.43646  21404914.0174   21404920.1774
      3588.0124       2795.8514
 99  9 18  2  1 29.9970000  0  9G 2G10G31G19G 3G18G27G16G13
  22761252.6024   -9607883.04548  -7175933.34346  22761251.3864   22761261.7574
      3732.9154       2908.7584
  23024828.2074   -6337483.19647  -4653763.96745  23024827.8044   23024837.5554
      2748.1244       2141.3954
  21534307.1324  -13975229.69548 -10593627.78146  21534305.5914   21534312.8684
      2625.1594       2045.5754
  19673724.9174  -14787647.17148 -11508037.86747  19673724.0734   19673730.2254
      1126.2874        877.6264
  22577036.4984  -16508556.64748 -12380360.54546  22577035.7704   22577043.4964
       324.9864        253.2354
  19303523.9414  -41371911.86449 -31954981.46647  19303522.9904   19303529.2624
      -157.7444       -122.9184
  21260645.0894  -26438439.33848 -20313992.77047  21260644.0024   21260651.4214
      2787.5574       2172.1214
  22820384.1724  -26180615.03847 -20105604.99245  22820383.1024   22820394.4834
     -2685.5454      -2092.6324
  21384457.6034  -23087846.49048 -17412830.95746  21384457.1444   21384462.9984
      3579.7114       2789.3824
 99  9 18  2  1 59.9970000  0  9G 2G10G31G19G 3G18G27G16G13
  22739952.1614   -9719820.36348  -7263157.07546  22739950.3334   22739960.3234
      3727.8734       2904.8304
  23009175.8544   -6419737.81847  -4717858.46045  23009175.0514   23009184.5684
      2734.0044       2130.3914
  21519353.2834  -14053803.46648 -10654854.00346  21519352.6344   21519360.8344
      2611.3804       2034.8384
  19667308.9204  -14821362.56748 -11534309.58447  19667307.9704   19667314.2924
      1119.7314        872.5174
  22575225.5564  -16518073.79348 -12387776.46646  22575224.6244   22575232.1784
       308.0094        240.0034
  19304463.5124  -41366977.12249 -31951136.20247  19304462.4414   19304468.3294
      -172.7704       -134.6264
  21244734.4944  -26522049.66848 -20379143.62047  21244733.5584   21244740.9274
      2784.7134       2169.9034
  22835714.7244  -26100058.12847 -20042833.48245  22835713.2764   22835723.9334
     -2686.6154      -2093.4674
  21364031.2664  -23195186.64848 -17496472.56646  21364030.9104   21364037.4524
      3574.7474       2785.5154
 99  9 18  2  2 29.9960000  0  9G 2G10G31G19G 3G18G27G16G13
  22718697.5934   -9831513.38248  -7350190.43146  22718695.9614   22718705.7854
      3721.9974       2900.2524
  22993618.8394   -6501494.36547  -4781564.84545  22993617.6044   22993626.7964
      2719.9744       2119.4594
  21504498.9574  -14131869.20448 -10715684.36346  21504497.2904   21504505.1184
      2596.6174       2023.3364
  19660946.3124  -14854798.51249 -11560363.57047  19660945.4134   19660951.7494
      1112.8014        867.1204
  22573525.2044  -16527009.59948 -12394739.38346  22573524.0994   22573532.4044
       291.2654        226.9604
  19305503.0344  -41361511.90149 -31946877.57747  19305502.2554   19305508.2864
      -188.0684       -146.5474
  21228858.4124  -26605481.66948 -20444155.50747  21228857.1274   21228864.6044
      2781.1784       2167.1504
  22851066.9794  -26019380.49847 -19979967.89845  22851065.6894   22851076.6824
     -2688.5344      -2094.9604
  21343650.1864  -23302291.05148 -17579930.44746  21343649.6114   21343656.3004
      3569.3274       2781.2894
 99  9 18  2  2 59.9960000  0  9G 2G10G31G19G 3G18G27G16G13
  22697469.2694   -9943068.29348  -7437116.16146  22697467.3464   22697476.9594
      3714.8004       2894.6424
  22978134.3474   -6582867.18747  -4844972.21645  22978132.6914   22978142.4354
      2704.7404       2107.5904
  21489719.7284  -14209535.25348 -10776203.27946  21489718.0824   21489724.9654
      2580.8934       2011.0844
  19654615.3134  -14888070.02849 -11586289.40247  19654614.2164   19654620.1034
      1105.0824        861.1004
  22571910.5974  -16535494.79048 -12401351.19346  22571909.5594   22571917.3394
       274.1224        213.5994
  19306620.2344  -41355642.85649 -31942304.28347  19306619.0874   19306625.1044
      -203.2964       -158.4134
  21212992.2784  -26688858.97748 -20509124.78147  21212991.2174   21212998.4334
      2777.1444       2164.0064
  22866421.4844  -25938689.83147 -19917092.17945  22866420.8494   22866431.7854
     -2690.8664      -2096.7784
  21323293.4164  -23409270.97848 -17663291.34946  21323292.3454   21323298.1294
      3562.6084       2776.0554
 99  9 18  2  3 29.9960000  0  9G 2G10G31G19G 3G18G27G16G13
  22676302.4794  -10054294.90848  -7523786.07746  22676301.3494   22676311.2384
      3703.6064       2885.9214
  22962756.2474   -6663677.55647  -4907941.29345  22962754.5754   22962764.9784
      2685.7804       2092.8194
  21475051.9474  -14286617.23048 -10836267.06246  21475050.4284   21475057.7454
      2561.1124       1995.6674
  19648348.7984  -14921000.80249 -11611949.72247  19648347.6164   19648353.9984
      1093.6284        852.1794
  22570416.2704  -16543347.15848 -12407469.88546  22570415.0344   22570422.7564
       252.6824        196.8944
  19307844.4314  -41349205.77749 -31937288.36847  19307843.5614   19307849.9054
      -222.8304       -173.6334
  21197169.6004  -26772004.96848 -20573913.80247  21197168.6274   21197176.0054
      2769.1464       2157.7774
  22881811.1294  -25857823.56447 -19854079.61045  22881809.4844   22881819.9054
     -2696.8464      -2101.4384
  21302994.2314  -23515941.20348 -17746410.93146  21302993.7204   21302998.9944
      3552.0124       2767.7984
 99  9 18  2  3 59.9960000  0  9G 2G10G31G19G 3G18G27G16G13
  22655178.7694  -10165295.19348  -7610279.62046  22655178.1654   22655188.2684
      3699.7044       2882.8804
  22947466.4604   -6744028.72747  -4970552.57045  22947465.2584   22947472.9334
      2674.0294       2083.6614
  21460475.6414  -14363213.20448 -10895952.14846  21460474.3724   21460481.3774
      2548.5824       1985.9054
  19642125.3754  -14953703.07848 -11637432.00147  19642124.2244   19642130.8884
      1089.7624        849.1654
  22569022.4784  -16550670.42748 -12413176.28546  22569021.4794   22569029.3844
       238.7054        186.0024
  19309163.0794  -41342277.60949 -31931889.78247  19309162.1904   19309168.4684
      -235.8334       -183.7664
  21181372.2284  -26855022.74948 -20638602.91747  21181371.0764   21181378.2954
      2768.7274       2157.4484
  22897212.1144  -25776892.82147 -19791016.79445  22897210.0354   22897221.2234
     -2695.2874      -2100.2194
  21282736.1324  -23622395.76148 -17829362.44646  21282735.4874   21282741.5874
      3548.2934       2764.9004
 99  9 18  2  4 29.9960000  0  9G 2G10G31G19G 3G18G27G16G13
  22634091.5504  -10276114.44648  -7696632.08946  22634090.0234   22634099.8904
      3688.7954       2874.3784
  22932257.1334   -6823951.50347  -5032830.04545  22932255.2414   22932263.4754
      2654.4404       2068.3924
  21445982.4404  -14439371.17748 -10955295.94246  21445981.3744   21445988.7774
      2529.1714       1970.7814
  19635935.3944  -14986231.82248 -11662779.06747  19635934.4324   19635940.8194
      1079.2074        840.9394
  22567722.0214  -16557504.68248 -12418501.63846  22567720.6234   22567728.8914
       217.2424        169.2764
  19310568.3164  -41334892.29249 -31926134.97747  19310567.2384   19310573.7354
      -256.0784       -199.5414
  21165586.7924  -26937976.08848 -20703241.82147  21165585.4714   21165592.8414
      2761.9394       2152.1584
  22912613.5624  -25695955.01547 -19727948.46345  22912612.0444   22912622.0784
     -2699.9944      -2103.8944
  21262512.7824  -23728672.66448 -17912175.53546  21262511.9284   21262517.3964
      3537.3594       2756.3814
 99  9 18  2  4 59.9960000  0  9G 2G10G31G19G 3G18G27G16G13
  22613061.7234  -10386628.84448  -7782747.00146  22613059.9054   22613069.7084
      3678.1284       2866.0644
  22917158.1254   -6903288.95047  -5094651.37745  22917156.6644   22917167.3864
      2634.0724       2052.5264
  21431597.9554  -14514966.52448 -11014201.32846  21431596.4314   21431603.0784
      2509.6334       1955.5554
  19629803.2154  -15018459.84749 -11687891.81647  19629801.9354   19629808.3664
      1068.4504        832.5614
  22566541.0144  -16563708.88948 -12423336.04346  22566540.4274   22566547.5794
       195.5164        152.3514
  19312086.0894  -41326917.32849 -31919920.71247  19312085.1594   19312091.3814
      -276.5154       -215.4664
  21149836.2384  -27020743.03148 -20767735.48147  21149835.3404   21149842.1204
      2755.1064       2146.8314
  22928035.7514  -25614901.13747 -19664789.69445  22928034.9354   22928047.8644
     -2704.4704      -2107.3774
  21242348.8434  -23834633.59848 -17994742.41546  21242348.0794   21242353.7994
      3526.0724       2747.5854
 99  9 18  2  5 29.9960000  0  9G 2G10G31G19G 3G18G27G16G13
  22592064.6494  -10496963.46148  -7868721.82046  22592063.6284   22592073.6274
      3676.3064       2864.6454
  22902152.0864   -6982153.83747  -5156104.46545  22902150.7024   22902159.1514
      2622.3524       2043.3834
  21417299.7404  -14590100.73548 -11072747.39446  21417298.9604   21417306.1614
      2498.1574       1946.6134
  19623705.7044  -15050501.57649 -11712859.38047  19623704.5594   19623710.6244
      1066.4754        831.0184
  22565460.0564  -16569391.26048 -12427763.83046  22565458.9224   22565466.3814
       182.3384        142.0794
  19313697.7394  -41318448.09249 -31913321.29747  19313696.8164   19313703.3354
      -289.3474       -225.4674
  21134099.4154  -27103439.58348 -20832174.28947  21134098.5084   21134105.8494
      2756.8454       2148.1894
  22943461.1144  -25533841.38747 -19601626.35645  22943460.2294   22943472.2784
     -2700.9234      -2104.6144
  21222223.6784  -23940391.94848 -18077151.44346  21222222.7924   21222228.6394
      3523.3574       2745.4724
 99  9 18  2  5 59.9960000  0  9G 2G10G31G19G 3G18G27G16G13
  22571089.5554  -10607189.18148  -7954611.78546  22571088.1414   22571097.6394
      3671.3944       2860.8234
  22887222.6354   -7060609.52847  -5217238.71045  22887220.4584   22887229.5534
      2607.2104       2031.5934
  21403077.0854  -14664842.32648 -11130987.51646  21403075.8974   21403083.0404
      2483.7584       1935.3954
  19617630.6574  -15082424.31949 -11737734.21647  19617629.7104   19617635.9134
      1060.7914        826.5894
  22564461.7304  -16574633.97948 -12431849.03646  22564460.8454   22564469.1994
       166.3294        129.6064
  19315392.8804  -41309539.92449 -31906379.86347  19315391.8284   19315398.4854
      -305.1894       -237.8094
  21118362.2634  -27186140.69248 -20896616.64947  21118361.1334   21118368.9624
      2755.8224       2147.3914
  22958878.9234  -25452825.26347 -19538497.01445  22958878.3584   22958889.9194
     -2700.9474      -2104.6304
  21202123.7114  -24046016.52848 -18159456.24046  21202123.0954   21202128.7604
      3517.6964       2741.0584
 99  9 18  2  6 29.9960000  0  9G 2G10G31G19G 3G18G27G16G13
  22550151.3714  -10717217.37648  -8040347.83746  22550150.1524   22550159.5014
      3667.5214       2857.8024
  22872388.1384   -7138560.93847  -5277980.01745  22872386.7334   22872396.0314
      2593.3934       2020.8294
  21388947.2754  -14739094.62348 -11188846.36646  21388945.7044   21388952.9314
      2470.0124       1924.6834
  19611597.7684  -15114126.48349 -11762437.18447  19611596.8384   19611603.2484
      1056.2784        823.0724
  22563566.1474  -16579342.61448 -12435518.07346  22563565.1324   22563572.3334
       151.1744        117.7984
  19317186.8594  -41300114.05849 -31899035.02447  19317185.9154   19317192.0824
      -319.4374       -248.9124
  21102640.0434  -27268761.16648 -20960996.17247  21102639.1384   21102646.6244
      2755.7894       2147.3664
  22974305.2574  -25371765.04947 -19475333.32645  22974303.2384   22974314.6804
     -2699.4354      -2103.4524
  21182064.1694  -24151425.57348 -18241593.09146  21182063.7984   21182069.8464
      3513.2784       2737.6174
 99  9 18  2  6 59.9960000  0  9G 2G10G31G19G 3G18G27G16G13
  22529255.8324  -10827022.69148  -8125910.22146  22529254.2544   22529264.5244
      3654.2254       2847.4444
  22857654.8614   -7215991.95047  -5338315.80845  22857653.3324   22857662.0824
      2570.2084       2002.7544
  21374919.3134  -14812812.55948 -11246288.82946  21374917.9864   21374925.0714
      2445.8994       1905.8944
  19605614.3024  -15145573.08049 -11786941.00847  19605613.0274   19605619.3924
      1041.4694        811.5354
  22562778.7194  -16583479.19248 -12438741.35146  22562777.8934   22562785.5574
       126.0074         98.1894
  19319081.6334  -41290157.79449 -31891276.88547  19319080.4354   19319086.6494
      -342.8664       -267.1684
  21086941.3844  -27351260.86148 -21025281.58647  21086940.1354   21086947.0304
      2745.6104       2139.4354
  22989744.3504  -25290630.66547 -19412111.82945  22989743.2074   22989754.8854
     -2708.0624      -2110.1774
  21162053.3314  -24256584.96048 -18323535.40146  21162053.0004   21162058.5754
      3498.7454       2726.2944
 99  9 18  2  7 29.9960000  0  9G 2G10G31G19G 3G18G27G16G13
  22508389.6934  -10936676.97048  -8211354.92146  22508387.7574   22508397.4804
      3647.7704       2842.4144
  22843003.9894   -7292981.54947  -5398307.64145  22843002.5334   22843010.9564
      2554.2444       1990.3194
  21360981.0114  -14886058.78548 -11303363.73446  21360979.8244   21360986.3644
      2429.0764       1892.7834
  19599666.6394  -15176826.26949 -11811294.12047  19599665.6224   19599672.2894
      1033.8644        805.6104
  22562087.6414  -16587110.34848 -12441570.79446  22562086.7224   22562094.6284
       107.9074         84.0804
  19321061.3184  -41279753.20549 -31883169.40747  19321060.3684   19321066.6914
      -358.7644       -279.5564
  21071253.1634  -27433700.77448 -21089520.42047  21071252.0464   21071259.3404
      2742.1994       2136.7774
  23005185.7654  -25209486.39847 -19348882.62645  23005184.5224   23005195.4844
     -2709.5974      -2111.3724
  21142078.6484  -24361555.20148 -18405330.32446  21142078.0624   21142083.5124
      3491.1114       2720.3444
 99  9 18  2  7 59.9960000  0  9G 2G10G31G19G 3G18G27G16G13
  22487578.3064  -11046042.02248  -8296574.25446  22487576.7764   22487586.1774
      3637.9454       2834.7554
  22828460.2164   -7369405.45647  -5457858.68345  22828458.4564   22828467.4744
      2535.3474       1975.5954
  21347154.6614  -14958714.01548 -11359978.12746  21347153.8064   21347160.5284
      2409.1184       1877.2334
  19593779.6294  -15207761.11448 -11835399.16847  19593778.6594   19593785.2144
      1023.2014        797.2994
  22561517.1364  -16590110.70848 -12443908.70146  22561516.3184   22561523.3894
        86.6484         67.5174
  19323145.9534  -41268798.93249 -31874633.60047  19323144.9464   19323151.1444
      -376.8784       -293.6714
  21055600.9004  -27515952.90448 -21153612.93047  21055599.8984   21055607.1074
      2735.9624       2131.9164
  23020648.3374  -25128225.29247 -19285562.39845  23020647.4574   23020659.6744
     -2712.9734      -2114.0034
  21122164.7474  -24466204.68348 -18486875.31046  21122163.9344   21122168.7704
      3480.3404       2711.9534
 99  9 18  2  8 29.9960000  0  9G 2G10G31G19G 3G18G27G16G13
  22466814.8404  -11155154.44848  -8381596.74246  22466813.3364   22466822.6154
      3634.3834       2831.9804
  22814017.4024   -7445304.03747  -5517000.39945  22814016.1444   22814024.3174
      2522.5364       1965.6164
  21333436.4744  -15030804.29648 -11416152.30346  21333435.2794   21333442.3484
      2395.1774       1866.3694
  19587941.8234  -15238439.58249 -11859304.47147  19587940.7214   19587947.2584
      1020.0104        794.8124
  22561060.3924  -16592512.72248 -12445780.36946  22561058.8994   22561066.3214
        71.6634         55.8424
  19325324.4294  -41257350.41249 -31865712.66947  19325323.3404   19325329.7654
      -388.2624       -302.5424
  21039976.9924  -27598057.67348 -21217590.61347  21039975.8144   21039982.8294
      2735.7384       2131.7404
  23036119.8464  -25046922.44147 -19222209.63645  23036118.2954   23036130.6684
     -2709.2454      -2111.0994
  21102304.1774  -24570572.41448 -18568200.75046  21102303.3564   21102308.2274
      3475.6864       2708.3254
 99  9 18  2  8 59.9960000  0  9G 2G10G31G19G 3G18G27G16G13
  22446091.5024  -11264052.15248  -8466451.91946  22446090.3634   22446100.1824
      3626.0444       2825.4834
  22799670.0554   -7520703.89947  -5575753.48845  22799667.8774   22799676.4774
      2504.6704       1951.6964
  21319816.6914  -15102380.34648 -11471925.77046  21319815.2024   21319822.1444
      2377.3634       1852.4894
  19582142.6634  -15268914.40849 -11883051.03347  19582141.6994   19582148.0234
      1012.3064        788.8094
  22560707.0394  -16594369.68148 -12447227.32146  22560705.5834   22560713.2144
        53.0414         41.3304
  19327589.0934  -41245450.84149 -31856440.27247  19327587.9304   19327594.3354
      -404.5784       -315.2554
  21024374.6684  -27680045.78548 -21281477.39747  21024373.5474   21024380.7984
      2730.8674       2127.9474
  23051591.5744  -24965619.41147 -19158856.73145  23051590.4074   23051602.0474
     -2710.1264      -2111.7824
  21082491.0954  -24674689.50748 -18649330.89346  21082490.4744   21082495.3264
      3466.3124       2701.0234
 99  9 18  2  9 29.9960000  0  9G 2G10G31G19G 3G18G27G16G13
  22425430.4294  -11372629.48848  -8551057.46546  22425429.0534   22425439.0634
      3618.5214       2819.6214
  22785433.6814   -7595511.23647  -5634044.87445  22785432.3884   22785441.6334
      2488.6014       1939.1754
  21306306.2844  -15173380.16548 -11527250.22846  21306304.4894   21306311.2814
      2362.0714       1840.5734
  19576396.9824  -15299109.18549 -11906579.39647  19576395.6784   19576401.7044
      1006.7664        784.4924
  22560467.0934  -16595626.46648 -12448206.60646  22560466.1644   22560474.5844
        36.8664         28.7254
  19329958.9944  -41232996.63749 -31846735.69547  19329958.1104   19329964.1964
      -419.7154       -327.0514
  21008810.0324  -27761835.50348 -21345209.58747  21008809.4184   21008816.6994
      2727.9674       2125.6874
  23067078.0134  -24884240.16747 -19095444.43945  23067076.8434   23067087.8034
     -2709.0174      -2110.9184
  21062739.1834  -24778486.39248 -18730211.51946  21062738.5184   21062743.4804
      3459.9004       2696.0254
 99  9 18  2  9 59.9960000  0  9G 2G10G31G19G 3G18G27G16G13
  22404815.2214  -11480961.75348  -8635472.05446  22404813.7644   22404823.8544
      3609.1324       2812.3074
  22771294.8914   -7669818.02847  -5691946.22745  22771292.9984   22771302.2994
      2470.3554       1924.9534
  21292886.3724  -15243898.55648 -11582199.54346  21292884.7334   21292891.6804
      2344.3444       1826.7604
  19570686.1594  -15329118.65048 -11929963.36347  19570685.2714   19570691.0184
       999.0914        778.5114
  22560323.2474  -16596385.16248 -12448797.75946  22560322.0184   22560329.6254
        18.8034         14.6504
  19332421.1904  -41220057.11549 -31836652.94347  19332420.1554   19332426.5304
      -437.7774       -341.1254
  20993266.9854  -27843516.86148 -21408857.34047  20993265.9584   20993273.1344
      2722.7374       2121.6114
  23082560.1114  -24802882.32947 -19032048.81145  23082558.8684   23082570.2224
     -2709.7294      -2111.4764
  21043026.4114  -24882077.80248 -18810932.03846  21043025.6894   21043030.5014
      3451.5624       2689.5274
 99  9 18  2 10 29.9960000  0  9G 2G10G31G19G 3G18G27G16G13
  22384229.2354  -11589139.97048  -8719766.61446  22384227.9204   22384237.8514
      3601.8414       2806.6264
  22757236.9944   -7743687.41347  -5749506.74345  22757235.3734   22757244.4154
      2453.4424       1911.7734
  21279545.0414  -15314004.84848 -11636827.73846  21279543.9254   21279551.1764
      2328.4874       1814.4054
  19564997.6414  -15359011.27449 -11953256.28447  19564996.5004   19565002.5894
       992.3574        773.2684
  22560260.1904  -16596716.61748 -12449055.99846  22560258.9714   22560266.6194
         2.2084          1.7174
  19334965.4094  -41206685.95549 -31826233.85047  19334964.6224   19334971.0934
      -454.6064       -354.2384
  20977733.3594  -27925146.94148 -21472465.14347  20977732.4394   20977739.3824
      2718.1624       2118.0474
  23098026.8324  -24721600.82247 -18968712.66145  23098025.9784   23098037.7394
     -2710.1584      -2111.8084
  21023338.4494  -24985536.82048 -18891549.39846  21023337.7824   21023342.9424
      3444.6734       2684.1594
 99  9 18  2 10 59.9960000  0  9G 2G10G31G19G 3G18G27G16G13
  22363685.2104  -11697098.86848  -8803890.28346  22363683.9654   22363693.6704
      3595.5474       2801.7214
  22743275.9014   -7817054.39247  -5806675.77445  22743274.8654   22743283.0294
      2438.0214       1899.7554
  21266294.3274  -15383636.47548 -11691086.06646  21266293.6834   21266300.3184
      2313.5834       1802.7924
  19559351.7314  -15388681.15449 -11976375.64547  19559350.6144   19559356.7364
       985.6734        768.0554
  22560292.1634  -16596545.37848 -12448922.54346  22560291.6004   22560299.4664
       -13.6464        -10.6364
  19337606.2384  -41192808.63549 -31815420.35347  19337605.2784   19337611.6984
      -470.5004       -366.6234
  20962226.5394  -28006635.33448 -21535962.54247  20962225.5254   20962232.7464
      2714.6234       2115.2894
  23113498.3784  -24640299.13547 -18905360.78845  23113497.6124   23113508.8564
     -2709.8924      -2111.6004
  21003690.7504  -25088786.66348 -18972003.76446  21003689.9664   21003694.8924
      3438.7224       2679.5214
 99  9 18  2 11 29.9960000  0  9G 2G10G31G19G 3G18G27G16G13
  22343186.1974  -11804819.90848  -8887828.61646  22343185.0964   22343194.6104
      3581.2384       2790.5704
  22729410.8074   -7889915.25547  -5863450.42145  22729408.9234   22729418.7224
      2414.4094       1881.3544
  21253140.8014  -15452759.26848 -11744947.90246  21253139.7934   21253146.7754
      2289.6784       1784.1624
  19553754.9494  -15418093.36549 -11999294.20247  19553753.7194   19553759.9804
       970.2944        756.0714
  22560428.9014  -16595831.57948 -12448366.30646  22560427.4024   22560434.8574
       -38.9824        -30.3764
  19340347.6474  -41178404.03949 -31804195.98847  19340346.4934   19340352.7854
      -494.6064       -385.4084
  20946749.1004  -28087970.14248 -21599340.26947  20946748.1484   20946755.5034
      2702.8604       2106.1244
  23128979.8594  -24558945.21047 -18841968.19145  23128978.7804   23128989.6584
     -2718.4754      -2118.2824
  20984086.2814  -25191807.36448 -19052279.57446  20984085.7284   20984091.0344
      3424.2784       2668.2664
 99  9 18  2 11 59.9960000  0  9G 2G10G31G19G 3G18G27G16G13
  22322725.3804  -11912341.73948  -8971611.72646  22322724.1044   22322733.8174
      3577.4904       2787.6504
  22715639.7664   -7962273.07747  -5919833.07545  22715638.8864   22715648.7354
      2400.0834       1870.1894
  21240086.8724  -15521361.94948 -11798404.46446  21240085.4634   21240091.6854
      2274.4944       1772.3324
  19548204.3344  -15447258.48849 -12022020.22647  19548203.4424   19548209.3684
       964.5934        751.6284
  22560670.3084  -16594561.91848 -12447376.92046  22560668.8044   22560676.9574
       -55.2874        -43.0844
  19343185.5754  -41163489.80649 -31792574.50347  19343184.7274   19343190.6934
      -509.0334       -396.6494
  20931298.2684  -28169164.35648 -21662608.43647  20931297.3284   20931304.4034
      2700.7884       2104.5084
  23144469.3024  -24477548.39247 -18778542.17645  23144468.3994   23144480.1854
     -2717.4784      -2117.5144
  20964529.5404  -25294579.03148 -19132361.33046  20964528.8114   20964534.1204
      3417.8144       2663.2284
 99  9 18  2 12 29.9960000  0  9G 2G10G31G19G 3G18G27G16G13
  22302291.9104  -12019717.45748  -9055280.98946  22302290.6314   22302300.6234
      3578.4464       2788.3954
  22701958.1804   -8034176.75447  -5975861.87445  22701956.9954   22701966.1344
      2391.2484       1863.3094
  21227123.0884  -15589485.46648 -11851487.64946  21227121.5064   21227128.5314
      2264.8004       1764.7774
  19542693.9294  -15476216.54949 -12044584.93147  19542692.9734   19542699.0744
       963.7304        750.9594
  22561011.8524  -16592764.65348 -12445976.43146  22561010.6454   22561018.0544
       -66.6314        -51.9174
  19346111.0234  -41148115.96149 -31780594.87447  19346110.1324   19346115.9774
      -518.0144       -403.6464
  20915864.6224  -28250271.28648 -21725808.59647  20915863.5024   20915870.1414
      2704.1574       2107.1344
  23159960.1234  -24396148.69047 -18715113.90345  23159958.5364   23159969.2674
     -2711.2464      -2112.6634
  20945015.6814  -25397125.45348 -19212267.57247  20945015.0114   20945020.3844
      3416.4134       2662.1394
 99  9 18  2 12 59.9960000  0  9G 2G10G31G19G 3G18G27G16G13
  22281894.9564  -12126900.61048  -9138800.19546  22281894.0784   22281904.6224
      3572.1934       2783.5214
  22688366.0804   -8105604.66647  -6031519.94245  22688364.8174   22688372.8594
      2375.6344       1851.1384
  21214255.6324  -15657101.98748 -11904175.75746  21214254.5704   21214261.3184
      2248.1594       1751.8104
  19537226.6134  -15504948.52149 -12066973.42247  19537225.5114   19537231.6984
       956.9934        745.7074
  22561456.5684  -16590424.60848 -12444152.98846  22561455.9974   22561463.7094
       -84.1454        -65.5674
  19349126.8974  -41132265.97549 -31768244.22647  19349125.7584   19349131.9374
      -533.5914       -415.7854
  20900449.1324  -28331278.64248 -21788931.16847  20900447.9274   20900454.4774
      2701.6074       2105.1454
  23175452.0354  -24314735.40947 -18651675.03845  23175450.3034   23175462.0214
     -2711.0894      -2112.5284
  20925550.0254  -25499418.53048 -19291976.39747  20925549.3124   20925554.7814
      3408.3364       2655.8444
 99  9 18  2 13 29.9960000  0  9G 2G10G31G19G 3G18G27G16G13
  22261552.5014  -12233803.38448  -9222100.94146  22261551.1844   22261560.8174
      3561.9394       2775.5324
  22674880.9104   -8176462.71047  -6086733.95345  22674880.3304   22674888.4024
      2355.3594       1835.3434
  21201500.3254  -15724130.69248 -11956405.83446  21201499.2764   21201506.2354
      2227.6834       1735.8544
  19531812.8704  -15533396.12849 -12089140.34547  19531812.0264   19531818.0844
       946.6994        737.6864
  22562019.1214  -16587472.47848 -12441852.58446  22562018.2614   22562025.1564
      -105.3474        -82.0904
  19352250.8034  -41115849.92549 -31755452.49147  19352249.9264   19352255.9304
      -553.6124       -431.3874
  20885064.1414  -28412126.06448 -21851929.12347  20885062.9564   20885069.8224
      2695.3114       2100.2414
  23190954.5234  -24233252.81047 -18588182.17845  23190955.3874   23190967.9024
     -2713.8114      -2114.6604
  20906147.4654  -25601379.75248 -19371426.64247  20906146.8394   20906152.3164
      3396.3744       2646.5234
 99  9 18  2 13 59.9960000  0  9G 2G10G31G19G 3G18G27G16G13
  22241239.5514  -12340548.87048  -9305279.12846  22241238.2604   22241247.8924
      3553.5184       2768.9744
  22661484.1144   -8246868.77547  -6141595.78745  22661482.2654   22661491.3574
      2337.7684       1821.6364
  21188833.8884  -15790696.41648 -12008275.15346  21188832.7054   21188839.3434
      2209.3634       1721.5804
  19526429.2824  -15561688.50149 -12111186.31347  19526428.2174   19526434.1934
       938.6214        731.3904
  22562671.0924  -16584044.86848 -12439181.67146  22562669.8464   22562677.7134
      -123.8844        -96.5324
  19355460.4494  -41098984.77549 -31742310.80947  19355459.5144   19355465.4744
      -571.3254       -445.1894
  20869686.7994  -28492933.85148 -21914896.19147  20869685.6764   20869692.8884
      2691.0844       2096.9484
  23206446.9304  -24151846.49147 -18524748.78245  23206446.3534   23206458.8524
     -2714.1454      -2114.9194
  20886785.0104  -25703130.97848 -19450713.25147  20886784.3484   20886789.7444
      3386.6764       2638.9654
 99  9 18  2 14 29.9960000  0  9G 2G10G31G19G 3G18G27G16G13
  22220997.6374  -12446922.64448  -9388167.66546  22220996.5774   22221005.6294
      3541.4934       2759.6004
  22648207.8814   -8316637.32447  -6195960.86445  22648206.1814   22648214.6894
      2316.6684       1805.1964
  21176290.0464  -15856613.43648 -12059638.98846  21176288.7234   21176295.8804
      2188.2184       1705.1034
  19521113.1284  -15589625.15249 -12132955.11547  19521112.0444   19521118.2564
       927.1624        722.4604
  22563448.0814  -16579961.42048 -12435999.72746  22563447.2254   22563454.2544
      -144.8344       -112.8564
  19358789.2494  -41081491.78749 -31728679.90547  19358788.2164   19358794.3674
      -591.4914       -460.9014
  20854354.5064  -28573503.80548 -21977677.94247  20854353.6034   20854360.5514
      2683.4694       2091.0134
  23221957.8124  -24070327.23747 -18461227.38645  23221958.6944   23221972.7444
     -2717.0054      -2117.1474
  20867495.7444  -25804495.39848 -19529698.45547  20867495.0614   20867500.6374
      3374.2504       2629.2844
 99  9 18  2 14 59.9960000  0  9G 2G10G31G19G 3G18G27G16G13
  22200807.4994  -12553025.25548  -9470844.90946  22200805.8484   22200815.3104
      3538.2794       2757.0984
  22635036.0414   -8385856.03247  -6249897.49245  22635034.6684   22635042.3894
      2304.1854       1795.4724
  21163851.5904  -15921976.60248 -12110571.23446  21163850.3174   21163856.9304
      2175.5544       1695.2344
  19515844.2944  -15617312.44449 -12154529.58347  19515843.1604   19515849.7614
       924.7014        720.5454
  22564326.3824  -16575345.20048 -12432402.64546  22564325.3014   22564332.6864
      -156.8644       -122.2314
  19362216.3484  -41063482.39349 -31714646.60047  19362215.1314   19362221.4044
      -603.0964       -469.9454
  20839049.7124  -28653933.98348 -22040350.78247  20839048.6904   20839055.4244
      2684.7264       2091.9944
  23237472.5824  -23988815.51347 -18397711.88045  23237470.9234   23237483.4524
     -2710.9074      -2112.3894
  20848261.1614  -25905571.43048 -19608458.94247  20848260.5904   20848266.8054
      3370.5064       2626.3674
 99  9 18  2 15 29.9960000  0  9G 2G10G31G19G 3G18G27G16G13
  22180646.9794  -12658966.00748  -9553396.04046  22180645.6914   22180655.0874
      3527.4904       2748.6914
  22621949.6534   -8454628.06847  -6303486.06445  22621947.5414   22621955.0324
      2283.6994       1779.5024
  21151499.9604  -15986885.92348 -12161149.83946  21151498.5194   21151504.6104
      2154.6664       1678.9564
  19510604.8784  -15644846.25349 -12175984.45947  19510603.9834   19510609.7914
       913.7864        712.0394
  22565288.7074  -16570288.98448 -12428462.70546  22565287.7664   22565295.1264
      -177.2174       -138.0894
  19365723.3394  -41045050.71649 -31700284.24747  19365722.2864   19365728.5604
      -622.5944       -485.1394
  20823751.6664  -28734327.58748 -22102995.12147  20823750.2544   20823756.6364
      2677.7774       2086.5784
  23252962.1454  -23907416.64847 -18334284.25945  23252961.5844   23252972.7784
     -2712.8374      -2113.8984
  20829061.3364  -26006466.21248 -19687078.18947  20829060.7054   20829066.9174
      3358.9504       2617.3594
 99  9 18  2 15 59.9960000  0  9G 2G10G31G19G 3G18G27G16G13
  22160538.4624  -12764639.51148  -9635738.91846  22160537.1724   22160546.4864
      3517.6814       2741.0464
  22608965.8474   -8522849.31447  -6356645.42545  22608964.6394   22608973.4144
      2264.4974       1764.5444
  21139256.5954  -16051226.14648 -12211284.99446  21139254.9044   21139261.3384
      2135.0134       1663.6464
  19505415.9474  -15672115.29449 -12197233.03147  19505414.9894   19505420.5824
       904.3794        704.7094
  22566353.6404  -16564685.63748 -12424096.43346  22566352.9744   22566361.5074
      -196.1074       -152.8124
  19369329.5994  -41026102.48749 -31685519.38847  19369328.3564   19369334.2374
      -640.2564       -498.9024
  20808482.0154  -28814566.49848 -22165518.92647  20808481.0504   20808487.5704
      2671.8454       2081.9564
  23268453.4944  -23826009.58147 -18270850.28345  23268451.7784   23268464.5424
     -2713.9854      -2114.7824
  20809916.1214  -26107072.94048 -19765472.98947  20809915.6844   20809921.8124
      3348.5494       2609.2574
 99  9 18  2 16 29.9960000  0  9G 2G10G31G19G 3G18G27G16G13
  22140478.7054  -12870054.80148  -9717880.59446  22140477.2284   22140487.0154
      3512.5574       2737.0534
  22596089.7284   -8590516.33147  -6409372.93845  22596088.4534   22596097.6164
      2249.1234       1752.5684
  21127117.1234  -16115012.73548 -12260988.74846  21127116.1414   21127123.6044
      2119.7794       1651.7734
  19500273.8984  -15699135.96349 -12218288.07047  19500272.9794   19500278.8444
       899.4894        700.8994
  22567522.1144  -16558548.43848 -12419314.17546  22567521.1754   22567529.7704
      -210.6134       -164.1114
  19373030.1034  -41006654.72149 -31670365.27947  19373029.1104   19373034.9984
      -654.0124       -509.6204
  20793240.1654  -28894663.63848 -22227932.25947  20793239.0884   20793245.5414
      2670.4834       2080.8954
  23283942.9484  -23744605.06647 -18207418.27245  23283941.0234   23283952.4744
     -2710.4794      -2112.0624
  20790824.9724  -26207397.91148 -19843648.24147  20790824.6034   20790830.6874
      3342.1664       2604.2844
 99  9 18  2 16 59.9960000  0  9G 2G10G31G19G 3G18G27G16G13
  22120444.6644  -12975333.58948  -9799915.90246  22120442.9184   22120452.5994
      3505.0864       2731.2324
  22583297.2064   -8657747.66847  -6461760.95346  22583295.6134   22583304.0714
      2232.0014       1739.2224
  21115063.1714  -16178358.32048 -12310348.87446  21115061.8054   21115068.7914
      2102.3434       1638.1854
  19495154.5724  -15726038.85849 -12239251.34147  19495153.6034   19495159.3944
       893.0594        695.8894
  22568771.5314  -16551985.36848 -12414200.06246  22568770.1804   22568778.1844
      -227.9404       -177.6214
  19376806.6414  -40986807.51249 -31654899.91147  19376805.6684   19376811.6044
      -670.1074       -522.1624
  20778001.4674  -28974743.91148 -22290332.44947  20778000.3934   20778007.2954
      2667.2964       2078.4114
  23299412.3694  -23663323.44547 -18144082.04045  23299410.9204   23299421.2334
     -2709.3624      -2111.1914
  20771766.8684  -26307549.89748 -19921688.69947  20771766.4034   20771771.9384
      3333.8184       2597.7784
 99  9 18  2 17 29.9960000  0  9G 2G10G31G19G 3G18G27G16G13
  22100476.7554  -13080261.49248  -9881677.79946  22100475.7704   22100485.5084
      3492.9904       2721.8084
  22570627.0294   -8724325.48947  -6513639.72946  22570625.3774   22570634.4204
      2209.4084       1721.6144
  21103133.5224  -16241048.05448 -12359197.94246  21103132.3994   21103139.2914
      2079.9954       1620.7754
  19490095.8514  -15752620.49849 -12259964.29447  19490094.9724   19490100.7744
       881.8564        687.1584
  22570144.9274  -16544763.06948 -12408572.26746  22570144.3114   22570152.3744
      -250.5394       -195.2244
  19380699.7454  -40966349.86949 -31638958.88347  19380698.6344   19380704.8534
      -690.8454       -538.3214
  20762806.4404  -29054594.08948 -22352553.34847  20762805.4794   20762812.2804
      2658.9684       2071.9234
  23314899.3114  -23581934.01347 -18080661.80745  23314897.2204   23314910.2604
     -2713.8504      -2114.6804
  20752782.3354  -26407314.32748 -19999427.17247  20752781.7584   20752787.4724
      3320.1154       2587.1014
 99  9 18  2 17 59.9960000  0  9G 2G10G31G19G 3G18G27G16G13
  22080568.8664  -13184883.36548  -9963201.23346  22080567.0094   22080576.1974
      3483.7164       2714.5814
  22558075.5364   -8790288.43347  -6565039.37545  22558073.4564   22558081.7664
      2189.9394       1706.4404
  21091319.0114  -16303133.89148 -12407576.44146  21091317.7124   21091324.3624
      2060.7744       1605.7974
  19485089.2294  -15778932.09549 -12280466.80447  19485088.1584   19485094.1264
       874.0044        681.0414
  22571635.6144  -16536931.56848 -12402469.76846  22571634.3724   22571642.4574
      -269.8464       -210.2654
  19384699.4324  -40945331.60049 -31622581.00847  19384698.3514   19384704.6954
      -708.5024       -552.0794
  20747646.7794  -29134259.09448 -22414629.95147  20747645.7194   20747652.3144
      2653.8464       2067.9314
  23330400.4034  -23500480.44447 -18017191.59945  23330397.4804   23330410.5604
     -2714.5044      -2115.1914
  20733865.2154  -26506726.37848 -20076891.07347  20733864.5784   20733869.8124
      3309.1644       2578.5694
 99  9 18  2 18 29.9960000  0  9G 2G10G31G19G 3G18G27G16G13
  22060692.0914  -13289335.75248 -10044592.60246  22060690.4954   22060698.9854
      3481.1624       2712.5894
  22545611.3214   -8855783.99747  -6616074.83545  22545609.4474   22545618.4224
      2177.8674       1697.0374
  21079595.0834  -16364746.21748 -12455585.97246  21079593.4334   21079599.9224
      2047.9144       1595.7734
  19480107.1834  -15805112.87449 -12300867.39647  19480106.1764   19480111.9694
       872.6524        679.9884
  22573216.5504  -16528627.05948 -12395998.68546  22573215.3364   22573222.9884
      -282.4074       -220.0564
  19388779.9344  -40923887.95649 -31605871.66947  19388779.2084   19388785.4514
      -719.6144       -560.7384
  20732495.5874  -29213880.97348 -22476672.95347  20732494.4124   20732500.9684
      2655.5674       2069.2734
  23345883.0534  -23419114.88047 -17953789.97145  23345881.2154   23345893.8084
     -2708.5314      -2110.5434
  20714990.4494  -26605911.22148 -20154177.93047  20714989.9974   20714995.7064
      3304.8034       2575.1704
 99  9 18  2 18 59.9960000  0  9G 2G10G31G19G 3G18G27G16G13
  22040842.8134  -13393643.33048 -10125871.14146  22040841.1994   22040850.1544
      3472.8744       2706.1324
  22533225.7724   -8920860.77647  -6666783.95845  22533224.9194   22533234.1614
      2160.6314       1683.6074
  21067955.3904  -16425906.27448 -12503243.08346  21067954.4224   21067961.3064
      2029.4434       1581.3824
  19475145.6504  -15831187.75049 -12321185.46347  19475144.5974   19475150.2434
       865.6124        674.5034
  22574879.8914  -16519886.13348 -12389187.53946  22574878.8244   22574885.9094
      -300.0684       -233.8194
  19392934.5294  -40902057.52049 -31588860.93547  19392933.3704   19392939.5994
      -735.4994       -573.1164
  20717346.6834  -29293485.40348 -22538702.36047  20717345.7364   20717352.8314
      2651.4204       2066.0404
  23361344.1134  -23337867.16947 -17890480.17845  23361342.3674   23361353.0774
     -2708.1214      -2110.2234
  20696151.2174  -26704911.62648 -20231321.06947  20696150.9864   20696156.2494
      3295.5994       2567.9984
 99  9 18  2 19 29.9960000  0  9G 2G10G31G19G 3G18G27G16G13
  22021044.3634  -13497685.25148 -10206942.67346  22021042.7074   22021051.9044
      3463.6514       2698.9454
  22520947.7344   -8985393.61947  -6717069.24145  22520946.2534   22520953.9024
      2142.1934       1669.2364
  21056426.7964  -16486493.75348 -12550454.04346  21056425.4034   21056432.0444
      2010.1234       1566.3274
  19470229.7554  -15857018.65749 -12341313.43347  19470228.6324   19470234.8674
       856.6134        667.4934
  22576646.3174  -16510602.73648 -12381953.70746  22576645.1604   22576652.6714
      -318.3964       -248.0954
  19397182.6584  -40879732.58649 -31571464.88047  19397181.5484   19397187.7144
      -752.4224       -586.3034
  20702226.5754  -29372941.31648 -22600616.03347  20702225.7334   20702232.8114
      2645.9904       2061.8084
  23376805.9904  -23256612.82547 -17827165.19745  23376804.4834   23376817.1434
     -2708.4604      -2110.4804
  20677368.3254  -26803618.36248 -20308235.38147  20677367.8624   20677373.0004
      3285.3544       2560.0174
 99  9 18  2 19 59.9960000  0  9G 2G10G31G19G 3G18G27G16G13
  22001307.4274  -13601400.34948 -10287759.53246  22001306.3684   22001315.0004
      3450.7154       2688.8644
  22508778.0554   -9049341.90847  -6766899.02545  22508775.6064   22508784.6184
      2121.0434       1652.7604
  21045017.7824  -16546450.33548 -12597173.39146  21045016.5464   21045023.1664
      1986.8484       1548.1924
  19465374.8634  -15882529.05049 -12361191.66547  19465373.8684   19465380.2144
       844.0864        657.7284
  22578523.5364  -16500734.30748 -12374263.99846  22578522.5764   22578530.4964
      -339.6004       -264.6244
  19401535.6264  -40856857.35749 -31553640.01647  19401534.6714   19401540.8724
      -772.5804       -602.0114
  20687147.1024  -29452186.65148 -22662365.62147  20687146.0184   20687152.5634
      2637.0234       2054.8224
  23392275.9714  -23175313.10147 -17763814.88045  23392275.7874   23392288.7634
     -2711.6544      -2112.9704
  20658652.0924  -26901974.83248 -20384876.76147  20658651.4194   20658656.1084
      3271.7164       2549.3894
 99  9 18  2 20 29.9960000  0  9G 2G10G31G19G 3G18G27G16G13
  21981619.0584  -13704861.31048 -10368378.37446  21981618.0674   21981626.0414
      3441.4454       2681.6424
  22496703.1294   -9112795.60947  -6816343.42345  22496701.8554   22496709.5744
      2103.7134       1639.2584
  21033715.1644  -16605848.88948 -12643457.91946  21033713.8784   21033719.4784
      1967.8254       1533.3684
  19460566.0654  -15907801.11549 -12380884.16147  19460564.9334   19460571.2574
       835.4244        650.9794
  22580496.7054  -16490366.80548 -12366185.40046  22580495.8494   22580503.1994
      -356.9024       -278.1054
  19405977.2844  -40833517.24849 -31535452.91547  19405976.3644   19405982.4194
      -788.8314       -614.6734
  20672092.2734  -29531299.66948 -22724012.09947  20672091.4534   20672098.0744
      2631.8014       2050.7534
  23407740.6494  -23094049.40347 -17700492.65945  23407739.6944   23407752.8524
     -2711.2184      -2112.6354
  20639986.5784  -27000061.41648 -20461307.84747  20639985.9284   20639990.8534
      3262.2184       2541.9874
 99  9 18  2 20 59.9960000  0  9G 2G10G31G19G 3G18G27G16G13
  21961983.3204  -13808051.95748 -10448786.56446  21961981.5734   21961989.7374
      3437.5774       2678.6274
  22484730.4784   -9175718.48847  -6865374.20745  22484728.8394   22484736.8254
      2090.5584       1629.0104
  21022518.9614  -16664680.59148 -12689300.73746  21022517.8394   21022523.7444
      1953.8604       1522.4874
  19455806.0864  -15932815.72449 -12400376.03747  19455804.8694   19455811.0884
       831.7604        648.1264
  22582569.1454  -16479476.82147 -12357699.66446  22582568.0404   22582575.4244
      -369.5594       -287.9724
  19410511.1644  -40809690.10549 -31516886.30247  19410510.0994   19410516.6764
      -800.1624       -623.5034
  20657068.4554  -29610253.47748 -22785534.51547  20657067.3164   20657073.5464
      2631.4874       2050.5094
  23423203.5944  -23012799.07647 -17637180.80545  23423201.8364   23423213.9204
     -2705.8684      -2108.4654
  20621376.1234  -27097858.58448 -20537513.41047  20621375.7674   20621380.6784
      3257.1394       2538.0294
 99  9 18  2 21 29.9960000  0  9G 2G10G31G19G 3G18G27G16G13
  21942389.8174  -13911012.76848 -10529015.65346  21942388.3014   21942397.0744
      3426.6674       2670.1254
  22472853.4544   -9238126.35347  -6914003.68045  22472852.0154   22472861.3224
      2070.2654       1613.1924
  21011424.8404  -16722981.29148 -12734729.78846  21011423.4564   21011429.9044
      1932.9894       1506.2254
  19451087.8134  -15957609.10849 -12419695.54447  19451087.0534   19451092.7614
       821.3884        640.0434
  22584737.4624  -16468079.32147 -12348818.47545  22584736.4044   22584744.2794
      -390.1414       -304.0044
  19415133.7174  -40785396.67349 -31497956.35147  19415132.7384   19415139.5724
      -819.2674       -638.3894
  20642064.6394  -29689094.75248 -22846969.24547  20642063.7564   20642070.6224
      2624.8754       2045.3554
  23438653.6734  -22931601.12147 -17573909.77345  23438653.2284   23438664.9304
     -2706.9694      -2109.3224
  20602819.6274  -27195372.79448 -20613498.49047  20602819.2694   20602824.2394
      3244.0134       2527.8024
 99  9 18  2 21 59.9960000  0  9G 2G10G31G19G 3G18G27G16G13
  21922850.6014  -14013691.59748 -10609025.01446  21922849.2604   21922858.1084
      3419.7974       2664.7754
  22461085.9164   -9299970.26747  -6962193.70845  22461084.0734   22461092.8074
      2053.9194       1600.4564
  21000442.2504  -16780694.43748 -12779701.00446  21000441.0394   21000447.5304
      1915.8394       1492.8624
  19446417.9634  -15982149.20549 -12438817.68147  19446416.8624   19446422.9114
       815.9764        635.8264
  22587014.8164  -16456115.16547 -12339495.74146  22587013.4594   22587021.3044
      -406.2654       -316.5744
  19419858.5874  -40760569.46649 -31478610.46847  19419857.6964   19419864.0794
      -834.6314       -650.3604
  20627089.2264  -29767789.75548 -22908289.99047  20627088.3874   20627095.4634
      2622.7704       2043.7164
  23454103.7344  -22850422.64147 -17510653.92345  23454102.5504   23454111.7024
     -2703.6004      -2106.6984
  20584330.8894  -27292531.94248 -20689206.88947  20584330.4244   20584335.6754
      3234.6794       2520.5294
 99  9 18  2 22 29.9960000  0  9G 2G10G31G19G 3G18G27G16G13
  21903355.0364  -14116142.04148 -10688856.41846  21903353.5514   21903362.2234
      3415.3564       2661.3134
  22449415.4994   -9361293.73947  -7009978.19345  22449413.8824   22449422.6384
      2039.2824       1589.0494
  20989560.9644  -16837874.27448 -12824256.65746  20989559.7244   20989565.8364
      1901.1464       1481.4104
  19441783.1224  -16006505.45949 -12457796.56247  19441782.1464   19441788.1034
       812.6524        633.2344
  22589389.3504  -16443636.98847 -12329772.46546  22589388.3284   22589395.9164
      -420.5824       -327.7254
  19424675.3984  -40735257.64849 -31458886.96747  19424674.2944   19424680.6614
      -847.8784       -660.6854
  20612130.3994  -29846401.10848 -22969545.55647  20612129.3504   20612136.0884
      2622.8924       2043.8094
  23469533.1224  -22769328.23147 -17447463.54545  23469532.9314   23469544.1034
     -2697.5474      -2101.9824
  20565899.5324  -27389391.42748 -20764681.78747  20565898.8924   20565903.8234
      3227.7694       2515.1444
 99  9 18  2 22 59.9960000  0  9G 2G10G31G19G 3G18G27G16G13
  21883893.0374  -14218411.37148 -10768546.69746  21883891.8024   21883900.9604
      3399.7884       2649.1834
  22437840.1164   -9422123.43047  -7057377.91945  22437838.0944   22437846.7454
      2013.3934       1568.8804
  20978775.0654  -16894554.22748 -12868422.78846  20978773.7044   20978780.0234
      1874.7094       1460.8114
  19437178.1514  -16030704.94849 -12476653.28247  19437177.2624   19437182.9674
       797.8034        621.6654
  22591856.2104  -16430671.90347 -12319669.77546  22591855.6864   22591862.5254
      -446.4494       -347.8884
  19429577.8004  -40709494.93649 -31438812.12047  19429576.7704   19429583.0864
      -872.3354       -679.7414
  20597179.8004  -29924965.85348 -23030764.78547  20597178.7014   20597185.7744
      2612.0974       2035.3974
  23484941.3624  -22688364.99347 -17384375.39345  23484941.2044   23484949.8444
     -2702.8054      -2106.0784
  20547517.2634  -27485989.25948 -20839952.79247  20547516.5634   20547522.1404
      3209.5004       2500.9094
 99  9 18  2 23 29.9960000  0  9G 2G10G31G19G 3G18G27G16G13
  21864480.4614  -14320426.15548 -10848038.62946  21864479.3504   21864488.5154
      3397.4944       2647.3954
  22426369.6934   -9482402.05147  -7104348.26145  22426368.2874   22426376.7674
      2001.6404       1559.7174
  20968099.8444  -16950654.63248 -12912137.31746  20968098.3784   20968104.5744
      1861.4974       1450.5154
  19432616.4094  -16054678.82649 -12495334.20147  19432615.1764   19432620.9824
       796.6384        620.7554
  22594429.5804  -16417152.05048 -12309134.80346  22594428.6014   22594435.7834
      -458.3864       -357.1864
  19434577.4204  -40683221.48049 -31418339.28747  19434576.4404   19434582.5734
      -882.8274       -687.9184
  20582250.1004  -30003426.05848 -23091902.55947  20582248.8534   20582255.2194
      2614.6864       2037.4174
  23500335.8974  -22607466.98147 -17321338.03945  23500335.6734   23500345.6634
     -2694.1744      -2099.3544
  20529195.7794  -27582267.58448 -20914974.82347  20529195.3064   20529200.5394
      3205.5494       2497.8294
 99  9 18  2 23 59.9960000  0  9G 2G10G31G19G 3G18G27G16G13
  21845132.6354  -14422100.61748 -10927265.37746  21845131.3604   21845140.3344
      3385.6244       2638.1464
  22415018.5314   -9542053.00247  -7150829.49146  22415016.7704   22415025.7544
      1980.0004       1542.8604
  20957554.7444  -17006070.01148 -12955318.07946  20957553.1634   20957559.2614
      1837.9434       1432.1614
  19428114.9134  -16078333.71349 -12513766.55347  19428113.6774   19428119.4024
       785.1924        611.8384
  22597119.2574  -16403016.23647 -12298119.86646  22597118.5494   22597125.3904
      -479.0664       -373.2984
  19439687.8204  -40656364.99549 -31397412.14747  19439686.7664   19439693.3324
      -902.6324       -703.3494
  20567360.1934  -30081669.94248 -23152871.77047  20567359.2904   20567366.0194
      2606.5114       2031.0474
  23515734.8304  -22526550.19147 -17258286.08645  23515732.4624   23515743.3954
     -2695.4154      -2100.3134
  20510947.8494  -27678161.51748 -20989697.32647  20510947.2444   20510952.9674
      3192.4314       2487.6074
 99  9 18  2 24 29.9960000  0  9G 2G10G31G19G 3G18G27G16G13
  21825809.8264  -14523641.46948 -11006388.00246  21825808.3674   21825817.4474
      3380.1894       2633.9084
  22403749.6914   -9601273.37447  -7196975.20746  22403748.0974   22403755.8954
      1964.4394       1530.7254
  20947100.4604  -17061004.88048 -12998124.40846  20947099.1754   20947105.7634
      1820.8574       1418.8484
  19423639.1044  -16101851.48049 -12532092.05447  19423638.2674   19423644.1294
       779.0084        607.0194
  22599887.5454  -16388473.04847 -12286787.51145  22599885.9724   22599891.8684
      -494.0394       -384.9634
  19444868.3554  -40629142.62349 -31376199.90947  19444867.2764   19444873.5724
      -915.9284       -713.7114
  20552476.0224  -30159886.13448 -23213819.38747  20552475.0804   20552481.5964
      2604.2334       2029.2714
  23531099.3544  -22445807.64747 -17195369.86045  23531097.2664   23531108.8684
     -2691.1134      -2096.9784
  20492732.2344  -27773887.08448 -21064288.62747  20492731.6264   20492736.7704
      3185.6574       2482.3284
