     2.10           OBSERVATION DATA    G (GPS)             RINEX VERSION / TYPE
teqc  2000Feb29     CORS/NGS/NOAA       20000716 00:44:22UTCPGM / RUN BY / DATE
HP-UX 10.20|PA-RISC|cc A.10.32.03|=+|=|                     COMMENT
BIT 2 OF LLI FLAGS DATA COLLECTED UNDER A/S CONDITION       COMMENT
ppt1                                                        MARKER NAME
xxx                                                         MARKER NUMBER
CORS/NGS/NOAA       U.S. Coast Guard                        OBSERVER / AGENCY
05402               ASHTECH   Z-XII3    RD00                REC # / TYPE / VERS
11092               ASH700829.3                             ANT # / TYPE
 -2725252.3748 -4295978.5284  3833958.9631                  APPROX POSITION XYZ 
        0.0000        0.0000        0.0000                  ANTENNA: DELTA H/E/N
     1     1                                                WAVELENGTH FACT L1/2
     7    C1    L1    L2    P1    P2    D1    D2            # / TYPES OF OBSERV
    30.0000                                                 INTERVAL
 SNR is mapped to RINEX snr flag value [1-9]                COMMENT
  L1: 1 -> 1;  90 -> 5; 210 -> 9                            COMMENT
  L2: 1 -> 1; 150 -> 5; 250 -> 9                            COMMENT
teqc windowed: delta = 86400.000 sec                        COMMENT
  2000     7    15     0     0   30.0000000     GPS         TIME OF FIRST OBS
                                                            END OF HEADER
 00  7 15  0  0 30.0000000  0  7G11G25G29G21G20G 1G15
  20828430.4014  -35437454.66049 -26967359.36347  20828428.1924   20828433.3604
       650.0684        506.5464
  20834746.5644  -32302564.44249 -24849188.48747  20834744.7804   20834750.0404
      1323.1264       1031.0064
  23353913.2314  -29238270.65048 -22756319.73946  23353910.7934   23353917.5604
     -1649.9404      -1285.6664
  23271473.9174  -36904583.62347 -28430809.23945  23271472.4344   23271481.6284
     -1550.1284      -1207.8854
  22761393.7744  -19837753.64548 -15169038.05046  22761391.3104   22761397.5934
      3699.7724       2882.9404
  24257599.4594   -8996596.05548  -6706389.88346  24257597.0724   24257607.4884
      3609.7974       2812.8264
  22911721.9214  -32919629.62647 -25354846.10745  22911719.1794   22911728.9524
     -2748.1534      -2141.4064
 00  7 15  0  1  0.0000000  0  7G11G25G29G21G20G 1G15
  20824793.0104  -35456570.17549 -26982254.57147  20824790.7874   20824795.8074
       626.2994        488.0264
  20827261.8364  -32341894.14749 -24879834.98747  20827260.0654   20827265.5044
      1300.9164       1013.6994
  23363353.0624  -29188665.20048 -22717666.20446  23363350.6174   23363357.4084
     -1655.1284      -1289.7084
  23280365.5314  -36857858.91047 -28394400.50745  23280363.8384   23280373.1274
     -1562.7744      -1217.7454
  22740299.1394  -19948607.81048 -15255417.84946  22740296.1344   22740302.5574
      3692.5624       2877.3174
  24237023.5324   -9104717.49148  -6790640.10846  24237021.5784   24237031.9354
      3600.3644       2805.4674
  22927446.8674  -32836995.70947 -25290456.18545  22927444.2774   22927454.1254
     -2758.7574      -2149.6754
 00  7 15  0  1 30.0000000  0  7G11G25G29G21G20G 1G15
  20821239.9324  -35475241.86049 -26996803.93647  20821237.5284   20821242.6494
       612.4734        477.2514
  20819853.4064  -32380828.08849 -24910173.10047  20819851.7144   20819856.2684
      1288.7374       1004.2104
  23372770.2014  -29139173.56948 -22679101.36746  23372768.6934   23372775.5624
     -1650.3584      -1285.9934
  23289278.8864  -36811025.08447 -28357906.75845  23289275.9954   23289285.0034
     -1565.4134      -1219.7994
  22719193.9794  -20059513.74348 -15341837.98646  22719191.3794   22719197.5624
      3695.1944       2879.3684
  24216451.6054   -9212824.65848  -6874879.22546  24216449.4084   24216459.2994
      3600.8124       2805.8194
  22943180.6164  -32754315.29847 -25226030.03445  22943179.0684   22943187.1634
     -2759.2804      -2150.0834
 00  7 15  0  2  0.0000000  0  7G11G25G29G21G20G 1G15
  20817807.8594  -35493275.27149 -27010855.94847  20817805.7854   20817811.2004
       588.3454        458.4494
  20812557.2064  -32419171.13049 -24940050.77347  20812555.3344   20812560.0844
      1266.1474        986.6084
  23382204.1134  -29089601.41648 -22640473.77346  23382201.8864   23382208.2914
     -1655.8304      -1290.2574
  23298248.8084  -36763887.34347 -28321176.16945  23298246.7364   23298255.3794
     -1578.4234      -1229.9304
  22698115.6254  -20170275.16348 -15428145.52046  22698113.7964   22698119.9604
      3687.5234       2873.3904
  24195919.1344   -9320722.17647  -6958954.96945  24195916.5944   24195926.5414
      3590.9364       2798.1244
  22958960.8504  -32671396.11847 -25161417.82545  22958957.7994   22958967.0144
     -2770.0354      -2158.4634
 00  7 15  0  2 30.0000000  0  7G11G25G29G21G20G 1G15
  20814483.0414  -35510749.81449 -27024472.47947  20814480.8844   20814485.8104
       572.5234        446.1224
  20805357.7934  -32457002.64149 -24969529.85647  20805356.0044   20805361.0104
      1251.9134        975.5174
  23391636.8574  -29040029.03748 -22601846.01246  23391634.9644   23391642.7224
     -1653.0534      -1288.0904
  23307260.9094  -36716525.64247 -28284271.08345  23307258.5594   23307267.7964
     -1583.0494      -1233.5454
  22677051.9734  -20280969.86248 -15514401.06546  22677049.4404   22677055.6994
      3688.0594       2873.8094
  24175410.7904   -9428488.96547  -7042928.82146  24175409.0164   24175419.2874
      3589.4214       2796.9394
  22974769.1954  -32588320.44347 -25096683.67745  22974766.2974   22974775.3854
     -2772.4184      -2160.3234
 00  7 15  0  3  0.0000000  0  7G11G25G29G21G20G 1G15
  20811278.9704  -35527586.04149 -27037591.61847  20811276.7534   20811281.9924
       552.1724        430.2644
  20798271.7534  -32494242.61449 -24998547.99647  20798269.7644   20798274.4044
      1233.1374        960.8854
  23401085.4994  -28990376.79748 -22563156.02446  23401083.9234   23401090.6084
     -1654.7574      -1289.4224
  23316332.2434  -36668860.26547 -28247129.35545  23316330.2164   23316338.8504
     -1592.2254      -1240.6884
  22656015.8534  -20391516.33048 -15600541.10446  22656013.1774   22656019.3554
      3684.0504       2870.6884
  24154945.0034   -9536044.60748  -7126738.17446  24154942.4324   24154952.0004
      3583.3184       2792.1904
  22990621.6734  -32505010.71147 -25031767.14245  22990619.5084   22990629.4204
     -2779.2204      -2165.6194
 00  7 15  0  3 30.0000000  0  7G11G25G29G21G20G 1G15
  20808177.9314  -35543882.43249 -27050290.11047  20808175.7424   20808180.8174
       533.2944        415.5544
  20791279.3244  -32530989.29749 -25027181.75847  20791277.3394   20791281.7514
      1215.7614        947.3474
  23410530.9294  -28940743.85248 -22524481.07746  23410528.5344   23410535.9074
     -1655.0284      -1289.6334
  23325441.1564  -36620990.22147 -28209828.15245  23325438.6344   23325448.1154
     -1599.9124      -1246.6824
  22634989.0584  -20502011.34448 -15686641.04246  22634986.2624   22634992.5374
      3681.3964       2868.6174
  24134499.3254   -9643487.22448  -7210459.46246  24134496.6994   24134506.6284
      3578.6534       2788.5554
  23006500.6534  -32421567.61847 -24966746.69745  23006498.6814   23006507.4644
     -2784.4974      -2169.7314
 00  7 15  0  4  0.0000000  0  7G11G25G29G21G20G 1G15
  20805183.3564  -35559619.40149 -27062552.69147  20805181.2304   20805186.1704
       514.3934        400.8274
  20784383.6574  -32567222.68449 -25055415.54047  20784381.8744   20784386.6254
      1198.4104        933.8264
  23419975.4624  -28891110.91248 -22485806.13646  23419973.4744   23419981.0564
     -1655.2554      -1289.8094
  23334592.5694  -36572895.36847 -28172351.76345  23334591.0564   23334600.5674
     -1607.7484      -1252.7864
  22613976.6894  -20612433.34248 -15772684.09146  22613974.1934   22613979.8134
      3678.6804       2866.5014
  24114077.9274   -9750796.41147  -7294076.79046  24114075.8934   24114085.6774
      3573.9044       2784.8524
  23022407.8904  -32337974.10247 -24901609.03745  23022405.8074   23022415.1974
     -2789.7834      -2173.8514
 00  7 15  0  4 30.0000000  0  7G11G25G29G21G20G 1G15
  20802304.0054  -35574751.13249 -27074343.65847  20802301.6514   20802306.5154
       493.8004        384.7794
  20777595.2414  -32602896.35649 -25083213.19047  20777593.4594   20777597.9294
      1179.3404        918.9664
  23429428.9804  -28841432.50548 -22447095.76246  23429427.1044   23429434.1284
     -1657.1764      -1291.3054
  23343797.5274  -36524529.63247 -28134664.32245  23343795.4284   23343803.6884
     -1617.2114      -1260.1584
  22592986.7874  -20722735.10248 -15858633.44146  22592984.3184   22592990.3684
      3674.2064       2863.0144
  24093691.9854   -9857925.75248  -7377553.96646  24093689.4564   24093699.2524
      3567.4884       2779.8544
  23038351.9984  -32254186.57347 -24836320.21845  23038349.7124   23038359.6464
     -2796.5794      -2179.1484
 00  7 15  0  5  0.0000000  0  7G11G25G29G21G20G 1G15
  20799539.9024  -35589272.90849 -27085659.33247  20799537.9504   20799542.9404
       474.1704        369.4824
  20770914.4454  -32638005.44349 -25110570.91047  20770912.3674   20770916.9544
      1161.2024        904.8314
  23438892.1364  -28791703.99348 -22408346.34546  23438890.1044   23438896.8454
     -1658.1694      -1292.0794
  23353053.6754  -36475888.10747 -28096761.97445  23353051.1634   23353060.2724
     -1625.6864      -1266.7634
  22572021.7084  -20832909.34048 -15944483.43146  22572019.0674   22572024.9714
      3670.6424       2860.2374
  24073340.9104   -9964869.69448  -7460886.69046  24073338.4984   24073348.3514
      3562.0284       2775.5974
  23054334.2974  -32170202.49247 -24770878.24345  23054331.8674   23054342.1714
     -2802.3964      -2183.6774
 00  7 15  0  5 30.0000000  0  7G11G25G29G21G20G 1G15
  20796889.0864  -35603203.06049 -27096514.00247  20796887.0844   20796892.2554
       453.7274        353.5544
  20764336.8734  -32672568.18849 -25137502.90747  20764335.0884   20764339.9434
      1142.2574        890.0694
  23448361.6104  -28741944.12548 -22369572.49346  23448359.4504   23448365.8174
     -1659.8574      -1293.3914
  23362358.6174  -36426989.49747 -28058659.29645  23362356.2294   23362366.2984
     -1634.9674      -1273.9934
  22551076.6624  -20942972.92848 -16030247.20046  22551074.2454   22551080.2374
      3666.1934       2856.7734
  24053022.2564  -10071645.84548  -7544088.66146  24053019.8154   24053029.9274
      3555.7084       2770.6724
  23070349.6344  -32086042.56947 -24705299.24345  23070347.7094   23070357.0004
     -2808.9564      -2188.7874
 00  7 15  0  6  0.0000000  0  7G11G25G29G21G20G 1G15
  20794332.5584  -35616638.43149 -27106983.13147  20794330.4624   20794335.8954
       434.3474        338.4524
  20757846.0894  -32706680.50649 -25164083.92247  20757844.1684   20757848.8224
      1124.3344        876.1044
  23457818.4074  -28692249.78148 -22330849.69846  23457815.9614   23457822.6614
     -1660.6224      -1293.9884
  23371694.0024  -36377930.68647 -28020431.77845  23371691.6914   23371701.9164
     -1643.1824      -1280.3934
  22530135.9254  -21053020.58348 -16115998.55146  22530133.0034   22530139.1014
      3662.7284       2854.0724
  24032717.4024  -10178350.31648  -7627234.78146  24032714.6984   24032724.2364
      3550.4024       2766.5424
  23086379.5594  -32001805.44347 -24639660.08645  23086376.9324   23086386.6064
     -2814.3934      -2193.0294
 00  7 15  0  6 30.0000000  0  7G11G25G29G21G20G 1G15
  20791911.0684  -35629365.28349 -27116900.16847  20791908.7364   20791913.6294
       413.8864        322.5104
  20751481.2324  -32740128.57549 -25190147.34047  20751479.4104   20751483.9984
      1105.3604        861.3194
  23467302.7094  -28642407.59148 -22292011.70646  23467300.5574   23467307.2914
     -1662.3624      -1295.3404
  23381102.1864  -36328497.57247 -27981912.61945  23381099.4994   23381108.9284
     -1652.5204      -1287.6764
  22509238.1564  -21162836.57948 -16201569.38146  22509235.5704   22509242.1354
      3658.1464       2850.5034
  24012465.2614  -10284768.61048  -7710157.93046  24012463.3084   24012473.3344
      3543.9984       2761.5514
  23102464.3414  -31917279.89147 -24573796.17745  23102461.9804   23102471.3274
     -2820.7824      -2197.9974
 00  7 15  0  6 59.9990000  0  7G11G25G29G21G20G 1G15
  20789579.3964  -35641617.35749 -27126447.24447  20789577.2484   20789582.4024
       401.4694        312.8334
  20745198.3034  -32773144.82249 -25215874.27347  20745196.3564   20745201.1814
      1094.4064        852.7844
  23476770.6974  -28592653.12948 -22253242.07546  23476768.4404   23476775.6534
     -1656.1054      -1290.4664
  23390533.9844  -36278925.28347 -27943285.02245  23390531.6104   23390541.5014
     -1653.7764      -1288.6454
  22488341.2554  -21272649.10948 -16287137.51846  22488338.9324   22488345.5114
      3661.5454       2853.1494
  23992225.3794  -10391130.27748  -7793036.95646  23992223.1084   23992233.5114
      3545.6214       2762.8184
  23118559.5654  -31832704.59947 -24507893.50545  23118556.5244   23118565.2784
     -2819.1314      -2196.7234
 00  7 15  0  7 29.9990000  0  7G11G25G29G21G20G 1G15
  20787351.8114  -35653325.21749 -27135570.26147  20787349.5434   20787354.6424
       377.8644        294.4404
  20739010.4264  -32805660.93249 -25241211.48947  20739008.8094   20739013.5454
      1072.2584        835.5254
  23486235.7714  -28542913.08848 -22214483.68246  23486233.7414   23486241.1224
     -1661.0044      -1294.2864
  23400009.2484  -36229140.73847 -27904492.01645  23400005.9634   23400015.2354
     -1666.2774      -1298.3954
  22467457.2844  -21382393.47948 -16372652.56746  22467454.9054   22467461.4254
      3653.6234       2846.9774
  23972008.6984  -10497371.34948  -7875822.01046  23972006.5424   23972016.5284
      3536.0264       2755.3394
  23134677.7884  -31748006.05347 -24441894.78245  23134674.1384   23134683.5034
     -2828.5744      -2204.0774
 00  7 15  0  7 59.9990000  0  7G11G25G29G21G20G 1G15
  20785251.5024  -35664359.04449 -27144168.05847  20785249.6474   20785254.8584
       353.6364        275.5614
  20732943.0414  -32837545.85049 -25266056.86547  20732941.3354   20732945.8974
      1049.4484        817.7514
  23495722.5794  -28493059.89848 -22175637.12346  23495720.4494   23495727.9724
     -1666.5624      -1298.6144
  23409547.0234  -36179015.53447 -27865433.55845  23409544.9294   23409555.3564
     -1679.4194      -1308.6344
  22446613.6634  -21491934.39948 -16458009.06646  22446610.8974   22446616.7504
      3645.0724       2840.3154
  23951839.5804  -10603358.10548  -7958408.89846  23951837.4844   23951847.7524
      3525.7574       2747.3354
  23150841.4764  -31663059.61047 -24375702.91545  23150838.8754   23150848.3764
     -2838.5304      -2211.8414
 00  7 15  0  8 29.9990000  0  7G11G25G29G21G20G 1G15
  20783274.2444  -35674753.60049 -27152267.72347  20783271.9324   20783276.6174
       336.7174        262.3774
  20726989.5124  -32868834.13349 -25290437.32947  20726987.4914   20726991.9554
      1033.9274        805.6574
  23505224.0084  -28443128.30448 -22136729.47446  23505221.9644   23505229.9324
     -1664.7994      -1297.2424
  23419144.1574  -36128584.33547 -27826136.66245  23419142.1974   23419150.9504
     -1685.1634      -1313.1064
  22425801.1884  -21601304.45748 -16543232.42646  22425798.4114   22425803.5044
      3643.7084       2839.2524
  23931713.3244  -10709124.52348  -8040824.08646  23931710.4414   23931720.5784
      3522.7914       2745.0214
  23167045.3794  -31577902.15047 -24309346.62645  23167043.3474   23167053.5954
     -2841.1264      -2213.8574
 00  7 15  0  8 59.9990000  0  7G11G25G29G21G20G 1G15
  20781390.5934  -35684650.90849 -27159979.92047  20781388.5294   20781393.0844
       322.4234        251.2394
  20721121.8054  -32899667.59349 -25314463.39147  20721119.9164   20721124.5934
      1021.0144        795.5954
  23514713.1604  -28393260.28048 -22097871.35246  23514711.5244   23514719.1784
     -1660.4044      -1293.8184
  23428772.8744  -36077988.60247 -27786711.56045  23428770.3334   23428779.1684
     -1688.3994      -1315.6274
  22404993.7984  -21710643.24948 -16628431.43446  22404991.3144   22404996.3114
      3644.9404       2840.2104
  23911601.2164  -10814811.45248  -8123177.35946  23911598.8584   23911608.7664
      3522.4424       2744.7544
  23183263.2624  -31492677.64947 -24242938.08645  23183260.7384   23183271.3444
     -2841.0424      -2213.7914
 00  7 15  0  9 29.9990000  0  7G11G25G29G21G20G 1G15
  20779606.7764  -35694025.60249 -27167284.88747  20779604.6124   20779609.1534
       300.7624        234.3604
  20715346.2644  -32930020.07649 -25338114.66147  20715344.2284   20715348.7144
      1000.7494        779.8034
  23524196.4134  -28343430.21548 -22059042.79946  23524194.4484   23524201.5114
     -1663.3884      -1296.1424
  23438436.7624  -36027203.39647 -27747138.81845  23438434.2444   23438443.2114
     -1698.9334      -1323.8284
  22384198.5764  -21819923.31848 -16713584.69046  22384196.0944   22384201.1584
      3638.6714       2835.3274
  23891509.3724  -10920392.84848  -8205448.38946  23891507.1464   23891517.0414
      3514.6224       2738.6564
  23199497.7994  -31407362.85347 -24176459.19545  23199495.7154   23199505.7344
     -2848.3024      -2219.4534
 00  7 15  0  9 59.9990000  0  7G11G25G29G21G20G 1G15
  20777951.5824  -35702723.23649 -27174062.27847  20777949.4604   20777953.9444
       277.7884        216.4614
  20709691.2484  -32959736.85349 -25361270.57647  20709689.2184   20709693.8094
       979.1624        762.9834
  23533701.0284  -28293484.07248 -22020123.79746  23533699.1324   23533706.2684
     -1667.6364      -1299.4584
  23448165.6904  -35976073.91347 -27707297.79045  23448163.3514   23448173.5864
     -1710.8454      -1333.1234
  22363444.0574  -21928988.19548 -16798570.25246  22363441.2764   22363447.0334
      3631.0844       2829.4154
  23871467.0834  -11025713.34648  -8287516.14046  23871464.8744   23871474.9044
      3505.5154       2731.5654
  23215778.6904  -31321805.32047 -24109791.15845  23215776.9054   23215787.4874
     -2856.7624      -2226.0414
 00  7 15  0 10 29.9990000  0  7G11G25G29G21G20G 1G15
  20776406.9564  -35710840.49049 -27180387.41947  20776404.8244   20776409.5664
       260.2774        202.8144
  20704138.8294  -32988914.14049 -25384006.11347  20704136.9284   20704141.5564
       962.9874        750.3794
  23543208.9314  -28243517.90048 -21981189.17846  23543207.4614   23543214.5994
     -1666.4754      -1298.5514
  23457942.3804  -35924696.27947 -27667263.40545  23457941.4454   23457950.3644
     -1717.3514      -1338.1954
  22342713.1494  -22037932.02948 -16883461.50146  22342710.3414   22342715.9364
      3628.8204       2827.6504
  23851457.1224  -11130868.51648  -8369455.07246  23851455.1694   23851464.3044
      3501.7814       2728.6544
  23232087.3854  -31236103.29547 -24043010.53645  23232085.5904   23232095.3684
     -2859.7384      -2228.3584
 00  7 15  0 10 59.9990000  0  7G11G25G29G21G20G 1G15
  20774954.5434  -35718473.86949 -27186335.52247  20774952.3744   20774956.9104
       246.1134        191.7774
  20698671.0474  -33017648.17749 -25406396.26347  20698668.8234   20698673.5914
       950.1764        740.3964
  23552703.9614  -28193628.39047 -21942314.30446  23552701.3204   23552708.3714
     -1661.9774      -1295.0494
  23467750.1554  -35873166.56847 -27627110.51845  23467747.5754   23467756.3554
     -1720.4294      -1340.5934
  22321985.7054  -22146849.12048 -16968331.91946  22321983.5814   22321989.5244
      3629.8814       2828.4774
  23831459.4704  -11235953.94248  -8451339.66546  23831457.6654   23831467.3544
      3501.4594       2728.4094
  23248405.1664  -31150355.62847 -23976194.34545  23248402.8564   23248413.6734
     -2859.2134      -2227.9514
 00  7 15  0 11 29.9990000  0  7G11G25G29G21G20G 1G15
  20773611.4564  -35725532.01149 -27191835.38247  20773609.2364   20773613.6544
       230.2644        179.4264
  20693304.4804  -33045847.28749 -25428369.58447  20693302.8914   20693307.6054
       935.6284        729.0614
  23562199.4574  -28143724.18147 -21903427.97746  23562197.3454   23562204.9754
     -1659.1794      -1292.8644
  23477601.1664  -35821394.04147 -27586768.42845  23477599.1324   23477608.7104
     -1725.2424      -1344.3354
  22301282.9694  -22255645.91148 -17053108.58746  22301280.3174   22301286.3264
      3629.0924       2827.8614
  23811493.6124  -11340877.48548  -8533098.13446  23811491.5714   23811500.4344
      3499.3344       2726.7524
  23264748.7154  -31064472.93747 -23909272.94945  23264746.6904   23264755.6754
     -2860.4134      -2228.8904
 00  7 15  0 11 59.9990000  0  7G11G25G29G21G20G 1G15
  20772379.5394  -35732003.87749 -27196878.40747  20772377.4804   20772382.4074
       208.4784        162.4524
  20688042.7974  -33073499.80849 -25449916.99247  20688040.9974   20688045.5734
       915.2044        713.1454
  23571700.9474  -28093793.71648 -21864521.20146  23571698.7944   23571706.5804
     -1662.2944      -1295.2904
  23487501.4404  -35769366.35347 -27546227.50345  23487499.1604   23487508.2254
     -1735.9564      -1352.6854
  22280604.6114  -22364308.94448 -17137781.03646  22280602.4174   22280608.4054
      3622.3764       2822.6294
  23791560.0394  -11445626.78548  -8614720.82946  23791557.8904   23791567.4094
      3491.2844       2720.4744
  23281119.9974  -30978445.64747 -23842238.86145  23281117.9824   23281126.3334
     -2867.4074      -2234.3464
 00  7 15  0 12 29.9990000  0  7G11G25G29G21G20G 1G15
  20771264.0264  -35737869.16349 -27201448.77947  20771261.7424   20771266.2564
       184.3414        143.6434
  20682888.5924  -33100584.81649 -25471022.18147  20682886.7174   20682891.2244
       892.3724        695.3544
  23581211.5164  -28043816.42948 -21825577.93146  23581209.8314   23581216.5404
     -1667.7534      -1299.5454
  23497454.9004  -35717063.15747 -27505471.90845  23497452.3404   23497462.0994
     -1749.0604      -1362.8934
  22259957.0244  -22472815.27748 -17222331.37946  22259954.2604   22259960.0954
      3613.2224       2815.4974
  23771664.3724  -11550180.65448  -8696191.23046  23771661.8584   23771670.9394
      3480.8644       2712.3594
  23297521.7784  -30892255.42347 -23775077.81245  23297519.2054   23297528.7774
     -2876.7514      -2241.6164
 00  7 15  0 12 59.9990000  0  7G11G25G29G21G20G 1G15
  20770270.9724  -35743087.93749 -27205515.37147  20770268.6164   20770272.9834
       165.9724        129.3294
  20677849.8314  -33127062.22949 -25491653.91947  20677847.8954   20677852.7524
       875.2744        682.0314
  23590739.0154  -27993752.30648 -21786566.99246  23590736.4214   23590743.8544
     -1667.4744      -1299.3274
  23507468.9034  -35664444.00747 -27464470.13345  23507466.1834   23507476.3484
     -1756.4234      -1368.6394
  22239346.6704  -22581122.54048 -17306726.59546  22239344.2894   22239349.9984
      3609.6974       2812.7494
  23751813.2914  -11654497.94448  -8777477.28146  23751810.6724   23751819.7424
      3476.1064       2708.6484
  23313961.2904  -30805864.21147 -23707760.15845  23313958.8074   23313968.3634
     -2880.3164      -2244.3964
 00  7 15  0 13 29.9990000  0  7G11G25G29G21G20G 1G15
  20769367.1654  -35747833.54549 -27209213.26247  20769365.2594   20769369.9514
       149.1634        116.2314
  20672894.0674  -33153104.76749 -25511946.80347  20672892.2444   20672897.0374
       859.7204        669.9124
  23600249.3644  -27943774.38848 -21747623.22646  23600247.3574   23600254.1794
     -1665.6524      -1297.9134
  23517507.6654  -35611681.78947 -27423356.85545  23517506.4404   23517516.2074
     -1762.2214      -1373.1554
  22218742.0424  -22689401.59748 -17391099.83846  22218739.5304   22218744.8784
      3607.6674       2811.1684
  23731974.7254  -11758751.11748  -8858713.34446  23731972.3354   23731981.3114
      3472.9004       2706.1514
  23330405.5084  -30719447.22047 -23640422.43245  23330403.0484   23330413.4704
     -2882.1384      -2245.8174
 00  7 15  0 13 59.9990000  0  7G11G25G29G21G20G 1G15
  20768577.5784  -35751988.04549 -27212450.55347  20768575.2224   20768579.5154
       129.7064        101.0704
  20668043.6034  -33178594.32349 -25531808.78947  20668041.8304   20668046.5234
       841.5204        655.7294
  23609765.5384  -27893764.40748 -21708654.47446  23609763.6744   23609770.8934
     -1666.4744      -1298.5454
  23527599.2384  -35558659.12447 -27382040.63645  23527596.7024   23527606.6594
     -1770.6674      -1379.7284
  22198165.6984  -22797532.08648 -17475357.31846  22198163.0124   22198168.1004
      3602.9304       2807.4764
  23712169.8864  -11862821.13048  -8939806.69846  23712167.7594   23712177.8094
      3467.0614       2701.5984
  23346877.4084  -30632888.31647 -23572974.11945  23346875.4354   23346885.2554
     -2886.5244      -2249.2394
 00  7 15  0 14 29.9990000  0  7G11G25G29G21G20G 1G15
  20767884.6614  -35755628.29649 -27215287.13147  20767882.3984   20767886.7264
       107.3424         83.6444
  20663283.9824  -33203607.14249 -25551299.28847  20663282.1784   20663286.7644
       820.4344        639.2984
  23619273.6124  -27843798.89248 -21669720.38146  23619271.5744   23619278.6484
     -1670.1644      -1301.4234
  23537723.9204  -35505451.84947 -27340580.56445  23537723.1714   23537731.1384
     -1782.0724      -1388.6224
  22177603.0304  -22905588.42248 -17559557.01146  22177600.4124   22177605.5994
      3595.2184       2801.4664
  23692386.4374  -11966783.65848  -9020816.28946  23692384.5894   23692394.4324
      3458.2404       2694.7294
  23363361.3454  -30546265.94847 -23505476.36145  23363359.3334   23363369.9464
     -2893.8694      -2254.9524
 00  7 15  0 14 59.9990000  0  7G11G25G29G21G20G 1G15
  20767302.3604  -35758687.19949 -27217670.71047  20767300.1464   20767304.7814
        93.9994         73.2474
  20658627.8954  -33228075.63849 -25570365.64047  20658625.9184   20658630.5004
       808.3134        629.8544
  23628786.3434  -27793809.94248 -21630768.02746  23628784.0914   23628791.3514
     -1664.8854      -1297.3144
  23547897.9894  -35451992.03247 -27298923.70045  23547895.5384   23547904.8044
     -1784.4394      -1390.4604
  22157068.1264  -23013500.65748 -17643644.41346  22157065.3764   22157070.4954
      3596.4184       2802.4004
  23672636.4094  -12070570.33648  -9101688.88146  23672634.2994   23672644.6114
      3458.4394       2694.8834
  23379869.9644  -30459514.79647 -23437878.25345  23379867.0844   23379878.1254
     -2892.0724      -2253.5564
 00  7 15  0 15 29.9990000  0  7G11G25G29G21G20G 1G15
  20766831.5344  -35761160.93449 -27219598.31747  20766829.4164   20766834.2414
        71.7374         55.8994
  20654076.2404  -33251995.29249 -25589004.32547  20654074.4524   20654078.7724
       787.2344        613.4294
  23638304.1894  -27743793.88448 -21591794.55746  23638301.9444   23638309.3454
     -1668.5864      -1300.1994
  23558117.8774  -35398275.62547 -27257066.89345  23558116.4254   23558126.1454
     -1795.7304      -1399.2554
  22136561.5454  -23121262.49848 -17727614.63446  22136558.9344   22136564.0044
      3588.5854       2796.2994
  23652920.6984  -12174176.13048  -9182420.50946  23652918.4754   23652928.0524
      3449.5424       2687.9544
  23396403.0434  -30372632.97547 -23370178.32345  23396400.7794   23396412.1444
     -2899.1314      -2259.0594
 00  7 15  0 15 59.9990000  0  7G11G25G29G21G20G 1G15
  20766468.2294  -35763069.61549 -27221085.61947  20766466.1504   20766471.0874
        52.4494         40.8704
  20649624.9144  -33275385.90249 -25607230.76347  20649623.1064   20649627.4424
       769.1604        599.3444
  23647822.7274  -27693770.00447 -21552814.98746  23647821.2754   23647828.8134
     -1669.3104      -1300.7554
  23568387.2214  -35344322.70847 -27215025.77745  23568383.7544   23568393.4954
     -1804.0874      -1405.7714
  22116079.8894  -23228891.47248 -17811481.32546  22116077.3244   22116082.8594
      3583.6694       2792.4684
  23633236.3554  -12277620.00848  -9263025.96346  23633233.9094   23633243.5294
      3443.7254       2683.4164
  23412956.8484  -30285642.00347 -23302393.34045  23412954.9014   23412965.9224
     -2903.1704      -2262.1984
 00  7 15  0 16 29.9990000  0  7G11G25G29G21G20G 1G15
  20766232.6564  -35764307.59049 -27222050.29347  20766230.6154   20766235.3174
        31.1824         24.2994
  20645294.7874  -33298141.84549 -25624962.65847  20645292.8084   20645297.3594
       749.0684        583.6904
  23657363.7344  -27643632.42047 -21513746.81146  23657362.1024   23657369.3744
     -1672.0824      -1302.9184
  23578718.4254  -35290027.22347 -27172717.74145  23578715.5214   23578725.3604
     -1814.4824      -1413.8644
  22095644.7364  -23336279.17348 -17895160.00846  22095642.4304   22095647.9084
      3576.6374       2786.9884
  23613602.9774  -12380795.37148  -9343422.16146  23613600.6824   23613608.9814
      3435.8164       2677.2554
  23429550.9484  -30198437.89447 -23234442.27745  23429548.5604   23429560.6014
     -2909.2124      -2266.9134
 00  7 15  0 16 59.9990000  0  7G11G25G29G21G20G 1G15
  20766092.3354  -35765045.64149 -27222625.41447  20766090.1944   20766095.0224
        16.5654         12.9094
  20641053.0464  -33320433.02249 -25642332.40047  20641051.0254   20641055.7524
       735.6334        573.2214
  23666895.4574  -27593551.46447 -21474722.76145  23666892.5214   23666899.6444
     -1668.1184      -1299.8294
  23589083.1534  -35235559.74647 -27130275.66745  23589080.9334   23589091.1504
     -1818.1194      -1416.7154
  22075223.8614  -23443593.92648 -17978781.85046  22075221.1174   22075226.7624
      3576.2304       2786.6704
  23593987.3044  -12483871.83548  -9423741.28346  23593985.2334   23593994.6654
      3434.5234       2676.2444
  23446152.3144  -30111193.20547 -23166459.60245  23446150.6134   23446162.5494
     -2908.5104      -2266.3654
 00  7 15  0 17 29.9990000  0  7G11G25G29G21G20G 1G15
  20766050.1604  -35765266.03149 -27222797.16947  20766048.0984   20766053.1924
        -0.9664         -0.7524
  20636902.4704  -33342241.37549 -25659325.91947  20636900.6724   20636905.3834
       719.2534        560.4574
  23676417.4674  -27543508.57147 -21435728.38045  23676415.1954   23676422.9634
     -1667.1214      -1299.0544
  23599483.2774  -35180901.26047 -27087684.76545  23599481.7884   23599492.3214
     -1824.8164      -1421.9284
  22054820.3074  -23550815.02048 -18062330.70746  22054817.8484   22054823.3244
      3572.7514       2783.9624
  23574395.4014  -12586830.37048  -9503968.52946  23574392.8674   23574401.9914
      3430.2884       2672.9484
  23462766.3434  -30023891.70147 -23098432.67945  23462762.9944   23462775.7784
     -2910.6494      -2268.0274
 00  7 15  0 17 59.9990000  0  7G11G25G29G21G20G 1G15
  20766094.3854  -35765034.63549 -27222616.88547  20766092.2154   20766097.0564
       -16.8324        -13.1154
  20632832.1104  -33363632.14749 -25675994.04347  20632830.3174   20632834.9844
       704.5074        548.9664
  23685920.7334  -27493569.24647 -21396814.70445  23685918.6834   23685925.5784
     -1664.4894      -1297.0044
  23609908.7204  -35126117.10647 -27044995.92845  23609906.7914   23609916.7994
     -1829.7904      -1425.8074
  22034422.0644  -23658005.53748 -18145855.73546  22034419.6904   22034425.4104
      3570.9374       2782.5474
  23554812.8634  -12689735.55348  -9584154.21346  23554810.3844   23554818.9594
      3427.7354       2670.9584
  23479377.6754  -29936600.74847 -23030413.94245  23479375.2034   23479386.7404
     -2911.0444      -2268.3424
 00  7 15  0 18 29.9990000  0  7G11G25G29G21G20G 1G15
  20766240.0964  -35764269.91949 -27222021.02647  20766237.8544   20766242.6754
       -34.0284        -26.5154
  20628856.8004  -33384523.48949 -25692273.00747  20628854.8964   20628859.6404
       688.4414        536.4474
  23695420.2874  -27443651.23247 -21357917.61245  23695418.2654   23695424.8234
     -1663.2224      -1296.0154
  23620374.9934  -35071125.62647 -27002145.56145  23620372.3384   23620381.6144
     -1836.1984      -1430.8014
  22014046.2044  -23765081.30048 -18229291.34946  22014043.8784   22014049.7364
      3567.6274       2779.9664
  23535256.8144  -12792504.69448  -9664233.90746  23535254.5174   23535263.2744
      3423.7474       2667.8464
  23496001.3884  -29849240.61547 -22962341.30945  23495998.9514   23496010.6354
     -2912.7414      -2269.6584
 00  7 15  0 18 59.9990000  0  7G11G25G29G21G20G 1G15
  20766516.7574  -35762816.05649 -27220888.16747  20766514.5704   20766519.8584
       -63.0214        -49.1064
  20625006.2754  -33404758.66349 -25708040.67147  20625004.3244   20625009.2024
       660.5324        514.6994
  23704945.0714  -27393598.04647 -21318915.20745  23704942.6704   23704950.1984
     -1673.7844      -1304.2464
  23630909.0034  -35015769.90647 -26959011.39145  23630905.4844   23630916.1694
     -1854.3314      -1444.9244
  21993722.5024  -23871883.33348 -18312513.66746  21993720.1904   21993725.3404
      3552.4324       2768.1274
  23515755.7294  -12894980.53748  -9744085.06846  23515753.2164   23515762.2894
      3407.9124       2655.5094
  23512668.7224  -29761656.57747 -22894094.20545  23512666.5824   23512678.6304
     -2926.2744      -2280.2084
 00  7 15  0 19 29.9990000  0  7G11G25G29G21G20G 1G15
  20766905.4384  -35760773.74249 -27219296.77947  20766903.2114   20766908.4284
       -75.9784        -59.2034
  20621261.1894  -33424438.13649 -25723375.32147  20621259.3154   20621264.3004
       648.6544        505.4464
  23714476.4924  -27343509.58047 -21279885.31545  23714474.2124   23714482.0484
     -1668.3014      -1299.9734
  23641491.9634  -34960150.59847 -26915671.81245  23641489.6794   23641499.8044
     -1856.4314      -1446.5674
  21973432.6814  -23978509.69948 -18395599.10646  21973430.0294   21973435.0784
      3553.1754       2768.7084
  23496292.8934  -12997262.48948  -9823785.15046  23496290.3244   23496298.8574
      3408.0844       2655.6444
  23529358.5664  -29673950.92547 -22825752.35545  23529356.3084   23529368.0314
     -2923.6244      -2278.1384
 00  7 15  0 19 59.9990000  0  7G11G25G29G21G20G 1G15
  20767402.0634  -35758161.79349 -27217261.51947  20767399.9644   20767405.1894
       -96.7504        -75.3894
  20617618.4884  -33443580.43949 -25738291.39847  20617616.5224   20617621.2814
       628.9694        490.1064
  23724011.1234  -27293404.46647 -21240842.45245  23724009.0414   23724017.3044
     -1670.6674      -1301.8154
  23652122.2634  -34904286.10547 -26872141.17945  23652119.7224   23652131.5364
     -1866.4414      -1454.3634
  21953172.6084  -24084976.40848 -18478560.13646  21953170.1294   21953175.1944
      3546.0474       2763.1524
  23476862.3274  -13099368.12248  -9903347.81646  23476859.8574   23476868.2174
      3400.3764       2649.6354
  23546067.8174  -29586144.06647 -22757331.62545  23546065.4754   23546076.5044
     -2928.7354      -2282.1234
 00  7 15  0 20 29.9990000  0  7G11G25G29G21G20G 1G15
  20767985.1974  -35755098.34349 -27214874.44047  20767983.0444   20767988.4624
      -108.4724        -84.5234
  20614056.0234  -33462302.93949 -25752880.35347  20614054.0004   20614058.3184
       618.2844        481.7804
  23733525.5894  -27243399.66047 -21201877.76145  23733524.0684   23733532.3654
     -1663.9494      -1296.5834
  23662776.4674  -34848293.72947 -26828510.90845  23662774.9114   23662786.5134
     -1867.2904      -1455.0314
  21932921.2754  -24191398.44648 -18561486.36046  21932918.7854   21932923.2744
      3547.8204       2764.5334
  23457443.1654  -13201414.04548  -9982863.99346  23457441.1864   23457448.7914
      3401.7584       2650.7164
  23562774.2604  -29498355.29447 -22688925.00245  23562771.6644   23562782.3254
     -2924.7354      -2279.0124
 00  7 15  0 20 59.9990000  0  7G11G25G29G21G20G 1G15
  20768673.6914  -35751482.39449 -27212056.84347  20768671.4124   20768676.8324
      -134.8644       -105.0884
  20610592.1424  -33480504.39249 -25767063.29547  20610590.2894   20610594.9874
       592.9204        462.0154
  23743042.1614  -27193393.49747 -21162911.99845  23743040.6024   23743048.1794
     -1672.0114      -1302.8664
  23673476.3604  -34792072.05347 -26784701.94945  23673474.1774   23673484.3954
     -1882.9414      -1467.2274
  21912697.9944  -24297671.89848 -18644296.80146  21912695.4424   21912700.2004
      3534.8384       2754.4194
  23438055.1354  -13303298.13348 -10062254.09146  23438053.0824   23438061.2354
      3388.3124       2640.2414
  23579495.2304  -29410485.40547 -22620455.16045  23579493.0774   23579503.7054
     -2935.4394      -2287.3504
 00  7 15  0 21 29.9990000  0  7G11G25G29G21G20G 1G15
  20769503.1624  -35747123.03049 -27208659.96347  20769500.8464   20769506.2964
      -156.2884       -121.7814
  20607264.3294  -33497993.22349 -25780690.94447  20607262.3284   20607266.9934
       572.5234        446.1214
  23752594.7484  -27143194.53847 -21123796.00545  23752593.5384   23752600.3694
     -1675.0864      -1305.2574
  23684257.0114  -34735429.67747 -26740565.16245  23684253.5824   23684263.7014
     -1893.6594      -1475.5674
  21892540.0964  -24403603.12648 -18726840.56846  21892537.4024   21892542.5224
      3526.7474       2748.1134
  23418734.9944  -13404827.91848 -10141368.07346  23418732.8454   23418741.2204
      3379.8544       2633.6464
  23596267.3604  -29322344.86447 -22551774.44745  23596265.0464   23596276.1924
     -2941.0804      -2291.7434
 00  7 15  0 21 59.9990000  0  7G11G25G29G21G20G 1G15
  20770421.6504  -35742295.18149 -27204898.03247  20770419.5534   20770424.7044
      -173.6064       -135.2774
  20604019.3354  -33515044.05249 -25793977.29947  20604017.4784   20604022.2564
       556.2134        433.4134
  23762131.8804  -27093076.57947 -21084743.14145  23762129.8984   23762137.2014
     -1674.1124      -1304.5014
  23695063.3694  -34678640.56747 -26696314.03545  23695060.9724   23695071.3774
     -1900.2994      -1480.7424
  21872394.9164  -24509463.75648 -18809329.32846  21872392.5484   21872397.7084
      3522.6394       2744.9124
  23399429.4614  -13506277.09148 -10220419.21346  23399426.9574   23399436.2704
      3375.4274       2630.1994
  23613039.6184  -29234210.01647 -22483098.15045  23613036.4584   23613047.4144
     -2942.5674      -2292.9004
 00  7 15  0 22 29.9990000  0  7G11G25G29G21G20G 1G15
  20771451.6894  -35736880.03049 -27200678.45647  20771449.7454   20771455.1054
      -190.0574       -148.0964
  20600880.4974  -33531537.63349 -25806829.43747  20600878.7504   20600883.5964
       540.7684        421.3784
  23771676.9154  -27042920.10447 -21045660.25745  23771674.2244   23771682.5444
     -1672.2864      -1303.0764
  23705920.3694  -34621585.38247 -26651855.61145  23705917.8904   23705926.7234
     -1905.9794      -1485.1734
  21852287.1914  -24615131.96848 -18891668.14446  21852284.7434   21852290.2884
      3519.2744       2742.2904
  23380161.7984  -13607525.25848 -10299313.72946  23380159.8734   23380168.8634
      3371.8314       2627.3944
  23629833.2714  -29145963.29747 -22414334.69445  23629829.9064   23629841.6164
     -2943.0874      -2293.3094
 00  7 15  0 22 59.9990000  0  7G11G25G29G21G20G 1G15
  20772577.3074  -35730966.29649 -27196070.37847  20772575.2724   20772580.5664
      -202.6514       -157.9094
  20597831.8324  -33547561.67749 -25819315.69947  20597829.8574   20597834.4424
       529.0924        412.2804
  23781212.3414  -26992812.94147 -21006615.81145  23781210.2444   23781217.6804
     -1666.6314      -1298.6704
  23716810.9524  -34564352.00247 -26607258.34445  23716808.2544   23716818.6624
     -1907.9014      -1486.6774
  21832199.5504  -24720693.65748 -18973923.95846  21832196.6914   21832202.7214
      3519.7144       2742.6344
  23360916.9894  -13708659.96948 -10378119.84446  23360914.7034   23360923.3564
      3372.0714       2627.5884
  23646629.7374  -29057694.67347 -22345554.17745  23646626.8424   23646638.9114
     -2939.8064      -2290.7444
 00  7 15  0 23 29.9990000  0  7G11G25G29G21G20G 1G15
  20773803.1054  -35724524.39349 -27191050.74547  20773801.1344   20773806.3834
      -228.7874       -178.2754
  20594877.5024  -33563086.24449 -25831412.75847  20594875.6534   20594880.3424
       503.9694        392.7044
  23790744.2924  -26942724.40747 -20967585.87145  23790741.9944   23790749.2914
     -1674.5774      -1304.8654
  23727742.8004  -34506910.26247 -26562498.71845  23727740.1484   23727749.1204
     -1923.4534      -1498.8004
  21812137.6194  -24826115.71448 -19056070.96846  21812135.3024   21812141.0344
      3506.4744       2732.3154
  23341699.9304  -13809649.94048 -10456813.19746  23341697.2874   23341705.5554
      3358.7284       2617.1854
  23663435.9924  -28969375.70047 -22276734.42645  23663433.1514   23663444.9244
     -2949.9654      -2298.6734
 00  7 15  0 23 59.9990000  0  7G11G25G29G21G20G 1G15
  20775148.5664  -35717456.22949 -27185543.11247  20775146.4514   20775151.1914
      -246.1184       -191.7794
  20592037.0554  -33578013.13049 -25843044.09347  20592035.1174   20592039.7604
       487.5534        379.9114
  23800290.6004  -26892555.89547 -20928493.60445  23800289.2234   23800296.3024
     -1673.6914      -1304.1634
  23738730.5544  -34449161.84647 -26517500.12145  23738728.9364   23738738.2084
     -1930.1094      -1503.9784
  21792122.4404  -24931297.29348 -19138030.59646  21792119.9464   21792125.7764
      3501.9404       2728.7814
  23322527.3554  -13910395.74248 -10535316.24946  23322525.3394   23322534.3224
      3354.0364       2613.5274
  23680270.4044  -28880909.84247 -22207800.22545  23680268.3654   23680279.2154
     -2951.2294      -2299.6564
 00  7 15  0 24 29.9990000  0  7G11G25G29G21G20G 1G15
  20776572.3614  -35709973.90949 -27179712.76347  20776570.2994   20776575.1884
      -259.4524       -202.1704
  20589269.5774  -33592553.60749 -25854374.33347  20589268.0534   20589272.7654
       475.1474        370.2454
  23809812.6694  -26842518.45147 -20889503.46245  23809810.4844   23809817.9724
     -1668.8294      -1300.3834
  23749738.3184  -34391318.24547 -26472427.32945  23749736.9244   23749746.2904
     -1932.8474      -1506.1114
  21772113.6774  -25036447.35248 -19219965.66446  21772110.9964   21772116.1534
      3501.3224       2728.3004
  23303361.7814  -14011108.12748 -10613793.26946  23303359.6714   23303368.8884
      3353.3774       2613.0164
  23697092.9914  -28792510.45747 -22138917.80845  23697090.6904   23697101.8604
     -2948.6044      -2297.6044
 00  7 15  0 24 59.9990000  0  7G11G25G29G21G20G 1G15
  20778102.8524  -35701933.23349 -27173447.32647  20778100.4324   20778105.3324
      -273.7254       -213.2914
  20586604.2034  -33606562.65749 -25865290.47047  20586602.2764   20586606.9134
       461.7354        359.7924
  23819336.5444  -26792466.76447 -20850502.23545  23819334.7804   23819342.8404
     -1664.9814      -1297.3854
  23760790.8874  -34333233.99047 -26427167.06045  23760788.0474   23760799.3014
     -1936.5044      -1508.9554
  21752138.0404  -25141418.36748 -19301761.22046  21752135.4464   21752140.5264
      3499.6614       2727.0084
  23284231.7844  -14111641.25548 -10692130.62846  23284229.2474   23284238.0704
      3351.7254       2611.7274
  23713928.7314  -28704034.59547 -22069975.79645  23713927.0344   23713938.1424
     -2946.7524      -2296.1624
 00  7 15  0 25 29.9990000  0  7G11G25G29G21G20G 1G15
  20779725.4254  -35693405.64049 -27166802.47847  20779723.2284   20779728.3904
      -294.0884       -229.1574
  20584025.7454  -33620111.55549 -25875848.04447  20584024.0354   20584028.5734
       442.2634        344.6204
  23828850.3184  -26742471.26047 -20811544.78845  23828848.8384   23828856.4954
     -1667.3004      -1299.1954
  23771878.0144  -34274979.85147 -26381774.41545  23771876.9514   23771885.7594
     -1946.3324      -1516.6164
  21732183.2954  -25246278.64148 -19383470.48346  21732181.0384   21732186.5124
      3491.7314       2720.8284
  23265121.3754  -14212064.88748 -10770382.63846  23265118.9494   23265127.9734
      3343.9184       2605.6454
  23730765.8244  -28615554.64347 -22001030.61545  23730763.7794   23730775.7714
     -2951.0934      -2299.5454
 00  7 15  0 25 59.9990000  0  7G11G25G29G21G20G 1G15
  20781455.3644  -35684315.83849 -27159719.54147  20781453.0484   20781458.1394
      -311.7284       -242.9044
  20581549.4394  -33633124.30849 -25885987.84847  20581547.6474   20581552.4854
       425.4804        331.5434
  23838368.0904  -26692455.34247 -20772571.43645  23838366.1034   23838374.5704
     -1666.9084      -1298.8884
  23783010.7674  -34216479.59447 -26336189.99845  23783008.9514   23783017.6554
     -1953.5014      -1522.2014
  21712265.4614  -25350949.25548 -19465031.96046  21712263.0024   21712267.9504
      3486.4914       2716.7454
  23246046.0064  -14312302.11148 -10848489.40046  23246044.0174   23246053.3284
      3338.7964       2601.6534
  23747616.3114  -28526996.56247 -21932024.57345  23747615.6284   23747628.0784
     -2952.4884      -2300.6344
 00  7 15  0 26 29.9990000  0  8G11G25G29G21G20G 1G15G16
  20783304.4814  -35674597.48549 -27152146.82647  20783302.2644   20783307.3114
      -334.3454       -260.5284
  20579188.1964  -33645534.08149 -25895657.80147  20579186.2814   20579190.8644
       403.6934        314.5664
  23847901.7644  -26642352.06147 -20733530.01445  23847900.5494   23847908.9094
     -1671.4944      -1302.4604
  23794200.7644  -34157667.18547 -26290362.32345  23794198.6794   23794208.9744
     -1965.6004      -1531.6374
  21692396.8934  -25455360.79048 -19546391.55346  21692394.1184   21692398.9034
      3476.1224       2708.6644
  23227020.3744  -14412285.34548 -10926398.23346  23227018.1214   23227026.5064
      3328.5844       2593.6944
  23764496.2624  -28438295.36147 -21862906.99145  23764495.0424   23764507.2724
     -2959.0034      -2305.7064
  24346632.6414   -6605358.63357  -4543699.36145  24346630.2064   24346639.4984
      4063.4944       3166.3564
 00  7 15  0 26 59.9990000  0  8G11G25G29G21G20G 1G15G16
  20785247.7164  -35664384.10049 -27144188.38047  20785245.6744   20785250.9374
      -352.5804       -274.7374
  20576916.3234  -33657473.93849 -25904961.58547  20576914.3284   20576918.8804
       386.2994        301.0124
  23857428.5294  -26592293.47847 -20694523.38745  23857426.5474   23857434.2924
     -1671.7604      -1302.6674
  23805428.0594  -34098674.45247 -26244394.14945  23805423.9544   23805436.0894
     -1973.2864      -1537.6214
  21672551.8504  -25559643.60748 -19627650.84646  21672549.5404   21672554.3104
      3470.0514       2703.9324
  23208017.3644  -14512146.52848 -11004211.98846  23208014.9954   23208023.1784
      3322.8174       2589.2064
  23781378.2024  -28349585.35647 -21793782.55545  23781375.7734   23781389.1544
     -2960.9964      -2307.2524
  24323417.1734   -6727356.16747  -4638762.25745  24323414.3894   24323423.8624
      4063.6674       3166.4904
 00  7 15  0 27 29.9990000  0  8G11G25G29G21G20G 1G15G16
  20787300.4434  -35653600.29049 -27135785.45047  20787298.2454   20787302.9654
      -365.8534       -285.0794
  20574748.0074  -33668867.76149 -25913839.88947  20574746.1034   20574750.9234
       373.8614        291.3214
  23866960.0404  -26542203.30547 -20655492.14645  23866958.5764   23866965.8924
     -1667.1264      -1299.0564
  23816702.1604  -34039425.76447 -26198226.50745  23816700.2574   23816710.3864
     -1976.1054      -1539.8234
  21652747.3404  -25663718.92348 -19708748.45246  21652744.5844   21652749.6514
      3468.8044       2702.9644
  23189052.4784  -14611808.54148 -11081870.52846  23189049.8214   23189058.4064
      3321.8904       2588.4804
  23798274.2164  -28260792.32947 -21724593.45245  23798272.4564   23798285.4154
     -2957.9524      -2304.9004
  24300204.7174   -6849333.99747  -4733809.82645  24300201.9984   24300211.6064
      4068.7594       3170.4614
 00  7 15  0 27 59.9990000  0  8G11G25G29G21G20G 1G15G16
  20789452.5084  -35642292.05149 -27126973.87447  20789450.1024   20789454.7224
      -387.5364       -301.9754
  20572675.2114  -33679761.34549 -25922328.39647  20572673.1654   20572677.8134
       352.9384        275.0184
  23876490.1754  -26492126.19647 -20616471.09045  23876488.4894   23876495.5464
     -1670.8734      -1301.9724
  23828017.3824  -33979966.29647 -26151894.65745  23828014.9384   23828024.8484
     -1987.3544      -1548.5844
  21632973.7264  -25767629.22848 -19789717.47947  21632971.3074   21632976.4134
      3459.0634       2695.3724
  23170116.6274  -14711315.57848 -11159408.31646  23170114.1164   23170122.4794
      3312.4564       2581.1294
  23815179.0994  -28171963.46347 -21655376.39345  23815176.2524   23815190.1634
     -2963.3514      -2309.1004
  24276988.4244   -6971336.18747  -4828876.36545  24276985.7554   24276995.1204
      4065.3174       3167.7704
 00  7 15  0 28 29.9990000  0  8G11G25G29G21G20G 1G15G16
  20791702.8024  -35630463.11849 -27117756.56547  20791700.9044   20791705.9254
      -402.0484       -313.2844
  20570696.6914  -33690157.79749 -25930429.52147  20570694.7404   20570699.3864
       339.2374        264.3414
  23886016.4704  -26442064.83647 -20577462.31445  23886014.5574   23886022.7704
     -1667.5184      -1299.3594
  23839371.0374  -33920298.96347 -26105400.82145  23839369.0634   23839380.9584
     -1991.4264      -1551.7564
  21613231.2994  -25871375.13348 -19870558.39547  21613228.8684   21613234.6014
      3456.3794       2693.2824
  23151210.0784  -14810670.14648 -11236827.31646  23151207.5814   23151215.5834
      3310.2634       2579.4204
  23832089.4134  -28083103.70147 -21586135.29345  23832087.6554   23832099.0844
     -2961.5114      -2307.6644
  24253766.7754   -7093363.41347  -4923962.42945  24253765.1424   24253774.4414
      4068.9814       3170.6324
 00  7 15  0 28 59.9990000  0  8G11G25G29G21G20G 1G15G16
  20794061.7604  -35618069.23749 -27108099.03347  20794059.5284   20794064.4904
      -422.2714       -329.0414
  20568821.0304  -33700012.27649 -25938108.33047  20568819.2534   20568824.1684
       319.7574        249.1614
  23895549.0304  -26391973.71247 -20538430.36445  23895546.6064   23895554.9634
     -1669.8694      -1301.1924
  23850774.3814  -33860377.99447 -26058709.33645  23850772.0754   23850783.2744
     -2001.2514      -1559.4074
  21593529.6834  -25974908.88848 -19951234.00947  21593526.9304   21593532.8404
      3447.8514       2686.6364
  23132342.1704  -14909826.29148 -11314091.68446  23132339.5924   23132346.8224
      3302.1904       2573.1314
  23849012.7744  -27994169.60747 -21516836.24945  23849010.4954   23849022.5044
     -2965.4414      -2310.7304
  24230549.9004   -7215369.26447  -5019031.83945  24230547.6734   24230557.4034
      4066.7774       3168.9144
 00  7 15  0 29 29.9990000  0  8G11G25G29G21G20G 1G15G16
  20796523.3734  -35605136.12549 -27098021.31947  20796521.0814   20796525.6364
      -438.1494       -341.4134
  20567044.1154  -33709349.70649 -25945384.25047  20567042.1004   20567047.3554
       304.6044        237.3544
  23905080.9934  -26341877.33047 -20499394.32045  23905079.9204   23905087.7404
     -1668.0104      -1299.7434
  23862220.3074  -33800228.63247 -26011839.89345  23862218.7694   23862229.5004
     -2006.8114      -1563.7354
  21573863.5244  -26078252.63848 -20031761.57047  21573861.0524   21573867.2444
      3443.5704       2683.3004
  23113505.6664  -15008807.89948 -11391220.04746  23113503.0524   23113511.4014
      3298.4404       2570.2054
  23865945.0234  -27905187.88447 -21447500.09145  23865943.8634   23865955.6984
     -2964.9074      -2310.3124
  24207333.7194   -7337375.99047  -5114101.91945  24207331.1594   24207340.4674
      4068.8784       3170.5524
 00  7 15  0 29 59.9990000  0  8G11G25G29G21G20G 1G15G16
  20799068.8344  -35591755.30349 -27087594.74647  20799066.7664   20799071.8984
      -455.5544       -354.9764
  20565348.7054  -33718260.91249 -25952328.04647  20565346.8814   20565351.5364
       287.8904        224.3294
  23914598.3044  -26291866.06047 -20460424.56845  23914596.3424   23914604.3374
     -1667.7064      -1299.5094
  23873691.6604  -33739941.86847 -25964863.39845  23873690.7794   23873700.0824
     -2013.8864      -1569.2584
  21554217.0944  -26181494.36248 -20112209.62647  21554214.6954   21554220.9344
      3437.5774       2678.6304
  23094685.7084  -15107704.94348 -11468282.52646  23094683.6514   23094692.4504
      3293.0284       2565.9924
  23882870.3194  -27816251.29447 -21378199.10745  23882868.7374   23882879.1554
     -2965.9134      -2311.0914
  24184098.8534   -7459472.62747  -5209242.08445  24184096.5194   24184106.1954
      4069.2404       3170.8404
 00  7 15  0 30 29.9990000  0  8G11G25G29G21G20G 1G15G16
  20801727.2674  -35577787.78549 -27076711.00347  20801724.9244   20801729.6624
      -478.6324       -372.9594
  20563760.8324  -33726606.57249 -25958831.15047  20563758.8044   20563763.3364
       265.5294        206.9054
  23924125.6944  -26241799.29447 -20421411.58445  23924123.6484   23924132.3084
     -1673.0604      -1303.6784
  23885216.8904  -33679378.17446 -25917671.11045  23885216.1394   23885226.6244
     -2026.6274      -1579.1854
  21534618.2534  -26284491.61448 -20192467.19147  21534615.5874   21534621.1894
      3425.9014       2669.5314
  23075909.4684  -15206376.62448 -11545169.41346  23075907.3254   23075914.8414
      3282.0944       2557.4714
  23899812.4544  -27727221.56947 -21308825.56745  23899809.2554   23899821.4044
     -2972.3994      -2316.1544
  24160875.3824   -7581517.47347  -5304341.86645  24160872.3694   24160881.2924
      4064.0404       3166.7874
 00  7 15  0 30 59.9990000  0  8G11G25G29G21G20G 1G15G16
  20804481.6984  -35563312.85049 -27065431.87147  20804479.4954   20804484.2104
      -487.6974       -380.0224
  20562265.1574  -33734465.55849 -25964955.03047  20562263.1764   20562267.8574
       257.1274        200.3594
  23933649.4374  -26191755.23947 -20382416.28345  23933647.0434   23933655.2814
     -1664.4714      -1296.9854
  23896780.3564  -33618615.82946 -25870324.03445  23896778.4584   23896789.9354
     -2025.5034      -1578.3224
  21515050.2984  -26387320.32148 -20272593.42247  21515047.5574   21515053.3134
      3428.0384       2671.1984
  23057160.7674  -15304900.62948 -11621941.23046  23057158.5024   23057166.0084
      3284.9094       2559.6684
  23916756.8004  -27638179.07947 -21239442.04445  23916755.0064   23916766.1214
     -2965.0054      -2310.3964
  24137643.8044   -7703587.19647  -5399461.03645  24137642.1674   24137651.8214
      4072.6924       3173.5234
 00  7 15  0 31 29.9990000  0  8G11G25G29G21G20G 1G15G16
  20807329.4024  -35548348.04849 -27053771.02447  20807327.2414   20807332.3094
      -510.1164       -397.4934
  20560858.8824  -33741855.14349 -25970713.15647  20560856.8504   20560861.7574
       235.3984        183.4284
  23943165.2264  -26141750.07347 -20343451.30045  23943162.7504   23943171.5384
     -1669.3244      -1300.7744
  23908378.7714  -33557671.05546 -25822834.82245  23908375.4684   23908386.1044
     -2037.6794      -1587.7824
  21495512.1764  -26489994.48448 -20352599.23447  21495509.8404   21495514.5614
      3416.7474       2662.4004
  23038437.2544  -15403292.80848 -11698610.31746  23038434.8654   23038443.2694
      3274.4384       2551.5064
  23933700.2654  -27549142.38946 -21170063.06645  23933699.1354   23933707.4834
     -2970.9564      -2315.0284
  24114408.6324   -7825696.33147  -5494610.90245  24114405.6634   24114416.0824
      4067.7764       3169.6944
 00  7 15  0 31 59.9990000  0  8G11G25G29G21G20G 1G15G16
  20810289.2804  -35532791.72649 -27041649.25147  20810287.1884   20810292.6374
      -527.3364       -410.9104
  20559560.9604  -33748672.41149 -25976025.31747  20559559.4324   20559564.1294
       218.8074        170.4994
  23952693.1994  -26091680.64547 -20304436.24745  23952689.9804   23952699.8704
     -1668.9914      -1300.5094
  23920029.9854  -33496441.34446 -25775123.56245  23920028.3764   23920040.3074
     -2044.7094      -1593.2654
  21476022.9764  -26592408.58148 -20432402.38847  21476020.6064   21476026.0814
      3410.5204       2657.5464
  23019758.5684  -15501449.40348 -11775095.85346  23019756.4044   23019763.9344
      3269.0124       2547.2814
  23950662.1614  -27460010.28146 -21100609.74645  23950659.3424   23950672.3294
     -2971.5874      -2315.4934
  24091184.2954   -7947740.19947  -5589709.94645  24091182.5584   24091190.9254
      4068.1174       3169.9634
 00  7 15  0 32 29.9990000  0  8G11G25G29G21G20G 1G15G16
  20813340.6754  -35516757.54249 -27029155.11647  20813338.5244   20813343.6514
      -547.1884       -426.3794
  20558351.1894  -33755030.60249 -25980979.75347  20558349.4514   20558354.3954
       199.5584        155.4994
  23962211.1984  -26041659.09747 -20265458.51545  23962209.5604   23962218.3944
     -1671.3754      -1302.3694
  23931713.8724  -33435039.58946 -25727278.24945  23931712.8714   23931722.6364
     -2054.2694      -1600.7274
  21456562.8184  -26694672.73348 -20512088.69947  21456560.2484   21456565.6304
      3401.5704       2650.5724
  23001103.0194  -15599482.60448 -11851485.23946  23001100.9034   23001108.4254
      3260.9984       2541.0314
  23967620.3624  -27370897.52847 -21031171.49245  23967617.7954   23967629.2434
     -2974.8514      -2318.0584
  24067950.9804   -8069829.73547  -5684844.56545  24067948.4324   24067956.9684
      4065.6804       3168.0554
 00  7 15  0 32 59.9990000  0  8G11G25G29G21G20G 1G15G16
  20816495.9344  -35500177.74849 -27016235.83447  20816493.5934   20816498.8424
      -556.3984       -433.5554
  20557242.5404  -33760861.62949 -25985523.41347  20557240.3754   20557244.9474
       190.9654        148.8044
  23971735.2194  -25991616.66247 -20226464.50545  23971732.6724   23971740.7774
     -1663.0704      -1295.8954
  23943444.3624  -33373397.69846 -25679245.79045  23943442.9384   23943454.3504
     -2053.3274      -1599.9954
  21437144.6774  -26796715.61548 -20591602.59547  21437142.1774   21437147.0654
      3403.0734       2651.7444
  22982484.0694  -15697322.96848 -11927724.35646  22982481.8194   22982490.2734
      3263.4844       2542.9704
  23984586.2064  -27281737.22747 -20961696.20745  23984585.7494   23984596.7494
     -2967.3534      -2312.2114
  24044724.3394   -8191894.36647  -5779959.76845  24044721.2254   24044729.9034
      4073.7854       3174.3684
 00  7 15  0 33 29.9990000  0  8G11G25G29G21G20G 1G15G16
  20819738.0294  -35483139.76249 -27002959.52047  20819735.7734   20819741.2164
      -575.3364       -448.3144
  20556216.7894  -33766252.54949 -25989724.13147  20556214.6674   20556219.0974
       172.6664        134.5454
  23981244.6344  -25941639.19247 -20187521.12145  23981243.4304   23981251.4754
     -1664.5634      -1297.0564
  23955204.3714  -33311601.42446 -25631093.04745  23955202.1794   23955214.6074
     -2062.2104      -1606.9024
  21417752.2384  -26898621.19848 -20671009.50147  21417749.9154   21417755.1554
      3394.8274       2645.3174
  22963886.6814  -15795056.15748 -12003879.95446  22963884.3354   22963892.5594
      3256.2674       2537.3474
  24001546.3674  -27192617.72447 -20892252.71345  24001545.6954   24001555.5674
     -2969.6534      -2314.0064
  24021484.3714   -8314018.54847  -5875121.38145  24021481.5434   24021490.7774
      4072.0894       3173.0484
 00  7 15  0 33 59.9990000  0  8G11G25G29G21G20G 1G15G16
  20823087.6934  -35465536.28749 -26989242.57047  20823085.4484   20823091.3124
      -595.9384       -464.3664
  20555294.2474  -33771094.84249 -25993497.35147  20555292.5474   20555297.4774
       152.5914        118.9034
  23990763.3704  -25891617.58147 -20148543.34045  23990761.4744   23990770.3004
     -1667.8204      -1299.5934
  23967014.4784  -33249543.03047 -25582736.07345  23967012.4264   23967022.4804
     -2072.6424      -1615.0424
  21398408.0894  -27000278.28248 -20750222.77147  21398405.4734   21398410.2744
      3384.6994       2637.4294
  22945329.7014  -15892572.71448 -12079866.75746  22945327.4044   22945335.5514
      3247.2494       2530.3214
  24018516.9264  -27103432.20346 -20822757.77345  24018515.8284   24018526.9604
     -2973.5614      -2317.0604
  23998253.4294   -8436091.56747  -5970243.11345  23998252.0484   23998260.7974
      4068.6084       3170.3394
 00  7 15  0 34 29.9980000  0  8G11G25G29G21G20G 1G15G16
  20826531.2584  -35447439.42949 -26975141.16347  20826529.1934   20826535.1924
      -615.5074       -479.6134
  20554464.1764  -33775459.60049 -25996898.46447  20554462.0624   20554466.7154
       133.5664        104.0794
  24000277.5184  -25841623.85447 -20109587.29445  24000275.7004   24000284.1694
     -1670.1154      -1301.3734
  23978859.9554  -33187295.39447 -25534231.63645  23978859.0214   23978869.5374
     -2082.1424      -1622.4374
  21379098.0894  -27101751.30748 -20829292.61147  21379095.4964   21379100.9774
      3375.5294       2630.2804
  22926801.6034  -15989939.31448 -12155736.71546  22926798.8014   22926806.8484
      3239.2444       2524.0834
  24035486.5024  -27014255.93246 -20753270.02444  24035484.2834   24035497.0074
     -2976.5704      -2319.3994
  23975021.0874   -8558178.57747  -6065375.72545  23975018.1914   23975028.3184
      4066.0244       3168.3324
 00  7 15  0 34 59.9980000  0  7G11G25G29G20G 1G15G16
  20830080.6124  -35428786.91549 -26960606.77747  20830078.5354   20830084.2984
      -632.5444       -492.8904
  20553735.9474  -33779285.26649 -25999879.51147  20553734.1144   20553738.9034
       117.0154         91.1814
  24009798.5664  -25791591.97647 -20070601.51445  24009796.4024   24009804.8494
     -1669.8144      -1301.1524
  21359834.6484  -27202982.19948 -20908173.78347  21359832.0584   21359837.2364
      3368.6944       2624.9554
  22908312.4074  -16087099.63348 -12231445.94246  22908309.9544   22908317.7774
      3233.6314       2519.7074
  24052467.3354  -26925022.73746 -20683737.94044  24052466.0834   24052478.6994
     -2976.7224      -2319.5134
  23951797.6234   -8680223.03447  -6160475.21045  23951795.4644   23951803.3224
      4065.8744       3168.2094
 00  7 15  0 35 29.9980000  0  7G11G25G29G20G 1G15G16
  20833725.1594  -35409635.80249 -26945683.87647  20833723.1494   20833728.5674
      -648.6394       -505.4324
  20553100.1364  -33782627.75949 -26002484.05447  20553098.3974   20553102.7104
       101.4684         79.0654
  24019314.7284  -25741578.62347 -20031630.16845  24019313.0404   24019322.1704
     -1668.7574      -1300.3234
  21340607.6814  -27304020.18348 -20986904.63947  21340605.1924   21340610.5954
      3362.8474       2620.3994
  22889852.1424  -16184104.90548 -12307034.33646  22889850.0204   22889859.0924
      3229.0104       2516.1084
  24069447.6164  -26835792.85346 -20614208.44044  24069444.5464   24069457.2134
     -2976.1974      -2319.0984
  23928571.7874   -8802274.75847  -6255580.34945  23928568.9894   23928577.0784
      4066.5644       3168.7564
 00  7 15  0 35 59.9980000  0  7G11G25G29G20G 1G15G16
  20837461.5414  -35390002.17049 -26930384.98747  20837459.4784   20837464.7104
      -658.5234       -513.1334
  20552552.4374  -33785502.62649 -26004724.21247  20552550.8474   20552555.4434
        92.0294         71.7104
  24028825.6564  -25691597.96447 -19992684.30645  24028824.1374   24028833.0624
     -1661.4944      -1294.6664
  21321415.6294  -27404877.59848 -21065494.78547  21321412.8304   21321418.3204
      3362.8334       2620.3874
  22871419.8274  -16280969.21248 -12382512.90246  22871417.4814   22871426.0214
      3230.4454       2517.2264
  24086424.3274  -26746583.22946 -20544694.72744  24086420.1584   24086433.3044
     -2969.3174      -2313.7554
  23905342.5804   -8924346.04647  -6350700.73545  23905339.4384   23905347.3524
      4073.3514       3174.0464
 00  7 15  0 36 29.9980000  0  7G11G25G29G20G 1G15G16
  20841289.7034  -35369886.58749 -26914710.54947  20841287.5314   20841292.4784
      -683.7674       -532.8054
  20552094.9934  -33787909.51249 -26006599.71747  20552093.1554   20552097.5424
        67.2584         52.4074
  24038332.0284  -25641649.22147 -19953763.32845  24038329.8914   24038337.4524
     -1669.5664      -1300.9544
  21302258.1804  -27505551.20448 -21143941.71247  21302255.5494   21302260.5724
      3347.5074       2608.4464
  22853014.3764  -16377691.30948 -12457880.65846  22853011.7254   22853019.8214
      3216.5314       2506.3854
  24103397.1304  -26657394.71446 -20475197.44645  24103393.8914   24103406.1384
     -2977.6914      -2320.2684
  23882109.3554   -9046434.61247  -6445834.60445  23882107.4954   23882114.5844
      4064.7384       3167.3294
 00  7 15  0 36 59.9980000  0  7G11G25G29G20G 1G15G16
  20845226.8344  -35349195.64449 -26898587.78647  20845224.7974   20845230.2624
      -694.5644       -541.2174
  20551743.8734  -33789754.60849 -26008037.46147  20551742.0704   20551746.4124
        56.8924         44.3314
  24047848.8594  -25591637.36447 -19914793.13545  24047847.0094   24047855.3564
     -1663.3784      -1296.1384
  21283153.4144  -27605943.85848 -21222169.71147  21283150.9474   21283156.4974
      3346.4674       2607.6354
  22834653.4404  -16474175.95448 -12533063.38646  22834651.2824   22834659.0294
      3216.9224       2506.6914
  24120383.0374  -26568134.68046 -20405644.42344  24120378.7684   24120391.9304
     -2971.7604      -2315.6494
  23858891.6544   -9168444.27547  -6540906.97845  23858889.5094   23858897.2284
      4070.4174       3171.7524
 00  7 15  0 37 29.9980000  0  7G11G25G29G20G 1G15G16
  20849257.8884  -35328015.10249 -26882083.51947  20849255.6574   20849260.7634
      -711.2514       -554.2224
  20551483.5584  -33791123.03349 -26009103.77647  20551481.6814   20551486.3234
        40.6094         31.6434
  24057362.1204  -25541646.36247 -19875839.20245  24057359.5514   24057368.5054
     -1663.0844      -1295.9044
  21264086.9834  -27706137.34948 -21300242.52047  21264084.7314   21264089.7294
      3339.3804       2602.1144
  22816322.3224  -16570506.90148 -12608126.37346  22816320.0044   22816328.0824
      3211.4144       2502.3994
  24137365.5074  -26478889.45446 -20336102.97644  24137363.0364   24137375.5634
     -2971.5984      -2315.5264
  23835674.4774   -9290457.11547  -6635981.80545  23835671.1324   23835679.5134
      4070.0854       3171.4954
 00  7 15  0 37 59.9980000  0  7G11G25G29G20G 1G15G16
  20853379.0164  -35306358.59049 -26865208.36647  20853376.6914   20853381.5144
      -728.0914       -567.3414
  20551311.2694  -33792027.67749 -26009808.69847  20551309.4714   20551314.2094
        24.1864         18.8464
  24066868.1994  -25491687.96647 -19836910.67345  24066866.7314   24066875.1904
     -1662.9654      -1295.8124
  21245056.9344  -27806141.22148 -21378167.57847  21245054.5444   21245059.5894
      3332.0274       2596.3824
  22798018.1324  -16666695.69248 -12683078.57346  22798015.5924   22798023.8464
      3205.6504       2497.9054
  24154343.6454  -26389673.29246 -20266584.17844  24154337.7874   24154352.4484
     -2971.5994      -2315.5294
  23812452.0234   -9412483.66747  -6731067.33845  23812449.6704   23812458.3454
      4069.5104       3171.0404
 00  7 15  0 38 29.9980000  0  8G22G11G25G29G20G 1G15G16
  23876184.4084    -379993.97346   -280432.52844  23876178.9174   23876193.8454
      4174.2034       3252.6074
  20857591.6574  -35284216.54049 -26847954.87747  20857589.8124   20857594.8434
      -747.8344       -582.7254
  20551229.3734  -33792458.55649 -26010144.45447  20551227.3774   20551232.1424
         4.7964          3.7384
  24076370.7954  -25441751.23847 -19797999.02845  24076368.9394   24076377.5664
     -1665.8584      -1298.0694
  21226065.6304  -27905942.32448 -21455934.63147  21226062.9524   21226067.9644
      3321.6004       2588.2574
  22779742.8024  -16762731.10648 -12757911.22946  22779740.6434   22779748.8844
      3196.9394       2491.1174
  24171316.6604  -26300477.31346 -20197081.11044  24171317.2694   24171325.4794
     -2974.6284      -2317.8944
  23789230.4544   -9534511.41647  -6826153.79345  23789227.5534   23789237.0354
      4065.8974       3168.2284
 00  7 15  0 38 59.9980000  0  8G22G11G25G29G20G 1G15G16
  23852324.3964    -505360.60746   -378120.59544  23852323.5594   23852334.6564
      4179.6164       3256.8264
  20861882.4774  -35261670.90449 -26830386.90147  20861880.3854   20861885.4884
      -759.0784       -591.4884
  20551222.0934  -33792497.00349 -26010174.41547  20551220.0924   20551224.6834
        -6.0254         -4.6954
  24085855.1384  -25391916.31347 -19759166.68845  24085853.4784   24085861.3344
     -1660.3224      -1293.7544
  21207098.0884  -28005618.62148 -21533604.43047  21207095.2414   21207100.3964
      3319.6054       2586.7034
  22761482.3064  -16858692.94648 -12832686.56346  22761480.1344   22761487.2374
      3196.7314       2490.9574
  24188270.3174  -26211383.93546 -20127657.97544  24188267.9884   24188277.9034
     -2968.7834      -2313.3384
  23765995.2064   -9656618.51947  -6921302.08045  23765992.4084   23766001.4344
      4070.7474       3172.0044
 00  7 15  0 39 29.9980000  0  8G22G11G25G29G20G 1G15G16
  23828484.2474    -630655.43146   -475752.67145  23828480.0214   23828493.0174
      4177.0654       3254.8534
  20866281.1534  -35238554.46349 -26812374.13847  20866279.1474   20866284.4354
      -778.2274       -606.4084
  20551321.4624  -33791974.92749 -26009767.60647  20551319.5434   20551324.0804
       -24.8624        -19.3734
  24095351.2704  -25342013.98847 -19720281.83945  24095348.3284   24095357.1544
     -1662.6694      -1295.5834
  21188186.3954  -28104998.55348 -21611043.30147  21188183.8554   21188189.0604
      3309.5714       2578.8854
  22743267.6204  -16954411.86948 -12907272.63846  22743265.2594   22743272.1434
      3188.4284       2484.4844
  24205236.9144  -26122226.25046 -20058184.72144  24205234.1184   24205247.5404
     -2971.1164      -2315.1454
  23742776.4454   -9778634.75447  -7016379.55945  23742774.0374   23742782.3414
      4067.5064       3169.4814
 00  7 15  0 39 59.9980000  0  7G22G11G25G29G20G 1G16
  23804651.1394    -755895.54446   -573342.12845  23804649.9764   23804659.7944
      4179.2724       3256.5724
  20870784.8334  -35214889.23549 -26793933.75047  20870782.4864   20870787.9504
      -792.4574       -617.4974
  20551522.8274  -33790913.70649 -26008940.69147  20551521.2414   20551526.2224
       -38.7924        -30.2264
  24104855.9134  -25292064.73947 -19681360.42545  24104854.1204   24104862.7644
     -1660.2744      -1293.7144
  21169327.4104  -28204100.54348 -21688265.59647  21169325.2024   21169330.5724
      3304.2664       2574.7524
  22725095.0334  -17049908.17648 -12981685.24846  22725092.7754   22725100.1764
      3185.0094       2481.8224
  23719570.4304   -9900578.99047  -7111400.94245  23719568.2274   23719576.6424
      4069.1614       3170.7674
 00  7 15  0 40 29.9980000  0  7G22G11G25G29G20G 1G16
  23780818.7364    -881133.59546   -670929.96944  23780816.4344   23780829.2294
      4175.2444       3253.4404
  20875381.9794  -35190732.37249 -26775110.27347  20875379.6954   20875384.5804
      -812.6164       -633.2064
  20551816.8354  -33789370.33149 -26007738.07147  20551814.9844   20551819.9414
       -58.6804        -45.7244
  24114358.6384  -25242124.36547 -19642445.92045  24114357.0124   24114366.0914
     -1663.6994      -1296.3904
  21150511.9684  -28302977.90148 -21765312.85247  21150509.2154   21150514.8494
      3292.9384       2565.9254
  22706954.3084  -17145237.09348 -13055967.40446  22706952.2494   22706960.0264
      3175.6474       2474.5254
  23696369.1884  -10022505.44447  -7206408.47745  23696366.2804   23696374.8094
      4064.7274       3167.3174
 00  7 15  0 40 59.9980000  0  7G22G11G25G29G20G 1G16
  23756977.6714   -1006420.64446   -768555.99244  23756974.6564   23756986.3744
      4177.5094       3255.2044
  20880061.7604  -35166140.22449 -26755947.61147  20880059.4614   20880063.9384
      -826.4684       -643.9994
  20552191.8784  -33787400.15449 -26006202.87947  20552190.0754   20552194.6664
       -72.2344        -56.2874
  24123850.7474  -25192246.80147 -19603580.38745  24123848.9434   24123856.9814
     -1660.9954      -1294.2814
  21131728.6804  -28401682.57148 -21842225.54847  21131726.3524   21131731.9634
      3287.7954       2561.9164
  22688835.0734  -17240452.68648 -13130161.27146  22688832.8094   22688840.4534
      3172.5994       2472.1524
  23673161.2124  -10144466.16147  -7301442.69245  23673157.8884   23673165.6294
      4066.5174       3168.7074
 00  7 15  0 41 29.9980000  0  7G22G11G25G29G20G 1G16
  23733153.8324   -1131611.36946   -866106.96545  23733150.4884   23733162.4044
      4172.4724       3251.2764
  20884850.4794  -35140972.60849 -26736336.53447  20884848.4324   20884853.4034
      -847.3524       -660.2734
  20552674.9214  -33784862.21549 -26004225.27247  20552672.9124   20552677.6334
       -92.8624        -72.3604
  24133357.4784  -25142290.24347 -19564653.26945  24133354.7024   24133363.6684
     -1665.3404      -1297.6644
  21113006.3004  -28500070.47148 -21918891.41647  21113003.6574   21113009.1614
      3275.4514       2552.2974
  22670764.4664  -17335412.74448 -13204156.02346  22670762.2754   22670769.7614
      3162.2974       2464.1254
  23649972.7864  -10266318.03747  -7396392.12345  23649970.3484   23649978.6874
      4061.0684       3164.4624
 00  7 15  0 41 59.9980000  0  7G22G11G25G29G20G 1G16
  23709321.2504   -1256857.43546   -963701.07245  23709318.3354   23709329.5744
      4173.9934       3252.4504
  20889719.4854  -35115386.96749 -26716399.72847  20889717.3264   20889722.2814
      -861.5604       -671.3434
  20553236.0214  -33781913.32749 -26001927.44447  20553234.2634   20553238.7194
      -106.8464        -83.2554
  24142848.6904  -25092410.09247 -19525785.71645  24142847.2134   24142855.3134
     -1663.0924      -1295.9184
  21094315.2104  -28598294.79348 -21995429.81947  21094312.5894   21094317.5024
      3269.6454       2547.7764
  22652713.0504  -17430272.53648 -13278072.64046  22652711.1194   22652718.9814
      3158.6054       2461.2514
  23626775.7064  -10388214.80147  -7491376.49245  23626773.0954   23626781.8644
      4062.1774       3165.3304
 00  7 15  0 42 29.9980000  0  7G22G11G25G29G20G 1G16
  23685480.3154   -1382134.25946  -1061319.16645  23685479.9174   23685491.3754
      4169.4554       3248.9154
  20894671.8584  -35089363.84549 -26696122.02147  20894669.5664   20894674.3254
      -881.6434       -686.9944
  20553879.1204  -33778533.31049 -25999293.66847  20553877.4154   20553882.0524
      -126.7534        -98.7694
  24152330.5684  -25042584.98047 -19486961.05345  24152328.0264   24152337.1314
     -1666.8374      -1298.8344
  21075658.9284  -28696332.16648 -22071822.53847  21075656.6914   21075661.8734
      3257.8684       2538.5964
  22634685.0114  -17525010.73948 -13351894.51746  22634683.0904   22634690.7014
      3148.9704       2453.7384
  23603576.3594  -10510133.95147  -7586378.31945  23603573.6604   23603581.9184
      4057.4394       3161.6394
 00  7 15  0 42 59.9980000  0  7G22G11G25G29G20G 1G16
  23661649.5074   -1507364.89147  -1158901.23145  23661647.8344   23661659.8054
      4176.7464       3254.6024
  20899720.5414  -35062831.19749 -26675447.29047  20899718.3634   20899723.6854
      -889.7284       -693.2934
  20554618.5354  -33774649.69249 -25996267.48147  20554616.6574   20554621.1624
      -134.6474       -104.9194
  24161815.2404  -24992741.14847 -19448121.79645  24161813.4254   24161822.7484
     -1658.6184      -1292.4304
  21057053.7664  -28794106.31948 -22148010.15347  21057050.9124   21057055.6494
      3257.9304       2538.6474
  22616694.3604  -17619553.16748 -13425563.84446  22616692.2544   22616699.8604
      3151.3154       2455.5664
  23580386.0144  -10631999.57447  -7681338.44845  23580383.2594   23580390.6624
      4064.4654       3167.1104
 00  7 15  0 43 29.9980000  0  6G22G11G25G20G 1G16
  23637830.1194   -1632546.27247  -1256444.93245  23637828.8804   23637837.8834
      4171.8674       3250.7984
  20904866.5284  -35035790.90749 -26654376.99447  20904864.3084   20904869.3164
      -909.7944       -708.9284
  20555453.0734  -33770264.04149 -25992850.09847  20555451.1434   20555455.5764
      -154.5144       -120.3994
  21038497.6684  -28891615.06448 -22223990.95647  21038495.0404   21038500.5964
      3245.8714       2529.2484
  22598740.7474  -17713899.73748 -13499080.56246  22598738.4084   22598746.0324
      3141.6604       2448.0424
  23557206.1004  -10753810.35747  -7776255.84445  23557203.6064   23557210.4374
      4059.4884       3163.2314
 00  7 15  0 43 59.9980000  0  6G22G11G25G20G 1G16
  23613992.6594   -1757806.20047  -1354049.83345  23613990.7214   23614001.9544
      4173.9984       3252.4654
  20910083.2884  -35008376.19349 -26633014.93747  20910081.1394   20910086.2074
      -922.6924       -718.9794
  20556357.9744  -33765508.53649 -25989144.51447  20556356.1784   20556360.4554
      -167.2584       -130.3304
  21019968.0834  -28988987.44948 -22299865.51247  21019965.7954   21019971.0354
      3240.8464       2525.3354
  22580798.7764  -17808181.47748 -13572546.76346  22580796.9154   22580805.2454
      3139.0384       2446.0014
  23534011.2614  -10875695.84747  -7871231.45345  23534008.9214   23534016.7804
      4061.4894       3164.7934
 00  7 15  0 44 29.9980000  0  6G22G11G25G20G 1G16
  23590186.6164   -1882912.76347  -1451535.20845  23590183.7484   23590194.6114
      4171.8424       3250.7744
  20915414.9714  -34980361.06849 -26611185.03047  20915412.5254   20915417.1324
      -939.5434       -732.1094
  20557376.8524  -33760156.63049 -25984974.19747  20557374.7634   20557378.6094
      -184.0074       -143.3824
  21001508.8334  -29085993.21048 -22375454.38547  21001506.4164   21001511.7694
      3231.6864       2518.1964
  22562913.5174  -17902169.91148 -13645784.41746  22562911.8334   22562919.4264
      3132.3624       2440.7994
  23510846.2104  -10997426.42447  -7966086.34745  23510844.6624   23510852.4294
      4059.3354       3163.1144
 00  7 15  0 44 59.9980000  0  6G22G11G25G20G 1G16
  23566354.0204   -2008151.27247  -1549123.42745  23566352.8134   23566362.9874
      4172.5154       3251.3044
  20920804.6694  -34952035.69449 -26589113.36647  20920802.4894   20920807.4214
      -953.5134       -742.9974
  20558453.1914  -33754497.81249 -25980564.73447  20558451.2254   20558455.9004
      -197.8704       -154.1854
  20983064.9104  -29182918.46448 -22450980.52347  20983062.4014   20983067.3154
      3225.3404       2513.2504
  22545029.8674  -17996153.62348 -13719018.37346  22545027.4854   22545034.8854
      3128.5634       2437.8384
  23487656.9234  -11119288.91947  -8061044.03345  23487654.2874   23487662.2014
      4060.0644       3163.6864
 00  7 15  0 45 29.9980000  0  6G22G11G25G20G 1G16
  23542552.5274   -2133225.55247  -1646583.67345  23542549.8164   23542560.9704
      4164.7674       3245.2634
  20926309.5244  -34923109.36249 -26566573.42847  20926307.3084   20926312.3184
      -975.7974       -760.3604
  20559643.9294  -33748240.82149 -25975689.16747  20559641.8554   20559646.6234
      -220.0914       -171.5014
  20964692.3154  -29279468.18748 -22526214.04347  20964689.7524   20964694.0654
      3210.4664       2501.6594
  22527201.8604  -18089839.51148 -13792020.27146  22527199.6224   22527206.9224
      3116.3304       2428.3074
  23464497.6674  -11240988.85247  -8155875.07545  23464495.3684   23464503.7024
      4052.3264       3157.6474
 00  7 15  0 45 59.9980000  0  6G22G11G25G20G 1G16
  23518738.2554   -2258368.83147  -1744097.70145  23518733.9904   23518746.8984
      4170.9934       3250.1314
  20931883.1724  -34893820.24249 -26543750.79647  20931880.8084   20931886.0534
      -983.8234       -766.6134
  20560902.9994  -33741622.90249 -25970532.35547  20560901.0994   20560905.7134
      -228.0704       -177.7164
  20946346.3414  -29375876.24448 -22601337.17147  20946343.7854   20946348.1754
      3209.7574       2501.1074
  22509385.0124  -18183463.46448 -13864973.89346  22509383.0234   22509390.0724
      3118.2764       2429.8194
  23441325.1824  -11362760.76847  -8250762.19145  23441322.7404   23441331.6584
      4058.7994       3162.6994
 00  7 15  0 46 29.9980000  0  6G22G11G25G20G 1G16
  23494938.6864   -2383442.19947  -1841557.25445  23494934.0684   23494945.9374
      4169.3264       3248.8204
  20937550.9414  -34864035.18449 -26520541.72547  20937548.6424   20937553.9404
      -999.6164       -778.9204
  20562256.5794  -33734510.11349 -25964989.93247  20562254.6774   20562259.3394
      -243.8184       -189.9884
  20928053.6744  -29472005.42048 -22676242.98947  20928050.9104   20928055.4334
      3201.1194       2494.3774
  22491606.3094  -18276890.20848 -13937773.85146  22491604.0994   22491611.2924
      3112.4244       2425.2624
  23418165.7624  -11484467.54747  -8345598.52945  23418163.2704   23418171.4714
      4057.2704       3161.5034
 00  7 15  0 46 59.9980000  0  6G22G11G25G20G 1G16
  23471147.1624   -2508449.71647  -1938965.49245  23471144.5504   23471158.6744
      4163.8094       3244.5164
  20943311.4754  -34833763.65349 -26496953.57547  20943309.1614   20943314.4744
     -1019.1364       -794.1314
  20563702.7304  -33726911.51349 -25959068.95647  20563700.9814   20563705.5284
      -263.3484       -205.2064
  20909812.1934  -29567860.75348 -22750935.42347  20909809.6474   20909814.6824
      3188.6014       2484.6234
  22473865.1244  -18370127.12948 -14010425.91546  22473862.5514   22473869.0894
      3102.7674       2417.7414
  23395016.8254  -11606115.67947  -8440389.18345  23395014.4104   23395022.7614
      4051.9274       3157.3484
 00  7 15  0 47 29.9980000  0  6G22G11G25G20G 1G16
  23447367.6944   -2633410.29947  -2036337.16045  23447365.0734   23447378.9574
      4165.5924       3245.9084
  20949159.8894  -34803030.18649 -26473005.47347  20949157.5964   20949162.8854
     -1030.9444       -803.3314
  20565237.0024  -33718850.96849 -25952788.02347  20565234.8074   20565239.2454
      -275.1654       -214.4134
  20891619.9804  -29663462.37948 -22825430.16347  20891617.6864   20891622.5634
      3183.6614       2480.7744
  22456153.7214  -18463196.61648 -14082947.51046  22456151.3064   22456158.9214
      3100.7364       2416.1544
  23371874.7384  -11727725.61847  -8535150.09345  23371872.3384   23371881.1684
      4054.2434       3159.1534
 00  7 15  0 47 59.9980000  0  6G22G11G25G20G 1G16
  23423606.8624   -2758280.36247  -2133638.28845  23423604.2214   23423614.2724
      4163.2924       3244.1144
  20955103.2804  -34771796.57849 -26448667.65547  20955101.1754   20955106.6384
     -1047.0324       -815.8674
  20566866.0444  -33710289.39549 -25946116.67947  20566864.0194   20566868.2994
      -291.2804       -226.9694
  20873484.2084  -29758767.67048 -22899693.99947  20873481.4784   20873486.5264
      3174.3064       2473.4824
  22438482.6144  -18556057.75048 -14155306.73546  22438480.6784   22438488.0684
      3094.3714       2411.1934
  23348748.1854  -11849255.23147  -8629848.39445  23348745.7304   23348753.1744
      4052.0704       3157.4534
 00  7 15  0 48 29.9980000  0  6G22G11G25G20G 1G16
  23399842.6284   -2883165.32347  -2230951.01645  23399840.7474   23399850.0354
      4165.3404       3245.7164
  20961121.2984  -34740173.19449 -26424026.11947  20961118.9694   20961124.4884
     -1058.2324       -824.5934
  20568569.3304  -33701336.70849 -25939140.57447  20568567.4334   20568572.3084
      -302.5464       -235.7504
  20855384.1084  -29853882.82748 -22973809.68147  20855381.7394   20855386.5064
      3169.6734       2469.8754
  22420831.3674  -18648818.88648 -14227588.04346  22420828.9854   22420835.6634
      3092.7264       2409.9134
  23325617.3344  -11970811.22347  -8724567.26545  23325614.3894   23325622.3834
      4054.6594       3159.4774
 00  7 15  0 48 59.9980000  0  6G22G11G25G20G 1G16
  23376089.7714   -3007992.69847  -2328218.91445  23376086.6984   23376096.1944
      4161.0714       3242.3884
  20967225.9234  -34708093.52149 -26399029.02847  20967223.5714   20967228.9364
     -1075.7754       -838.2644
  20570359.7994  -33691925.55049 -25931807.21647  20570358.3094   20570363.1094
      -320.1824       -249.4924
  20837334.0744  -29948736.99749 -23047721.99347  20837331.8044   20837336.2484
      3158.5844       2461.2334
  22403211.3664  -18741411.36248 -14299737.94146  22403208.9534   22403215.9454
      3084.7574       2403.7054
  23302494.8754  -12092323.30747  -8819251.93745  23302492.2794   23302498.9704
      4050.8054       3156.4674
 00  7 15  0 49 29.9980000  0  6G22G11G25G20G 1G16
  23352322.7184   -3132890.26347  -2425541.48345  23352320.0564   23352330.1424
      4155.3764       3237.9504
  20973391.7184  -34675690.99349 -26373780.36147  20973389.6134   20973394.9974
     -1094.4204       -852.7934
  20572213.3954  -33682188.53549 -25924219.93947  20572211.3904   20572216.0594
      -338.8954       -264.0744
  20819309.0414  -30043459.24248 -23121531.50247  20819306.5944   20819310.9774
      3146.2154       2451.5944
  22385598.4284  -18833966.24848 -14371858.55046  22385596.1894   22385603.3254
      3075.5864       2396.5574
  23279355.3584  -12213921.42547  -8914003.62945  23279352.9724   23279359.7434
      4045.7464       3152.5264
 00  7 15  0 49 59.9980000  0  6G22G11G25G20G 1G16
  23328588.7714   -3257604.28447  -2522721.02245  23328585.0634   23328596.6604
      4159.5334       3241.1924
  20979666.6164  -34642717.34449 -26348086.66447  20979664.5094   20979669.4514
     -1103.1084       -859.5624
  20574175.3554  -33671877.22349 -25916185.15747  20574173.5654   20574178.3314
      -347.7354       -270.9614
  20801356.9504  -30137796.90748 -23195041.33947  20801354.6224   20801359.0154
      3143.7114       2449.6434
  22368040.6694  -18926233.19748 -14443754.78946  22368038.6084   22368045.5514
      3076.3114       2397.1244
  23256247.7424  -12335353.31247  -9008625.79645  23256245.1354   23256252.4724
      4050.4664       3156.2054
 00  7 15  0 50 29.9980000  0  6G22G11G25G20G 1G16
  23304850.0144   -3382353.47947  -2619927.97345  23304846.7084   23304859.6654
      4155.5244       3238.0654
  20986007.3724  -34609396.65449 -26322122.54047  20986005.0284   20986010.2824
     -1119.7504       -872.5314
  20576204.8294  -33661214.30249 -25907876.39647  20576202.7234   20576207.2934
      -364.5464       -284.0614
  20783437.1824  -30231969.44648 -23268422.50347  20783434.2784   20783438.6194
      3133.0144       2441.3084
  22350495.5504  -19018433.88348 -14515599.40246  22350493.3504   22350500.4104
      3068.9814       2391.4084
  23233128.6364  -12456838.92847  -9103289.81445  23233126.2094   23233134.8774
      4047.0874       3153.5734
 00  7 15  0 50 59.9980000  0  6G22G11G25G20G 1G16
  23281137.6564   -3506958.01747  -2717022.22645  23281135.1074   23281146.0404
      4151.6294       3235.0284
  20992446.8574  -34575554.45149 -26295752.04247  20992444.7874   20992450.6644
     -1136.0984       -885.2684
  20578333.9924  -33650025.01549 -25899157.48247  20578331.8764   20578336.6594
      -381.0654       -296.9334
  20765581.3474  -30325798.02849 -23341535.65447  20765579.1824   20765583.8644
      3122.4974       2433.1144
  22332997.0244  -19110391.52448 -14587254.62046  22332994.4144   22333001.5674
      3061.8754       2385.8734
  23210035.0514  -12578199.92847  -9197856.74045  23210032.3474   23210040.6654
      4043.9484       3151.1264
 00  7 15  0 51 29.9980000  0  6G22G11G25G20G 1G16
  23257439.7204   -3631492.63247  -2814062.01745  23257438.0364   23257447.9074
      4151.3774       3234.8334
  20998970.8184  -34541271.61049 -26269038.18947  20998968.5764   20998974.3984
     -1148.6104       -895.0184
  20580547.6374  -33638389.49049 -25890090.85247  20580545.8734   20580550.8294
      -393.7544       -306.8194
  20747777.7594  -30419359.25649 -23414440.47547  20747775.1734   20747779.6724
      3115.7334       2427.8444
  22315529.2214  -19202184.51948 -14658781.54846  22315526.6874   22315533.6094
      3058.5064       2383.2494
  23186949.1044  -12699513.61747  -9292386.79845  23186946.3124   23186954.4464
      4044.4524       3151.5114
 00  7 15  0 51 59.9980000  0  6G22G11G25G20G 1G16
  23233744.5884   -3756010.31247  -2911088.58345  23233742.5534   23233753.0914
      4153.1734       3236.2344
  21005567.3614  -34506606.79649 -26242026.70347  21005565.1884   21005570.8204
     -1158.9704       -903.0924
  20582836.0774  -33626365.67649 -25880721.65747  20582834.0064   20582838.7474
      -404.3404       -315.0704
  20730013.8124  -30512707.11349 -23487179.03847  20730011.3644   20730016.0474
      3110.9294       2424.0994
  22298081.5324  -19293869.24048 -14730224.10546  22298079.1534   22298086.1034
      3057.2544       2382.2714
  23163862.0854  -12820834.43547  -9386922.41445  23163860.2134   23163868.2274
      4047.0164       3153.5174
 00  7 15  0 52 29.9980000  0  6G22G11G25G20G 1G16
  23210072.4474   -3880414.63447  -3008026.83645  23210069.1694   23210079.3724
      4145.8054       3230.4964
  21012253.8114  -34471469.14049 -26214646.77247  21012251.7904   21012257.3574
     -1178.1424       -918.0314
  20585215.7834  -33613861.86649 -25870978.43647  20585213.7134   20585218.2004
      -423.7654       -330.2074
  20712309.1294  -30605746.46049 -23559677.20347  20712306.7054   20712311.1094
      3097.1384       2413.3534
  22280673.0624  -19385352.74148 -14801509.87146  22280670.6994   22280677.2534
      3047.1134       2374.3704
  23140793.4224  -12942067.72347  -9481389.83045  23140790.1534   23140798.6364
      4040.6434       3148.5514
 00  7 15  0 52 59.9980000  0  6G22G11G25G20G 1G16
  23186411.3484   -4004744.99047  -3104907.45845  23186410.0264   23186419.7954
      4141.9634       3227.4914
  21019022.0664  -34435903.18549 -26186933.09947  21019019.8184   21019025.3784
     -1193.7704       -930.2094
  20587677.4794  -33600921.89449 -25860895.35047  20587675.7874   20587680.8704
      -439.6664       -342.5974
  20694655.6114  -30698516.97349 -23631965.88347  20694652.9564   20694657.4924
      3086.7564       2405.2624
  22263294.3584  -19476677.08048 -14872671.61846  22263292.1454   22263299.0924
      3040.3884       2369.1324
  23117732.4134  -13063254.02247  -9575820.63345  23117729.4744   23117737.2644
      4037.6904       3146.2474
 00  7 15  0 53 29.9980000  0  6G22G11G25G20G 1G16
  23162764.4274   -4129013.23547  -3201739.65345  23162760.8144   23162771.4444
      4138.3424       3224.6724
  21025867.9714  -34399926.60849 -26158899.46247  21025865.9634   21025871.4544
     -1208.8574       -941.9644
  20590220.0814  -33587562.95949 -25850485.80647  20590217.9444   20590223.0794
      -455.0454       -354.5804
  20677050.3384  -30791032.13449 -23704055.58647  20677047.8004   20677052.6564
      3076.7834       2397.4924
  22245943.8634  -19567857.50748 -14943721.22646  22245941.5544   22245947.3914
      3034.1494       2364.2694
  23094677.3204  -13184406.89747  -9670225.39245  23094674.3054   23094683.2554
      4035.0834       3144.2194
 00  7 15  0 53 59.9980000  0  6G22G11G25G20G 1G16
  23139121.0624   -4253258.60547  -3298554.05245  23139118.9404   23139128.5114
      4142.4424       3227.8804
  21032784.1574  -34363584.59249 -26130581.06747  21032781.8684   21032787.1114
     -1216.1314       -947.6334
  20592833.0024  -33573829.41349 -25839784.34847  20592831.3184   20592835.9684
      -462.6374       -360.4964
  20659486.3734  -30883332.54749 -23775977.96047  20659483.8344   20659488.5564
      3074.4644       2395.6854
  22228611.7674  -19658937.00148 -15014692.19746  22228609.2034   22228615.9564
      3035.6894       2365.4694
  23071619.9024  -13305567.82047  -9764636.40845  23071617.7754   23071626.4924
      4040.1554       3148.1674
 00  7 15  0 54 29.9980000  0  6G22G11G25G20G 1G16
  23115499.2694   -4377399.07547  -3395286.70245  23115495.6204   23115505.6784
      4138.3904       3224.7174
  21039783.8504  -34326801.20849 -26101918.75247  21039781.6004   21039786.9024
     -1231.2714       -959.4304
  20595532.4934  -33559644.71749 -25828731.34147  20595530.5974   20595535.3744
      -478.1084       -372.5524
  20641978.0214  -30975337.54849 -23847670.15147  20641975.5694   20641980.3884
      3064.0994       2387.6094
  22211313.6314  -19749837.03448 -15085523.31746  22211311.2734   22211318.0264
      3029.2224       2360.4324
  23048578.2074  -13426656.74647  -9858991.33346  23048576.1384   23048584.1744
      4037.3054       3145.9524
 00  7 15  0 54 59.9980000  0  6G22G11G25G20G 1G16
  23091905.6044   -4501378.01347  -3491893.47045  23091902.9364   23091911.1964
      4132.5134       3220.1354
  21046877.4024  -34289525.15549 -26072872.53947  21046875.0274   21046880.1544
     -1248.0394       -972.4974
  20598327.2214  -33544956.62649 -25817286.08647  20598325.6084   20598330.7504
      -495.2484       -385.9064
  20624537.0194  -31066991.50449 -23919088.79447  20624534.6464   20624539.7104
      3051.9264       2378.1234
  22194060.2584  -19840504.07548 -15156172.89246  22194057.9494   22194065.3104
      3021.0444       2354.0564
  23025559.1754  -13547618.22147  -9953246.94545  23025556.7684   23025565.6654
      4032.5924       3142.2724
 00  7 15  0 55 29.9980000  0  6G22G11G25G20G 1G16
  23068321.3284   -4625315.43347  -3588467.89045  23068319.0614   23068327.7054
      4129.6174       3217.8764
  21054040.5504  -34251881.99349 -26043540.26247  21054038.1954   21054043.3664
     -1261.7494       -983.1794
  20601194.7734  -33529890.10049 -25805545.94747  20601192.8974   20601197.5234
      -509.3464       -396.8934
  20607139.5724  -31158415.11549 -23990327.94547  20607137.0654   20607142.1584
      3042.7414       2370.9664
  22176827.4794  -19931061.08448 -15226736.71846  22176825.4654   22176833.1394
      3015.8874       2350.0384
  23002542.5494  -13668573.63647 -10047497.83645  23002540.4794   23002548.4174
      4030.9294       3140.9824
 00  7 15  0 55 59.9980000  0  6G22G11G25G20G 1G16
  23044755.2124   -4749157.01047  -3684967.62445  23044752.0104   23044761.5604
      4126.6744       3215.5794
  21061282.9034  -34213823.14049 -26013884.06147  21061280.6584   21061286.3174
     -1275.2384       -993.6904
  20604143.3284  -33514395.96849 -25793472.60747  20604141.3344   20604145.8924
      -523.2444       -407.7224
  20589796.2134  -31249555.46049 -24061346.36747  20589793.6354   20589798.5714
      3033.5924       2363.8364
  22159625.9264  -20021457.06748 -15297175.06946  22159623.6704   22159631.3204
      3010.8674       2346.1274
  22979536.6334  -13789470.45947 -10141703.08945  22979533.7594   22979542.7214
      4029.2624       3139.6844
 00  7 15  0 56 29.9980000  0  6G22G11G25G20G 1G16
  23021206.1324   -4872902.61847  -3781392.58745  23021203.8964   23021213.7674
      4123.3864       3213.0294
  21068603.1804  -34175354.67749 -25983908.69747  21068600.9014   21068606.7534
     -1288.9164      -1004.3494
  20607171.6564  -33498479.50749 -25781070.17847  20607170.0324   20607174.8614
      -537.3704       -418.7294
  20572506.5654  -31340413.99749 -24132145.20847  20572504.0234   20572508.6694
      3024.0794       2356.4244
  22142453.9824  -20111695.94848 -15367491.02046  22142451.7374   22142459.0664
      3005.5624       2341.9954
  22956542.2824  -13910310.48447 -10235864.05046  22956539.0984   22956547.4314
      4027.2304       3138.0964
 00  7 15  0 56 59.9980000  0  6G22G11G25G20G 1G16
  22997689.9634   -4996485.70047  -3877690.91745  22997686.2664   22997695.4224
      4118.9254       3209.5414
  21076013.0004  -34136416.01949 -25953566.94947  21076010.8724   21076016.4214
     -1303.5234      -1015.7304
  20610292.7754  -33482079.26649 -25768290.78447  20610290.8804   20610295.8784
      -552.4554       -430.4844
  20555282.5484  -31430925.35449 -24202673.51647  20555280.0324   20555285.1424
      3013.5024       2348.1834
  22125324.1654  -20201714.48448 -15437635.26746  22125321.7344   22125329.1234
      2999.1974       2337.0314
  22933569.2624  -14031029.04347 -10329930.37346  22933566.9704   22933575.7704
      4024.1754       3135.7194
 00  7 15  0 57 29.9980000  0  6G22G11G25G20G 1G16
  22974163.4574   -5120116.13447  -3974026.15145  22974160.2754   22974168.9894
      4118.6014       3209.2914
  21083471.3814  -34097222.70249 -25923026.76247  21083469.0104   21083474.6244
     -1313.8044      -1023.7414
  20613465.0774  -33465410.23649 -25755301.94147  20613463.0674   20613467.9164
      -563.2024       -438.8584
  20538084.7134  -31521300.36949 -24273095.58147  20538082.3154   20538087.4444
      3007.0944       2343.1894
  22108195.6844  -20291725.80048 -15507773.88446  22108193.2144   22108199.7704
      2997.1524       2335.4424
  22910580.1674  -14151837.59747 -10424066.82546  22910577.8744   22910586.3364
      4025.3174       3136.6044
 00  7 15  0 57 59.9980000  0  6G22G11G25G20G 1G16
  22950659.7484   -5243627.27647  -4070268.44645  22950656.6934   22950666.8814
      4111.3814       3203.6694
  21091008.4534  -34057613.41149 -25892162.43947  21091006.1974   21091012.0994
     -1330.8284      -1037.0074
  20616718.9924  -33448310.14449 -25741977.20747  20616716.9934   20616721.9604
      -580.7444       -452.5274
  20520944.3524  -31611373.12349 -24343282.12047  20520942.0244   20520947.1214
      2993.7904       2332.8224
  22091099.3134  -20381566.10248 -15577779.25046  22091096.8914   22091103.5724
      2988.2434       2328.5024
  22887606.3894  -14272570.32147 -10518144.18046  22887603.4454   22887611.0264
      4019.5734       3132.1344
 00  7 15  0 58 29.9980000  0  6G22G11G25G20G 1G16
  22927192.3324   -5366942.65047  -4166358.18645  22927189.8074   22927201.0754
      4110.8144       3203.2194
  21098638.4304  -34017517.88349 -25860919.22847  21098636.2544   21098642.4374
     -1340.9964      -1044.9294
  20620068.5284  -33430707.82949 -25728261.13847  20620066.6524   20620071.5694
      -591.4604       -460.8784
  20503875.9564  -31701068.63349 -24413174.70447  20503873.6074   20503878.7294
      2987.1694       2327.6634
  22074049.4444  -20471162.50948 -15647594.56446  22074046.8624   22074053.9594
      2986.0884       2326.8204
  22864659.6194  -14393153.04347 -10612104.66546  22864657.0524   22864664.9434
      4020.5124       3132.8674
 00  7 15  0 58 59.9980000  0  6G22G11G25G20G 1G16
  22903736.5274   -5490209.37747  -4262410.03245  22903732.6784   22903742.3564
      4104.9924       3198.6854
  21106332.1044  -33977089.38249 -25829416.56047  21106329.7954   21106335.7524
     -1356.1744      -1056.7564
  20623484.5824  -33412756.01649 -25714272.72547  20623482.7864   20623487.4424
      -607.1844       -473.1304
  20486850.9984  -31790535.52249 -24482889.14047  20486848.4194   20486853.9774
      2975.4114       2318.5024
  22057017.3234  -20560665.98648 -15717337.45346  22057014.8444   22057021.9574
      2978.9024       2321.2214
  22841714.0284  -14513734.66147 -10706064.29945  22841710.9144   22841718.3724
      4016.3834       3129.6464
 00  7 15  0 59 29.9980000  0  6G22G11G25G20G 1G16
  22880302.8654   -5613345.63247  -4358360.22345  22880299.8824   22880310.2184
      4103.4644       3197.4964
  21114103.2524  -33936252.12849 -25797595.38947  21114100.9134   21114106.7554
     -1366.8344      -1065.0624
  20626982.2744  -33394378.22349 -25699952.38147  20626980.0574   20626984.6544
      -618.4584       -481.9144
  20469884.8034  -31879693.30649 -24552362.71747  20469882.5204   20469887.5264
      2967.9404       2312.6814
  22040017.3374  -20649998.10348 -15786946.84946  22040015.3004   22040021.9514
      2976.0654       2319.0114
  22818782.5034  -14634235.38447 -10799960.88745  22818780.0984   22818787.4374
      4016.5044       3129.7384
 00  7 15  0 59 59.9980000  0  6G22G11G25G20G 1G16
  22856900.1584   -5736335.35847  -4454196.20245  22856896.6374   22856905.8774
      4100.0844       3194.8674
  21121954.1924  -33894995.42249 -25765447.37147  21121951.8734   21121957.9014
     -1379.2874      -1074.7674
  20630562.1274  -33375563.07049 -25685291.24347  20630560.3164   20630565.0064
      -631.5244       -492.0964
  20452980.4304  -31968526.84949 -24621583.63947  20452977.8254   20452982.5884
      2958.5744       2305.3814
  22023053.5204  -20739145.77948 -15856412.49946  22023051.5094   22023058.1004
      2971.4194       2315.3874
  22795871.3134  -14754640.05747 -10893782.63546  22795868.6214   22795875.4724
      4014.8064       3128.4184
 00  7 15  1  0 29.9980000  0  6G22G11G25G20G 1G16
  22833517.0284   -5859213.25447  -4549945.07145  22833514.5824   22833523.5964
      4095.2174       3191.0734
  21129876.7914  -33853359.68649 -25733004.00147  21129874.7614   21129881.0864
     -1392.9834      -1085.4404
  20634218.6164  -33356350.35249 -25670320.31247  20634216.5314   20634221.1924
      -645.8414       -503.2524
  20436130.5894  -32057071.69949 -24690579.61047  20436128.2224   20436133.1954
      2947.8404       2297.0184
  22006118.1214  -20828146.94248 -15925763.98846  22006115.5394   22006121.8404
      2965.4564       2310.7434
  22772970.0074  -14874985.02248 -10987557.86246  22772967.5154   22772974.7824
      4011.6534       3125.9634
 00  7 15  1  0 59.9980000  0  6G22G11G25G20G 1G16
  22810153.4414   -5981993.10947  -4645617.54845  22810149.4424   22810159.1194
      4090.3984       3187.3234
  21137868.4454  -33811364.90249 -25700280.84947  21137866.1214   21137872.3874
     -1406.3194      -1095.8324
  20637946.2344  -33336758.97549 -25655054.32247  20637944.4874   20637949.3064
      -659.8734       -514.1874
  20419333.5024  -32145343.03949 -24759362.45447  20419330.9334   20419335.6694
      2937.2864       2288.7934
  21989205.2524  -20917018.94248 -15995014.83146  21989203.1954   21989210.0794
      2959.7714       2306.3124
  22750077.7834  -14995285.76148 -11081298.60846  22750074.9754   22750082.4634
      4008.7464       3123.6924
 00  7 15  1  1 29.9980000  0  6G22G11G25G20G 1G16
  22786816.5614   -6104620.27647  -4741171.04045  22786813.8254   22786823.0884
      4083.8224       3182.1924
  21145937.4274  -33768962.84449 -25667240.33747  21145935.0924   21145941.4124
     -1421.2694      -1107.4794
  20641756.0124  -33316740.05549 -25639455.18447  20641753.9984   20641758.8784
      -675.4894       -526.3564
  20402598.1374  -32233287.81749 -24827890.84347  20402595.6174   20402600.4384
      2924.9284       2279.1644
  21972328.2834  -21005710.84748 -16064125.34846  21972325.8504   21972332.8304
      2952.2804       2300.4764
  22727203.5504  -15115489.48148 -11174963.76946  22727200.8804   22727208.1804
      4004.0414       3120.0274
 00  7 15  1  1 59.9970000  0  6G22G11G25G20G 1G16
  22763507.8414   -6227110.91347  -4836618.13545  22763504.8874   22763514.2224
      4082.4744       3181.1464
  21154078.3274  -33726181.10549 -25633903.97847  21154076.0704   21154082.5394
     -1430.8394      -1114.9384
  20645641.8734  -33296319.68049 -25623543.22347  20645639.9834   20645644.5834
      -685.7694       -534.3654
  20385921.4274  -32320924.48349 -24896179.13847  20385918.7364   20385923.9464
      2917.8134       2273.6194
  21955480.8494  -21094243.44948 -16133111.72346  21955478.3114   21955485.5734
      2950.2024       2298.8584
  22704344.6014  -15235614.26048 -11268567.41446  22704341.7154   22704349.1004
      4004.6624       3120.5124
 00  7 15  1  2 29.9970000  0  6G22G11G25G20G 1G16
  22740229.1154   -6349443.14547  -4931941.79845  22740225.7194   22740234.1804
      4072.0734       3173.0424
  21162297.3934  -33682992.49949 -25600250.57947  21162294.9854   21162300.9224
     -1449.2124      -1129.2554
  20649609.0494  -33275471.29749 -25607297.74747  20649607.1984   20649611.7624
      -704.8404       -549.2244
  20369307.7084  -32408230.07849 -24964209.45247  20369305.1314   20369310.2214
      2901.7624       2261.1124
  21938668.1104  -21182595.78348 -16201957.64146  21938665.7044   21938672.4604
      2939.2244       2290.3034
  22681504.4864  -15355639.42948 -11362093.43746  22681501.8394   22681508.7774
      3996.2704       3113.9724
 00  7 15  1  2 59.9970000  0  6G22G11G25G20G 1G16
  22716972.2194   -6471658.12447  -5027174.10345  22716969.5014   22716977.8924
      4076.3234       3176.3544
  21170582.8784  -33639449.28048 -25566320.86547  21170580.8354   21170586.8954
     -1452.8454      -1132.0844
  20653648.1394  -33254245.41449 -25590758.12047  20653646.3074   20653650.8204
      -709.2944       -552.6954
  20352748.7754  -32495247.46549 -25032015.19947  20352746.1514   20352751.0664
      2900.2474       2259.9324
  21921880.4704  -21270813.22048 -16270698.45046  21921877.9944   21921885.0774
      2942.8304       2293.1124
  22658674.7144  -15475607.20648 -11455574.73546  22658672.1814   22658679.6154
      4002.4994       3118.8274
 00  7 15  1  3 29.9970000  0  6G22G11G25G20G 1G16
  22693725.4644   -6593815.18847  -5122361.29045  22693723.2544   22693732.5854
      4068.0354       3169.8954
  21178924.1834  -33595617.28148 -25532166.13747  21178921.9654   21178927.8914
     -1468.7154      -1144.4514
  20657746.8924  -33232707.41249 -25573975.28047  20657745.0504   20657749.5474
      -725.9224       -565.6534
  20336232.8224  -32582037.55549 -25099643.83147  20336230.5874   20336235.4714
      2886.3644       2249.1154
  21905106.7904  -21358958.86248 -16339383.29846  21905104.4394   21905111.2554
      2934.1854       2286.3744
  22635845.5214  -15595579.10748 -11549059.26246  22635842.6994   22635849.7154
      3996.3184       3114.0074
 00  7 15  1  3 59.9970000  0  6G22G11G25G20G 1G16
  22670525.9284   -6715734.59047  -5217363.27545  22670522.7404   22670531.8074
      4060.9294       3164.3514
  21187353.1804  -33551322.87148 -25497651.09247  21187351.0014   21187356.8784
     -1483.1954      -1155.7354
  20661938.1154  -33210683.31149 -25556813.65847  20661936.1714   20661940.8104
      -741.2384       -577.5884
  20319794.6624  -32668422.11849 -25166956.46347  20319792.2274   20319797.3964
      2873.7024       2239.2464
  21888380.1044  -21446856.65548 -16407875.02246  21888377.9544   21888384.9634
      2926.8034       2280.6224
  22613048.0474  -15715377.36848 -11642408.47846  22613045.7744   22613053.2424
      3991.3474       3110.1404
 00  7 15  1  4 29.9970000  0  6G22G11G25G20G 1G16
  22647339.3454   -6837575.65747  -5312304.22045  22647337.0554   22647346.2714
      4062.0284       3165.2124
  21195839.2354  -33506731.44348 -25462904.59847  21195837.0154   21195842.5524
     -1489.3044      -1160.4944
  20666190.3514  -33188337.41349 -25539401.28747  20666188.4254   20666193.2884
      -748.1764       -582.9934
  20303403.1204  -32754561.86749 -25234078.32947  20303400.3674   20303405.2534
      2869.2314       2235.7644
  21871670.1384  -21534669.42748 -16476300.50846  21871667.8584   21871674.5384
      2927.7154       2281.3334
  22590253.9534  -15835162.38348 -11735747.36746  22590251.4004   22590258.8884
      3994.6444       3112.7064
 00  7 15  1  4 59.9970000  0  6G22G11G25G20G 1G16
  22624180.3534   -6959277.57047  -5407136.74445  22624177.8954   22624187.1654
      4052.9834       3158.1644
  21204391.4784  -33461787.81748 -25427883.65247  21204389.1264   21204395.0864
     -1505.3424      -1172.9924
  20670514.2744  -33165613.60549 -25521694.44447  20670512.4334   20670517.4664
      -765.0784       -596.1644
  20287068.9304  -32840396.65549 -25300962.56447  20287066.2924   20287071.4294
      2854.7244       2224.4604
  21854987.0544  -21622339.22348 -16544614.56846  21854984.6024   21854991.4644
      2918.6104       2274.2394
  22567473.1354  -15954875.26348 -11829030.05646  22567470.4754   22567477.6884
      3987.8734       3107.4314
 00  7 15  1  5 29.9970000  0  6G22G11G25G20G 1G16
  22601060.2814   -7080774.24547  -5501809.33845  22601057.4914   22601066.0314
      4047.3254       3153.7554
  21213021.9324  -33416431.99248 -25392541.51447  21213019.8764   21213025.7544
     -1517.8084      -1182.7054
  20674921.6584  -33142451.19649 -25503645.83147  20674920.1044   20674925.1934
      -778.4384       -606.5744
  20270805.3094  -32925861.53749 -25367558.55747  20270802.7434   20270808.2574
      2843.5554       2215.7564
  21838343.3534  -21709803.44748 -16612768.45146  21838340.9384   21838347.6964
      2912.9834       2269.8554
  22544718.6474  -16074450.83448 -11922205.76346  22544715.8204   22544722.4584
      3984.4484       3104.7614
 00  7 15  1  5 59.9970000  0  6G22G11G25G20G 1G16
  22577963.6774   -7202147.89747  -5596386.05445  22577960.7064   22577969.5984
      4042.9314       3150.3354
  21221715.1504  -33370752.41948 -25356947.09847  21221712.7614   21221718.4384
     -1528.7594      -1191.2384
  20679396.6494  -33118937.72749 -25485323.66347  20679394.8144   20679399.5604
      -790.3314       -615.8424
  20254596.7324  -33011040.44149 -25433931.71547  20254594.0334   20254599.2534
      2833.7854       2208.1434
  21821721.6764  -21797148.14048 -16680829.19046  21821719.5464   21821726.5924
      2908.7674       2266.5694
  22521973.2224  -16193973.07448 -12015339.88946  22521971.0914   22521978.9714
      3982.4784       3103.2274
 00  7 15  1  6 29.9970000  0  6G22G11G25G20G 1G16
  22554916.9484   -7323256.85847  -5690756.52345  22554914.7254   22554923.6184
      4034.0514       3143.4044
  21230494.8264  -33324613.98648 -25320995.12947  21230492.5854   21230498.3134
     -1544.0684      -1203.1684
  20683964.1274  -33094937.48249 -25466622.19447  20683961.8964   20683966.6324
      -806.5424       -628.4734
  20238468.5784  -33095792.97849 -25499972.63447  20238466.0174   20238471.3994
      2819.4874       2197.0034
  21805150.5444  -21884235.20348 -16748689.17146  21805147.9154   21805154.5754
      2900.1614       2259.8644
  22499265.9994  -16313302.79248 -12108323.98646  22499263.6874   22499271.1944
      3975.9614       3098.1474
 00  7 15  1  6 59.9970000  0  6G22G11G25G20G 1G16
  22531884.7304   -7444293.65147  -5785070.76845  22531881.5824   22531890.5604
      4027.7454       3138.4984
  21239324.2484  -33278214.96048 -25284840.09947  21239321.8754   21239327.8424
     -1556.5514      -1212.8944
  20688585.7154  -33070647.98349 -25447695.33547  20688583.8294   20688588.6064
      -820.0054       -638.9634
  20222385.0954  -33180312.82649 -25565832.24047  20222382.4234   20222387.4484
      2807.8564       2187.9394
  21788589.8124  -21971260.46548 -16816501.00546  21788587.4244   21788594.4384
      2894.2634       2255.2674
  22476558.6304  -16432633.52248 -12201308.89146  22476555.3634   22476563.3524
      3972.1334       3095.1694
 00  7 15  1  7 29.9970000  0  6G22G11G25G20G 1G16
  22508889.1804   -7565132.00647  -5879230.38545  22508886.8044   22508895.6404
      4025.1304       3136.4594
  21248226.2244  -33231434.94448 -25248388.19647  21248223.9324   21248229.7814
     -1565.1034      -1219.5604
  20693285.9544  -33045947.71849 -25428448.40247  20693284.2194   20693288.8824
      -829.5734       -646.4204
  20206369.5304  -33264474.68549 -25631412.89347  20206367.1934   20206371.5994
      2799.9804       2181.8024
  21772064.4344  -22058100.82748 -16884168.77346  21772062.2464   21772069.0184
      2892.1704       2253.6374
  22453873.0394  -16551840.43048 -12294197.31146  22453871.0744   22453878.7654
      3972.0594       3095.1084
 00  7 15  1  7 59.9970000  0  6G22G11G25G20G 1G16
  22485920.1294   -7685834.60347  -5973284.21445  22485917.5534   22485926.7624
      4022.0734       3134.0804
  21257187.7624  -33184342.68548 -25211692.99047  21257185.3894   21257191.4834
     -1573.9254      -1226.4334
  20698051.9634  -33020904.87449 -25408934.52247  20698049.8344   20698054.6824
      -839.3894       -654.0684
  20190410.6214  -33348342.35249 -25696764.30247  20190407.9324   20190412.1364
      2791.7084       2175.3564
  21755561.6604  -22144822.16048 -16951743.78546  21755559.5584   21755566.3684
      2889.7854       2251.7794
  22431200.6884  -16670987.24948 -12387038.89946  22431198.3384   22431205.7844
      3971.5864       3094.7384
 00  7 15  1  8 29.9970000  0  6G22G11G25G20G 1G16
  22462985.5634   -7806363.25547  -6067202.50445  22462982.3714   22462991.4974
      4014.0924       3127.8584
  21266214.8164  -33136906.49348 -25174729.79047  21266212.2764   21266218.2664
     -1587.4504      -1236.9724
  20702888.4634  -32995487.05049 -25389128.44747  20702886.7194   20702891.6704
      -854.0164       -665.4674
  20174513.6144  -33431879.32849 -25761858.03647  20174511.0744   20174515.3454
      2778.5034       2165.0674
  21739088.1944  -22231390.39748 -17019199.49046  21739085.8124   21739092.6874
      2882.5244       2246.1214
  22408545.5404  -16790038.29148 -12479805.88246  22408543.3534   22408551.0004
      3966.2134       3090.5524
 00  7 15  1  8 59.9970000  0  6G22G11G25G20G 1G16
  22440079.0634   -7926734.04447  -6160997.78645  22440076.4604   22440085.6044
      4009.6244       3124.3794
  21275302.5534  -33089148.78948 -25137516.06247  21275300.2654   21275306.1584
     -1597.3104      -1244.6554
  20707792.6584  -32969715.79749 -25369046.97747  20707790.8094   20707795.5904
      -864.9434       -673.9794
  20158676.8534  -33515103.02949 -25826707.65347  20158674.0734   20158678.5454
      2768.8504       2157.5454
  21722640.1204  -22317825.36248 -17086551.37146  21722637.8164   21722644.5534
      2878.9334       2243.3224
  22385906.8664  -16909010.87648 -12572511.71646  22385903.9574   22385911.2554
      3964.3984       3089.1374
 00  7 15  1  9 29.9970000  0  6G22G11G25G20G 1G16
  22417208.7524   -8046923.15247  -6254651.51445  22417205.4934   22417213.5544
      4002.1114       3118.5244
  21284454.7624  -33041051.86948 -25100038.00947  21284452.7064   21284458.4794
     -1610.0024      -1254.5464
  20712767.6354  -32943572.20649 -25348675.36847  20712765.6854   20712770.4644
      -878.7424       -684.7344
  20142903.0344  -33597990.93249 -25891295.61447  20142900.8284   20142905.4924
      2756.1764       2147.6694
  21706221.2914  -22404106.45248 -17153783.34146  21706219.1214   21706225.7404
      2872.3724       2238.2104
  22363286.0224  -17027883.02948 -12665139.29546  22363283.0744   22363290.6854
      3959.6044       3085.4024
 00  7 15  1  9 59.9970000  0  6G22G11G25G20G 1G16
  22394363.1204   -8166966.90447  -6348191.97245  22394361.7644   22394370.4574
      3999.1324       3116.2014
  21293663.7294  -32992657.45148 -25062328.13747  21293661.5804   21293668.0784
     -1617.9114      -1260.7074
  20717805.5984  -32917097.72349 -25328045.92247  20717803.8284   20717808.5314
      -887.7614       -691.7614
  20127187.7494  -33680579.95649 -25955650.68247  20127184.9234   20127189.5164
      2748.1614       2141.4254
  21689824.5074  -22490272.77448 -17220925.86846  21689822.2454   21689828.9804
      2870.5264       2236.7734
  22340677.4664  -17146691.59748 -12757717.32746  22340674.9174   22340682.1194
      3959.4334       3085.2674
 00  7 15  1 10 29.9970000  0  6G22G11G25G20G 1G16
  22371575.9214   -8286718.63247  -6441504.88445  22371573.4964   22371581.4814
      3991.7434       3110.4484
  21302956.3044  -32943825.31448 -25024277.18947  21302954.0084   21302960.2444
     -1630.0664      -1270.1784
  20722933.5464  -32890151.05949 -25307048.54147  20722931.5024   20722936.5094
      -901.0774       -702.1374
  20111555.6964  -33762724.80549 -26019659.64547  20111553.2284   20111557.6354
      2735.7024       2131.7174
  21673477.2274  -22576181.26648 -17287867.51246  21673474.7864   21673480.6124
      2864.2894       2231.9134
  22318108.3084  -17265291.74248 -12850132.95846  22318105.8144   22318113.0924
      3954.8144       3081.6704
 00  7 15  1 10 59.9970000  0  6G22G11G25G20G 1G16
  22348814.9644   -8406330.76747  -6534709.01945  22348812.0114   22348820.0424
      3979.3524       3100.7914
  21312301.4294  -32894714.41048 -24986009.02547  21312299.3624   21312305.8444
     -1646.9594      -1283.3424
  20728121.0044  -32862890.99849 -25285806.96147  20728118.9444   20728124.0344
      -919.1614       -716.2294
  20095979.3054  -33844579.76249 -26083442.71447  20095976.7174   20095981.3114
      2718.3584       2118.2014
  21657147.9554  -22661988.34748 -17354730.12846  21657145.4754   21657151.8804
      2853.2844       2223.3364
  22295549.6894  -17383838.01548 -12942506.62046  22295547.4164   22295554.5134
      3945.3414       3074.2904
 00  7 15  1 11 29.9970000  0  6G22G11G25G20G 1G16
  22326099.2244   -8525701.12947  -6627724.76345  22326096.7764   22326105.0314
      3976.6024       3098.6514
  21321718.1444  -32845228.82948 -24947448.91746  21321716.0014   21321722.6144
     -1654.0514      -1288.8684
  20733386.7384  -32835220.19149 -25264245.31647  20733384.7814   20733389.4794
      -927.4774       -722.7094
  20080477.2224  -33926043.85149 -26146921.20847  20080474.4954   20080478.7534
      2710.6274       2112.1774
  21640857.0684  -22747595.39248 -17421436.86546  21640854.8754   21640861.3464
      2851.9244       2222.2784
  22273020.9834  -17502229.48548 -13034759.65446  22273018.2604   22273025.3274
      3945.4964       3074.4114
 00  7 15  1 11 59.9970000  0  6G22G11G25G20G 1G16
  22303389.3934   -8645040.22047  -6720716.14845  22303386.2564   22303395.6414
      3970.3334       3093.7604
  21331164.9864  -32795585.32948 -24908765.75146  21331162.9594   21331169.4554
     -1664.3944      -1296.9294
  20738689.3664  -32807354.60349 -25242531.88747  20738687.3144   20738691.9624
      -939.0614       -731.7364
  20065008.6104  -34007328.64349 -26210259.99347  20065006.3994   20065010.6614
      2699.4834       2103.4944
  21624563.9974  -22833216.16048 -17488154.30346  21624561.7914   21624568.1494
      2847.2764       2218.6554
  22250480.0944  -17620678.16248 -13127057.26046  22250477.6464   22250485.1424
      3942.2304       3071.8674
 00  7 15  1 12 29.9970000  0  6G22G11G25G20G 1G16
  22280736.8874   -8764073.42247  -6813469.19045  22280734.3104   22280743.6944
      3966.6954       3090.9234
  21340693.4474  -32745514.85948 -24869749.88046  21340691.2754   21340697.7724
     -1672.0294      -1302.8764
  20744079.8524  -32779024.60449 -25220456.58347  20744078.0734   20744083.0394
      -947.9594       -738.6694
  20049626.9714  -34088160.62249 -26273245.93147  20049624.5474   20049629.1064
      2690.9254       2096.8254
  21608320.1384  -22918579.25648 -17554670.95646  21608317.9594   21608324.1044
      2845.2554       2217.0814
  22227982.2114  -17738910.57448 -13219186.36246  22227979.3824   22227986.2364
      3941.5554       3071.3394
 00  7 15  1 12 59.9970000  0  6G22G11G25G20G 1G16
  22258119.2204   -8882930.88847  -6906085.28045  22258118.0104   22258125.3564
      3954.9674       3081.7904
  21350277.1814  -32695154.08648 -24830507.80046  21350275.0314   21350280.9754
     -1687.4194      -1314.8694
  20749533.0804  -32750366.23049 -25198125.40547  20749531.4414   20749536.7264
      -964.6034       -751.6384
  20034306.7694  -34168671.30649 -26335981.51647  20034304.0314   20034308.3864
      2674.4264       2083.9694
  21592099.9084  -23003818.47248 -17621091.08146  21592097.6274   21592103.6124
      2835.3754       2209.3824
  22205498.5084  -17857058.58948 -13311249.70046  22205495.8094   22205503.5864
      3932.9934       3064.6674
 00  7 15  1 13 29.9970000  0  6G22G11G25G20G 1G16
  22235542.9734   -9001575.96947  -6998535.88945  22235539.5384   22235547.5094
      3949.1444       3077.2544
  21359922.2934  -32644472.66248 -24791015.85846  21359919.8814   21359925.4404
     -1696.7674      -1322.1544
  20755055.3064  -32721347.97249 -25175513.80247  20755053.4764   20755058.8394
      -975.2634       -759.9444
  20019053.7094  -34248825.54449 -26398439.34747  20019051.2054   20019055.9724
      2663.7924       2075.6804
  21575909.6894  -23088900.89348 -17687389.02846  21575907.2014   21575913.3654
      2831.4224       2206.3014
  22183038.6784  -17975087.05848 -13403219.86646  22183035.9174   22183043.7304
      3930.2604       3062.5364
 00  7 15  1 13 59.9970000  0  7G22G11G25G20G 1G16G19
  22213004.2384   -9120017.61447  -7090827.96545  22213000.7064   22213009.4744
      3941.3344       3071.1684
  21369624.5054  -32593486.08748 -24751286.12646  21369622.1144   21369628.3214
     -1707.8614      -1330.7984
  20760643.5034  -32691984.41049 -25152633.12847  20760641.4374   20760646.3224
      -987.7874       -769.7044
  20003866.5194  -34328633.78249 -26460627.56147  20003864.0984   20003868.7604
      2651.2214       2065.8854
  21559746.3484  -23173839.05248 -17753574.55646  21559743.7414   21559749.8744
      2825.6454       2201.8004
  22160598.9324  -18093006.73348 -13495105.26446  22160596.2014   22160603.8974
      3925.5604       3058.8754
  23981729.4064   -6071751.61957  -4388653.10045  23981727.0994   23981741.3414
      4352.4804       3391.5304
 00  7 15  1 14 29.9970000  0  7G22G11G25G20G 1G16G19
  22190514.3564   -9238195.94747  -7182914.87745  22190512.2654   22190520.8734
      3936.3054       3067.2474
  21379395.0284  -32542140.55148 -24711276.69946  21379392.9044   21379399.2734
     -1715.9924      -1337.1354
  20766307.0074  -32662220.78549 -25129440.71147  20766305.0504   20766310.0504
      -997.2304       -777.0614
  19988757.0624  -34408037.06049 -26522500.22747  19988754.3084   19988758.6874
      2641.5234       2058.3294
  21543620.2564  -23258576.37448 -17819603.59546  21543618.2164   21543624.4894
      2822.7484       2199.5444
  22138191.5784  -18210758.75748 -13586860.03546  22138188.9874   22138195.8734
      3923.7844       3057.4914
  23956883.4904   -6202318.89147  -4490393.44545  23956881.1244   23956894.4214
      4351.2914       3390.6084
 00  7 15  1 14 59.9970000  0  7G22G11G25G20G 1G16G19
  22168065.3064   -9356164.46247  -7274838.29745  22168063.3744   22168071.8684
      3927.3514       3060.2724
  21389222.9934  -32490495.28048 -24671033.71446  21389220.6364   21389226.7184
     -1727.9194      -1346.4284
  20772035.4874  -32632116.12949 -25105982.55847  20772033.9584   20772038.8414
     -1010.5594       -787.4474
  19973713.2224  -34487089.77049 -26584099.72347  19973710.7954   19973715.6364
      2627.8144       2047.6484
  21527523.3324  -23343169.30748 -17885520.12246  21527521.0444   21527527.4734
      2815.9314       2194.2314
  22115805.8554  -18328397.91548 -13678526.85546  22115803.1664   22115810.5094
      3917.9874       3052.9754
  23932055.3994   -6332792.28147  -4592060.63945  23932052.5504   23932064.8384
      4346.1314       3386.5854
 00  7 15  1 15 29.9970000  0  7G22G11G25G20G 1G16G19
  22145657.0734   -9473925.19647  -7366599.80545  22145654.3224   22145661.9574
      3925.7804       3059.0464
  21399105.7544  -32438558.76148 -24630563.78246  21399103.9214   21399109.8124
     -1732.1154      -1349.6974
  20777828.4314  -32601677.86349 -25082264.45247  20777826.4344   20777831.2554
     -1016.1974       -791.8404
  19958736.4654  -34565795.67749 -26645428.98447  19958733.8364   19958738.5724
      2621.6754       2042.8624
  21511452.1264  -23427623.47148 -17951328.50746  21511449.9344   21511456.1924
      2816.7714       2194.8854
  22093439.9674  -18445927.95648 -13770108.64446  22093437.5564   22093445.3134
      3919.8014       3054.3874
  23907243.7574   -6463175.81547  -4693657.81445  23907241.6174   23907254.3334
      4348.5474       3388.4654
 00  7 15  1 15 59.9970000  0  7G22G11G25G20G 1G16G19
  22123284.4384   -9591490.71447  -7458209.20145  22123281.8344   22123290.3224
      3914.3904       3050.1674
  21409040.8054  -32386350.15148 -24589881.82946  21409038.7104   21409045.1784
     -1745.8394      -1360.3914
  20783680.3454  -32570924.19649 -25058300.57647  20783678.6244   20783683.7164
     -1031.3624       -803.6584
  19943822.1964  -34644168.67849 -26706498.83347  19943819.7024   19943824.7004
      2605.8514       2030.5324
  21495404.6414  -23511955.36448 -18017041.62846  21495402.1814   21495408.3304
      2808.0444       2188.0864
  22071093.0994  -18563362.95748 -13861616.38746  22071090.6634   22071098.2154
      3911.9074       3048.2394
  23882446.6294   -6593484.09547  -4795196.37445  23882443.6774   23882456.3894
      4341.3294       3382.8404
 00  7 15  1 16 29.9970000  0  7G22G11G25G20G 1G16G19
  22100946.8864   -9708879.57347  -7549680.91445  22100943.7144   22100952.3324
      3907.7104       3044.9704
  21419023.2054  -32333894.42448 -24549007.32146  21419020.9604   21419027.6714
     -1754.9454      -1367.4884
  20789588.1014  -32539879.37249 -25034109.83147  20789586.2684   20789591.2144
     -1041.9644       -811.9194
  19928967.5374  -34722228.80249 -26767324.88647  19928965.2634   19928970.3344
      2594.4384       2021.6404
  21479375.4244  -23596187.08448 -18082676.69746  21479373.2524   21479379.9284
      2803.7494       2184.7374
  22048760.1884  -18680723.15248 -13953065.83546  22048757.5054   22048764.9364
      3908.3634       3045.4744
  23857659.2994   -6723737.77847  -4896692.38045  23857657.4614   23857669.8534
      4338.5544       3380.6754
 00  7 15  1 16 59.9970000  0  7G22G11G25G20G 1G16G19
  22078659.0264   -9825995.61247  -7640940.07445  22078657.3474   22078665.7864
      3899.9614       3038.9294
  21429069.6764  -32281101.34548 -24507869.94946  21429067.2644   21429074.0474
     -1764.6904      -1375.0814
  20795568.3404  -32508452.07449 -25009621.05847  20795566.5624   20795571.2974
     -1053.2104       -820.6834
  19914191.3364  -34799880.99549 -26827833.07447  19914188.6574   19914193.5844
      2582.2964       2012.1784
  21463383.2464  -23680225.66948 -18148161.26246  21463381.1244   21463387.6714
      2798.8114       2180.8894
  22026459.6654  -18797913.25648 -14044382.74546  22026456.8864   22026464.3374
      3904.2284       3042.2534
  23832901.0364   -6853842.23647  -4998072.11745  23832899.4154   23832910.7234
      4335.0354       3377.9354
 00  7 15  1 17 29.9970000  0  7G22G11G25G20G 1G16G19
  22056421.0604   -9942858.31647  -7732001.81645  22056418.7304   22056427.5904
      3892.9544       3033.4664
  21439175.2484  -32227996.32148 -24466489.49146  21439173.0094   21439179.5914
     -1773.4974      -1381.9434
  20801616.6844  -32476666.87749 -24984853.39447  20801615.0944   20801619.7644
     -1063.5864       -828.7694
  19899488.4624  -34877145.58249 -26888039.23247  19899485.7994   19899490.5294
      2570.8464       2003.2544
  21447423.9044  -23764093.78748 -18213512.99446  21447421.7284   21447427.5314
      2794.6374       2177.6374
  22004187.0184  -18914954.08948 -14135583.33646  22004184.7154   22004191.9924
      3900.7034       3039.5074
  23808167.7864   -6983818.38447  -5099351.88345  23808165.6564   23808177.5564
      4332.2194       3375.7394
 00  7 15  1 17 59.9970000  0  7G22G11G25G20G 1G16G19
  22034234.7524  -10059449.49947  -7822851.98245  22034232.1014   22034240.2734
      3881.7744       3024.7534
  21449342.3614  -32174567.84848 -24424856.99546  21449340.1524   21449346.8944
     -1786.2794      -1391.9044
  20807736.1204  -32444511.72049 -24959797.45347  20807734.0494   20807738.7414
     -1077.9244       -839.9394
  19884862.3814  -34954006.25149 -26947930.64547  19884859.7024   19884864.5834
      2555.3074       1991.1474
  21431499.9624  -23847777.11748 -18278720.74146  21431497.4134   21431503.1514
      2786.4194       2171.2354
  21981946.6504  -19031829.30048 -14226654.87846  21981944.3274   21981951.3534
      3893.1464       3033.6184
  23783461.4314   -7113649.97847  -5200519.01845  23783458.8964   23783470.3804
      4325.3404       3370.3734
 00  7 15  1 18 29.9970000  0  7G22G11G25G20G 1G16G19
  22012090.3884  -10175822.21547  -7913531.91945  22012087.0504   22012095.5134
      3873.5904       3018.3724
  21459559.8764  -32120875.34448 -24383018.77346  21459557.6684   21459564.3614
     -1795.9084      -1399.4054
  20813914.0854  -32412045.33649 -24934499.00047  20813912.2964   20813917.1254
     -1089.1134       -848.6594
  19870302.2624  -35030517.31949 -27007549.64947  19870299.8684   19870304.8514
      2542.7584       1981.3684
  21415599.7644  -23931332.30248 -18343828.63146  21415597.2574   21415602.6804
      2781.2734       2167.2254
  21959727.1584  -19148593.38648 -14317639.84346  21959724.8194   21959732.2214
      3888.4864       3029.9884
  23758771.9094   -7243392.32447  -5301616.63145  23758769.1554   23758781.2354
      4321.4644       3367.3614
 00  7 15  1 18 59.9970000  0  7G22G11G25G20G 1G16G19
  21989990.6204  -10291950.62947  -8004021.48545  21989988.3604   21989996.9274
      3866.4974       3012.8524
  21469830.8254  -32066899.39348 -24340959.69146  21469828.6824   21469835.8634
     -1804.2734      -1405.9244
  20820155.7834  -32379247.18449 -24908942.02847  20820153.7584   20820158.6874
     -1099.0824       -856.4274
  19855813.8314  -35106654.30549 -27066877.16247  19855811.3554   19855816.4364
      2531.3284       1972.4624
  21399727.9724  -24014736.93748 -18408819.21846  21399725.6544   21399731.4764
      2777.2974       2164.1284
  21937534.3694  -19265221.84348 -14408519.11246  21937531.1724   21937538.6204
      3884.9874       3027.2614
  23734103.0334   -7373021.43947  -5402626.01345  23734101.1784   23734114.8884
      4318.7354       3365.2404
 00  7 15  1 19 29.9970000  0  7G22G11G25G20G 1G16G19
  21967940.0404  -10407833.71647  -8094319.88245  21967937.0254   21967944.8154
      3857.3394       3005.7114
  21480155.2344  -32012644.74648 -24298683.44546  21480153.1994   21480159.9004
     -1814.3844      -1413.8044
  20826459.3704  -32346121.38249 -24883129.74747  20826457.4644   20826462.1914
     -1110.8784       -865.6184
  19841396.9454  -35182417.24149 -27125913.20447  19841394.4484   19841399.6124
      2517.8994       1962.0004
  21383884.6474  -24097992.88048 -18473693.93946  21383882.2204   21383888.8194
      2771.4724       2159.5864
  21915366.0924  -19381714.91248 -14499292.89546  21915363.0294   21915370.2614
      3879.5414       3023.0184
  23709456.0924   -7502537.62747  -5503547.39845  23709454.0264   23709467.2144
      4314.0284       3361.5764
 00  7 15  1 19 59.9970000  0  7G22G11G25G20G 1G16G19
  21945932.8454  -10523472.02347  -8184427.56645  21945930.8794   21945938.8134
      3846.7624       2997.4734
  21490531.1324  -31958118.31048 -24256195.41546  21490529.1594   21490535.9254
     -1825.7474      -1422.6564
  20832824.4794  -32312673.78849 -24857066.71547  20832822.3564   20832826.8224
     -1123.9214       -875.7824
  19827050.6044  -35257807.98149 -27184659.22547  19827047.9654   19827053.1974
      2503.1534       1950.5084
  21368069.1204  -24181104.23448 -18538456.00546  21368066.7924   21368073.8074
      2764.3084       2154.0064
  21893223.0334  -19498074.12248 -14589962.37346  21893220.3924   21893227.8564
      3872.7464       3017.7274
  23684831.8694   -7631942.98147  -5604382.43745  23684829.5554   23684842.3644
      4307.9594       3356.8464
 00  7 15  1 20 29.9970000  0  7G22G11G25G20G 1G16G19
  21923981.8184  -10638828.11547  -8274315.32645  21923978.5204   21923987.7054
      3844.5014       2995.7114
  21500965.2574  -31903289.21848 -24213471.55146  21500962.6384   21500969.6494
     -1828.5604      -1424.8494
  20839256.5884  -32278872.64549 -24830728.19047  20839254.3164   20839259.2054
     -1128.4234       -879.2904
  19812782.0254  -35332790.75349 -27243087.35347  19812779.3584   19812784.3514
      2496.7294       1945.5034
  21352287.9504  -24264037.50448 -18603079.29447  21352285.3594   21352291.9624
      2765.5954       2155.0074
  21871112.6684  -19614264.05048 -14680499.93446  21871110.2014   21871117.7944
      3874.2534       3018.8984
  23660233.4744   -7761202.43547  -5705103.76045  23660231.5594   23660244.5264
      4310.2874       3358.6554
 00  7 15  1 20 59.9970000  0  7G22G11G25G20G 1G16G19
  21902074.7434  -10753957.89347  -8364026.74545  21902071.5464   21902078.4824
      3831.3634       2985.4774
  21511444.1784  -31848219.72848 -24170560.37946  21511442.1054   21511448.5914
     -1842.1074      -1435.4034
  20845743.5114  -32244779.55849 -24804162.18347  20845741.8314   20845746.8864
     -1143.7084       -891.2004
  19798579.9404  -35407422.68149 -27301242.10047  19798577.3444   19798582.4454
      2479.4194       1932.0144
  21336528.5994  -24346852.11748 -18667610.13847  21336526.2024   21336532.4214
      2756.0984       2147.6094
  21849024.1794  -19730341.61548 -14770949.96546  21849021.7974   21849028.0554
      3864.9214       3011.6274
  23635653.0734   -7890373.69047  -5805756.39445  23635651.0914   23635663.9784
      4301.7874       3352.0354
 00  7 15  1 21 29.9970000  0  7G22G11G25G20G 1G16G19
  21880231.4964  -10868741.87947  -8453468.73245  21880229.0214   21880236.6334
      3824.2434       2979.9354
  21521991.1974  -31792796.58048 -24127373.61946  21521989.2704   21521995.1034
     -1849.3984      -1441.0864
  20852308.7534  -32210280.72349 -24777280.01347  20852307.0064   20852312.0014
     -1152.7864       -898.2744
  19784467.3294  -35481585.61549 -27359031.39647  19784464.6134   19784469.3394
      2468.1764       1923.2544
  21320813.7594  -24429431.99348 -18731958.07047  21320811.7124   21320817.6464
      2752.6814       2144.9464
  21826979.1274  -19846189.05848 -14861220.66846  21826976.4204   21826983.0574
      3861.6424       3009.0724
  23611112.9284   -8019339.12147  -5906248.63745  23611110.8164   23611122.7524
      4299.3184       3350.1114
 00  7 15  1 21 59.9970000  0  7G22G11G25G20G 1G16G19
  21858440.1214  -10983249.23947  -8542695.17045  21858438.0314   21858446.5714
      3816.0694       2973.5604
  21532591.5734  -31737095.24848 -24083970.08846  21532589.1204   21532595.0614
     -1857.4964      -1447.3984
  20858937.1354  -32175450.09049 -24750139.29547  20858935.0604   20858939.8264
     -1162.6674       -905.9734
  19770430.1764  -35555349.83449 -27416510.00347  19770427.6484   19770432.1144
      2455.9724       1913.7434
  21305131.2244  -24511849.28148 -18796179.30047  21305128.6604   21305134.3774
      2748.3904       2141.6034
  21804964.2924  -19961876.32048 -14951366.53246  21804961.6694   21804968.4484
      3857.3934       3005.7604
  23586595.7364   -8148169.18047  -6006635.40745  23586593.7434   23586606.4454
      4295.8944       3347.4354
 00  7 15  1 22 29.9970000  0  7G22G11G25G20G 1G16G19
  21836696.2374  -11097516.33347  -8631734.38645  21836694.0024   21836701.9454
      3806.6214       2966.1954
  21543235.7164  -31681157.98848 -24040382.72146  21543233.6754   21543239.8884
     -1866.7574      -1454.6134
  20865620.1774  -32140329.48949 -24722772.62347  20865618.4304   20865622.9934
     -1173.6864       -914.5594
  19756462.4404  -35628752.92549 -27473707.20947  19756459.7724   19756464.0944
      2442.4934       1903.2414
  21289469.9944  -24594143.82448 -18860304.89047  21289467.9344   21289474.6054
      2742.8874       2137.3144
  21782973.0384  -20077440.95348 -15041416.86946  21782970.7124   21782977.3294
      3851.8554       3001.4444
  23562098.7894   -8276901.95247  -6106946.37445  23562096.6034   23562108.8334
      4291.2364       3343.8154
 00  7 15  1 22 59.9970000  0  7G22G11G25G20G 1G16G19
  21815017.1804  -11211439.93047  -8720505.91645  21815015.0654   21815022.7944
      3794.5654       2956.8024
  21553944.3424  -31624888.37448 -23996536.38046  21553941.8324   21553947.9504
     -1878.3194      -1463.6234
  20872377.3334  -32104821.59749 -24695104.16947  20872375.3934   20872380.1064
     -1187.1554       -925.0544
  19742581.5704  -35701693.35649 -27530543.90747  19742579.0994   19742584.1424
      2426.4844       1890.7684
  21273852.2894  -24676216.24048 -18924257.39747  21273850.0624   21273856.9154
      2734.9334       2131.1174
  21761024.6044  -20192781.68748 -15131292.73246  21761022.2714   21761028.9044
      3843.8164       2995.1824
  23537639.2544   -8405436.44547  -6207102.84645  23537637.1404   23537649.1204
      4284.0304       3338.1974
 00  7 15  1 23 29.9970000  0  7G22G11G25G20G 1G16G19
  21793386.3274  -11325117.68147  -8809085.89345  21793383.0304   21793390.4874
      3784.5404       2948.9844
  21564694.8634  -31568390.44348 -23952512.12846  21564692.8904   21564699.3834
     -1887.6234      -1470.8684
  20879188.5944  -32069029.53549 -24667214.28747  20879186.3904   20879191.1714
     -1198.2984       -933.7384
  19728770.6374  -35774270.28849 -27587097.35547  19728768.3934   19728772.7704
      2412.5824       1879.9334
  21258257.8294  -24758167.65148 -18988115.61247  21258255.4744   21258261.7144
      2729.1554       2126.6134
  21739099.8594  -20307997.47948 -15221071.22746  21739096.9904   21739104.5154
      3837.8704       2990.5464
  23513198.6814   -8533872.57547  -6307182.66545  23513196.2524   23513207.3234
      4278.9594       3334.2494
 00  7 15  1 23 59.9970000  0  7G22G11G25G20G 1G16G19
  21771796.1524  -11438568.05247  -8897488.69845  21771793.4394   21771801.8814
      3776.5304       2942.7444
  21575484.9474  -31511688.60448 -23908328.99146  21575482.4744   21575489.5844
     -1894.7714      -1476.4434
  20886048.8774  -32032977.09949 -24639121.51847  20886046.8044   20886051.8594
     -1207.3734       -940.8084
  19715025.8514  -35846503.08249 -27643382.65147  19715023.1254   19715027.2544
      2400.6884       1870.6664
  21242681.4784  -24840019.72048 -19051896.41747  21242679.1164   21242685.7674
      2725.4294       2123.7114
  21717194.2814  -20423107.84048 -15310767.55946  21717192.2714   21717199.8424
      3833.9104       2987.4604
  23488772.7054   -8662230.27947  -6407201.39045  23488770.6274   23488782.3344
      4275.9254       3331.8774
 00  7 15  1 24 29.9970000  0  7G22G11G25G20G 1G16G19
  21750254.6604  -11551770.52347  -8985698.32345  21750252.0984   21750260.1494
      3769.5264       2937.2884
  21586315.6974  -31454768.58448 -23863975.85146  21586313.9584   21586321.4254
     -1900.6264      -1481.0024
  20892961.5904  -31996648.73549 -24610813.74547  20892959.6834   20892965.1714
     -1215.1694       -946.8844
  19701349.0804  -35918372.60349 -27699384.87347  19701346.4634   19701351.0044
      2389.9294       1862.2814
  21227127.2624  -24921755.22648 -19115586.39047  21227125.2054   21227131.8444
      2722.9414       2121.7704
  21695313.1124  -20538093.06148 -15400366.39446  21695310.9854   21695318.8174
      3831.0934       2985.2644
  23464365.0974   -8790490.16747  -6507143.90145  23464363.2824   23464374.9234
      4274.0264       3330.3994
 00  7 15  1 24 59.9970000  0  7G22G11G25G20G 1G16G19
  21728760.6344  -11664722.10447  -9073712.46445  21728758.2064   21728765.9754
      3761.4214       2930.9724
  21597189.1394  -31397633.52948 -23819455.15146  21597186.9154   21597194.2264
     -1907.4104      -1486.2884
  20899926.8304  -31960046.95949 -24582292.92247  20899925.0184   20899930.2684
     -1223.9384       -953.7164
  19687742.4134  -35989876.90549 -27755102.51347  19687739.7144   19687744.0334
      2378.0074       1852.9944
  21211595.9694  -25003374.47048 -19179185.77447  21211593.9074   21211600.0984
      2719.3694       2118.9884
  21673456.5694  -20652951.78148 -15489866.64546  21673454.2454   21673461.5514
      3827.1154       2982.1674
  23439977.3594   -8918651.20347  -6607009.35445  23439974.8934   23439987.1054
      4270.9864       3328.0284
 00  7 15  1 25 29.9970000  0  7G22G11G25G20G 1G16G19
  21707333.9864  -11777319.81547  -9161450.86545  21707330.8584   21707339.1154
      3749.1004       2921.3714
  21608120.8104  -31340187.39348 -23774692.04646  21608118.5064   21608126.1514
     -1918.2684      -1494.7514
  20906962.6384  -31923074.75949 -24553483.45447  20906960.7704   20906965.7934
     -1236.7694       -963.7154
  19674224.2504  -36060915.15849 -27810456.99447  19674221.4704   19674226.4944
      2361.9154       1840.4534
  21196104.9574  -25084778.26448 -19242617.28047  21196102.6754   21196109.2174
      2711.6524       2112.9744
  21651644.0964  -20767582.41848 -15579189.18146  21651641.0204   21651647.8964
      3818.9844       2975.8324
  23415626.3694   -9046613.01347  -6706719.60045  23415624.1294   23415635.4234
      4263.8814       3322.4914
 00  7 15  1 25 59.9970000  0  7G22G11G25G20G 1G16G19
  21685969.3834  -11889589.37747  -9248933.55945  21685966.8214   21685974.9464
      3738.3084       2912.9634
  21619105.7064  -31282462.23548 -23729711.52946  21619103.2744   21619110.8144
     -1927.2724      -1501.7684
  20914062.5944  -31885763.77549 -24524409.99747  20914060.7394   20914065.5144
     -1247.7754       -972.2934
  19660789.4104  -36131514.44749 -27865469.42247  19660786.8444   19660791.9274
      2347.4894       1829.2134
  21180650.1574  -25165995.98648 -19305903.78547  21180647.9254   21180654.1994
      2705.7104       2108.3464
  21629868.0874  -20882012.42048 -15668355.37846  21629865.9014   21629872.5254
      3812.4944       2970.7754
  23391308.4354   -9174403.31147  -6806296.17345  23391306.3144   23391317.7514
      4258.3254       3318.1684
 00  7 15  1 26 29.9970000  0  7G22G11G25G20G 1G16G19
  21664656.3384  -12001592.40147  -9336208.57046  21664653.7904   21664661.3784
      3729.3344       2905.9734
  21630131.1734  -31224525.81748 -23684566.38846  21630128.6164   21630135.7454
     -1934.3284      -1507.2664
  20921214.6544  -31848180.44349 -24495124.31747  20921212.5014   20921217.4114
     -1256.9264       -979.4224
  19647426.2474  -36201737.37449 -27920188.59347  19647424.0344   19647428.7484
      2334.8544       1819.3684
  21165218.1014  -25247092.36748 -19369095.73947  21165215.6444   21165222.4544
      2701.5964       2105.1404
  21608119.4764  -20996303.89348 -15757413.61846  21608116.9244   21608123.8104
      3807.7984       2967.1124
  23367011.0324   -9302085.05447  -6905788.19145  23367009.2934   23367019.8644
      4254.6354       3315.2944
 00  7 15  1 26 59.9970000  0  7G22G11G25G20G 1G16G19
  21643401.0234  -12113283.94747  -9423240.87846  21643399.2404   21643406.9304
      3718.9344       2897.8674
  21641202.7984  -31166338.95548 -23639226.09346  21641201.1514   21641208.7724
     -1942.5824      -1513.6944
  20928425.5324  -31810284.73149 -24465595.23047  20928423.4374   20928428.9034
     -1267.1834       -987.4144
  19634143.7094  -36271539.89349 -27974580.16947  19634141.2694   19634145.8684
      2320.9054       1808.4964
  21149816.9884  -25328025.43548 -19432160.44347  21149814.7134   21149821.8454
      2696.2084       2100.9414
  21586405.3754  -21110413.29448 -15846329.98946  21586402.6934   21586409.0614
      3801.7184       2962.3784
  23342743.7894   -9429614.63947  -7005161.63145  23342741.1174   23342752.3394
      4249.5764       3311.3514
 00  7 15  1 27 29.9970000  0  7G22G11G25G20G 1G16G19
  21622214.6614  -12224619.40047  -9509995.70346  21622212.0834   21622220.1454
      3702.8324       2885.3214
  21652331.2774  -31107863.58548 -23593660.99446  21652329.0104   21652336.1834
     -1956.3284      -1524.4094
  20935703.5864  -31772037.76949 -24435792.45047  20935701.8174   20935707.2674
     -1283.0774       -999.7974
  19620948.8534  -36340878.92649 -28028610.58047  19620946.4354   19620951.3354
      2301.2064       1793.1484
  21134454.7244  -25408754.21448 -19495065.96447  21134452.3624   21134458.4204
      2685.1944       2092.3584
  21564733.9684  -21224296.97248 -15935070.46946  21564731.0794   21564737.9024
      3789.9944       2953.2394
  23318511.5434   -9556949.64847  -7104383.48745  23318509.0014   23318520.5854
      4238.8744       3303.0104
 00  7 15  1 27 59.9970000  0  7G22G11G25G20G 1G16G19
  21601084.0094  -12335666.30047  -9596525.67346  21601081.0034   21601089.0944
      3697.7374       2881.3534
  21663499.3914  -31049174.01648 -23547928.98746  21663497.4724   21663504.2654
     -1958.7924      -1526.3284
  20943034.7624  -31733512.72749 -24405772.98247  20943032.8634   20943038.1414
     -1287.6784      -1003.3844
  19607828.9534  -36409823.95049 -28082333.96947  19607826.5834   19607831.3404
      2292.6764       1786.5014
  21119117.9114  -25489349.97648 -19557867.83147  21119115.6474   21119121.8784
      2685.4194       2092.5334
  21543091.5774  -21338024.42348 -16023689.20946  21543089.1714   21543096.0284
      3789.4034       2952.7804
  23294303.2634   -9684159.88047  -7203508.08045  23294301.8944   23294313.7044
      4239.3244       3303.3614
 00  7 15  1 28 29.9970000  0  7G22G11G25G20G 1G16G19
  21580004.7034  -12446441.23148  -9682843.71746  21580001.4274   21580009.5724
      3691.7944       2876.7184
  21674703.8744  -30990293.02448 -23502047.81846  21674701.7904   21674709.0374
     -1961.9824      -1528.8134
  20950414.4784  -31694731.96849 -24375554.24647  20950412.9534   20950417.8424
     -1293.0244      -1007.5484
  19594780.8774  -36478393.04049 -28135764.42847  19594778.3474   19594783.0384
      2283.2664       1779.1694
  21103802.9564  -25569832.82148 -19620581.70247  21103800.6054   21103806.1844
      2684.8084       2092.0564
  21521476.4294  -21451613.14548 -16112199.85846  21521474.1264   21521480.7314
      3787.8584       2951.5754
  23270116.2504   -9811263.81447  -7302549.84545  23270114.4474   23270126.3184
      4238.8774       3303.0154
 00  7 15  1 28 59.9970000  0  7G22G11G25G20G 1G16G19
  21558972.0914  -12556963.21448  -9768964.67446  21558969.3114   21558977.9354
      3678.2214       2866.1394
  21685940.7444  -30931245.65948 -23456037.01346  21685938.3204   21685945.2874
     -1972.5724      -1537.0674
  20957838.5174  -31655719.73349 -24345155.13647  20957836.8794   20957841.8354
     -1305.7734      -1017.4844
  19581800.0044  -36546606.00949 -28188917.38847  19581797.8414   19581802.5244
      2266.2474       1765.9074
  21088504.6904  -25650224.62448 -19683224.63547  21088502.3114   21088508.4374
      2676.6434       2085.6944
  21499883.4444  -21565083.17548 -16200618.01646  21499881.2184   21499888.6854
      3778.8084       2944.5234
  23245946.3714   -9938281.77447  -7401524.61445  23245944.1214   23245955.3534
      4230.9094       3296.8004
 00  7 15  1 29 29.9960000  0  7G22G11G25G20G 1G16G19
  21538019.3534  -12667072.03848  -9854763.67746  21538016.2064   21538024.6164
      3665.6864       2856.3734
  21697237.2034  -30871883.33348 -23409780.78446  21697234.7744   21697242.3464
     -1981.8764      -1544.3154
  20965335.3584  -31616325.71049 -24314458.53747  20965333.2484   20965338.4044
     -1317.3444      -1026.5024
  19568917.2884  -36614305.27649 -28241670.05147  19568915.0374   19568920.1264
      2250.3724       1753.5364
  21073253.3034  -25730369.47448 -19745675.13047  21073250.9924   21073257.6384
      2669.7324       2080.3094
  21478343.8094  -21678275.08448 -16288819.45946  21478341.3454   21478348.2894
      3770.8044       2938.2914
  23221822.2014  -10065054.65647  -7500308.41745  23221820.2964   23221830.3684
      4224.1044       3291.5014
 00  7 15  1 29 59.9960000  0  7G22G11G25G20G 1G16G19
  21517127.9414  -12776851.39748  -9940305.93946  21517126.2324   21517133.8814
      3654.2344       2847.4534
  21708578.1074  -30812284.99548 -23363340.65846  21708576.0184   21708583.6954
     -1989.9954      -1550.6404
  20972889.6664  -31576629.13549 -24283526.18747  20972887.4674   20972892.3874
     -1327.7134      -1034.5814
  19556117.3084  -36681573.15649 -28294086.57347  19556114.6074   19556119.3014
      2235.5184       1741.9614
  21058032.9344  -25810352.58448 -19807999.59347  21058030.7444   21058037.7504
      2663.8664       2075.7394
  21456840.5704  -21791274.15748 -16376870.63946  21456838.1464   21456846.2464
      3763.8454       2932.8654
  23197727.4504  -10191669.08947  -7598968.77645  23197725.6684   23197736.9554
      4218.2184       3286.9194
 00  7 15  1 30 29.9960000  0  7G22G11G25G20G 1G16G19
  21496289.0974  -12886365.46848 -10025641.49246  21496286.8434   21496294.0204
      3640.7654       2836.9614
  21719949.2214  -30752527.30548 -23316776.35846  21719947.2704   21719955.4734
     -1999.7784      -1558.2624
  20980486.7114  -31536705.17548 -24252416.65147  20980484.6044   20980489.4864
     -1339.7514      -1043.9604
  19543385.5944  -36748477.21449 -28346219.59647  19543382.9944   19543387.8284
      2218.8234       1728.9524
  21042830.5164  -25890242.75348 -19870251.64047  21042828.3024   21042834.8364
      2656.2444       2069.8004
  21435362.0234  -21904145.93448 -16464822.62346  21435359.2604   21435366.8194
      3755.0704       2926.0274
  23173652.3874  -10318191.04747  -7697557.05245  23173650.1704   23173660.8324
      4210.6184       3280.9894
 00  7 15  1 30 59.9960000  0  7G22G11G25G20G 1G16G19
  21475520.0434  -12995505.68348 -10110685.74246  21475517.6254   21475525.5394
      3632.9034       2830.8354
  21731370.0804  -30692507.59748 -23270007.88246  21731368.5324   21731376.4344
     -2003.8244      -1561.4154
  20988146.7734  -31496450.40348 -24221049.33347  20988144.9054   20988149.7374
     -1346.0854      -1048.8984
  19530743.9974  -36814909.99549 -28397985.39447  19530741.4794   19530746.0194
      2207.7314       1720.3094
  21027665.6414  -25969934.75848 -19932349.27047  21027663.1154   21027669.7854
      2654.2734       2068.2624
  21413927.6114  -22016783.20748 -16552591.88146  21413925.0224   21413932.6834
      3751.8344       2923.5034
  23149612.8524  -10444513.80547  -7795990.11845  23149610.7044   23149622.0324
      4208.6124       3279.4314
 00  7 15  1 31 29.9960000  0  7G22G11G25G20G 1G16G19
  21454812.9514  -13104324.51148 -10195479.55246  21454810.4284   21454817.5994
      3618.3024       2819.4524
  21742830.6734  -30632284.53848 -23223080.95046  21742828.6834   21742836.5214
     -2014.3794      -1569.6434
  20995859.1914  -31455922.49548 -24189469.18447  20995857.3134   20995861.9484
     -1358.9964      -1058.9564
  19518181.7924  -36880925.24649 -28449425.84247  19518179.1784   19518183.7864
      2189.9694       1706.4694
  21012527.4044  -26049484.07548 -19994335.71647  21012525.2844   21012531.8454
      2645.6714       2061.5624
  21392528.0564  -22129239.21048 -16640219.88646  21392525.5634   21392532.8534
      3741.9664       2915.8154
  23125601.7284  -10570691.48747  -7894310.15045  23125599.2924   23125610.5974
      4199.9034       3272.6374
 00  7 15  1 31 59.9960000  0  7G22G11G25G20G 1G16G19
  21434174.5144  -13212780.76148 -10279990.83346  21434171.6424   21434178.7664
      3607.1464       2810.7594
  21754336.7284  -30571822.94548 -23175968.14646  21754334.3404   21754342.0164
     -2021.3134      -1575.0474
  21003630.4354  -31415085.74048 -24157648.38247  21003628.4884   21003633.0684
     -1368.2854      -1066.1954
  19505706.7804  -36946482.78149 -28500509.62647  19505704.1354   19505708.4534
      2175.6664       1695.3244
  20997424.2504  -26128852.66448 -20056181.32947  20997422.0074   20997428.6984
      2640.7134       2057.6974
  21371170.6854  -22241473.20948 -16727674.90546  21371168.1104   21371174.8664
      3735.4864       2910.7664
  23101625.8964  -10696684.26947  -7992486.09045  23101624.5314   23101634.4954
      4194.7114       3268.5994
 00  7 15  1 32 29.9960000  0  7G22G11G25G20G 1G16G19
  21413607.5384  -13320859.88548 -10364208.25646  21413604.9254   21413611.7284
      3599.8714       2805.0934
  21765888.5314  -30511114.77248 -23128663.21046  21765886.5894   21765894.5434
     -2024.1204      -1577.2334
  21011461.7754  -31373930.86448 -24125579.68447  21011459.9564   21011464.5514
     -1373.5254      -1070.2774
  19493321.2884  -37011569.85449 -28551226.81947  19493318.5674   19493322.8954
      2165.3014       1687.2484
  20982357.8524  -26208029.53748 -20117877.55547  20982355.3834   20982361.7224
      2639.6194       2056.8464
  21349857.8224  -22353472.45548 -16814947.01146  21349855.1474   21349861.6144
      3732.9514       2908.7944
  23077688.7144  -10822479.83547  -8090508.37545  23077685.7274   23077696.4684
      4193.4514       3267.6194
 00  7 15  1 32 59.9960000  0  7G22G11G25G20G 1G16G19
  21393102.1514  -13428611.14148 -10448170.21946  21393099.8384   21393107.3704
      3590.4174       2797.7274
  21777477.7524  -30450215.82748 -23081209.61346  21777475.7084   21777483.3504
     -2028.9114      -1580.9684
  21019342.9104  -31332513.09949 -24093306.13747  21019341.3974   21019346.2294
     -1380.7314      -1075.8934
  19481015.4084  -37076237.39649 -28601617.10447  19481012.6784   19481017.0284
      2152.7954       1677.5034
  20967317.2094  -26287067.56248 -20179465.58547  20967314.8154   20967321.3834
      2636.5564       2054.4574
  21328580.0854  -22465287.48248 -16902075.56546  21328577.6714   21328584.3644
      3728.3324       2905.1954
  23053777.3754  -10948129.69447  -8188417.13545  23053775.3444   23053785.2304
      4190.1224       3265.0264
 00  7 15  1 33 29.9960000  0  7G22G11G25G20G 1G16G19
  21372650.4014  -13536092.83948 -10531922.14346  21372647.5994   21372653.8674
      3575.4254       2786.0434
  21789091.7024  -30389190.60448 -23033657.61946  21789089.1094   21789096.0274
     -2039.0164      -1588.8394
  21027262.7934  -31290895.85848 -24060877.15647  21027260.8554   21027265.7674
     -1393.2604      -1085.6544
  19468777.7824  -37140544.93549 -28651726.86447  19468775.3234   19468779.7634
      2134.8234       1663.4994
  20952291.1954  -26366028.36748 -20240993.44847  20952288.9324   20952295.5474
      2628.0014       2047.7934
  21307326.5284  -22576977.54548 -16989106.74746  21307323.8424   21307330.1614
      3718.1694       2897.2744
  23029882.9184  -11073693.64147  -8286258.93245  23029880.7514   23029891.0074
      4181.2614       3258.1174
 00  7 15  1 33 59.9960000  0  7G22G11G25G20G 1G16G19
  21352263.4304  -13643224.84648 -10615401.56746  21352260.8554   21352267.7934
      3565.6534       2778.4274
  21800741.5124  -30327964.79948 -22985949.33146  21800739.7904   21800747.7604
     -2043.7114      -1592.4974
  21035234.6434  -31249003.99748 -24028234.18947  21035232.6774   21035237.6694
     -1400.4564      -1091.2654
  19456623.6914  -37204413.35649 -28701494.45447  19456621.4324   19456625.8904
      2122.0964       1653.5804
  20937294.7584  -26444834.77448 -20302400.99947  20937292.6554   20937299.4894
      2624.8084       2045.3044
  21286111.4984  -22688463.30348 -17075978.72346  21286108.9384   21286115.0314
      3713.2604       2893.4484
  23006020.3114  -11199093.09647  -8383972.57545  23006018.3454   23006028.1474
      4177.6984       3255.3344
 00  7 15  1 34 29.9960000  0  7G22G11G25G20G 1G16G19
  21331941.6134  -13750016.49348 -10698615.77546  21331938.7274   21331945.9994
      3550.9964       2767.0104
  21812428.3594  -30266553.91548 -22938096.84046  21812425.9964   21812433.9234
     -2052.9984      -1599.7314
  21043256.2604  -31206852.01348 -23995388.52447  21043253.9684   21043258.8484
     -1412.3034      -1100.4954
  19444551.1464  -37267853.32749 -28750928.18647  19444548.9434   19444553.5904
      2104.5634       1639.9194
  20922325.5034  -26523499.13848 -20363697.86347  20922323.1484   20922329.6994
      2616.8434       2039.0984
  21264932.9484  -22799755.17548 -17162699.62746  21264930.4594   21264937.0104
      3703.5624       2885.8924
  22982186.9604  -11324339.00547  -8481566.57245  22982184.9154   22982194.6304
      4169.3914       3248.8684
 00  7 15  1 34 59.9960000  0  7G22G11G25G20G 1G16G19
  21311688.2224  -13856444.86548 -10781546.91546  21311685.9584   21311692.8614
      3544.6044       2762.0224
  21824153.2294  -30204942.05148 -22890087.73746  21824150.9844   21824158.0774
     -2053.9764      -1600.4974
  21051329.7084  -31164422.93648 -23962326.94447  21051327.7564   21051332.6714
     -1415.7784      -1103.2024
  19432565.0654  -37330843.60549 -28800011.51547  19432562.3684   19432566.9064
      2095.2754       1632.6814
  20907386.1924  -26602002.36348 -20424869.16947  20907384.3674   20907390.6114
      2617.2214       2039.3934
  21243795.9714  -22910831.33548 -17249252.43146  21243793.5644   21243800.2434
      3702.0444       2884.7084
  22958386.5694  -11449410.70047  -8579024.80845  22958384.2554   22958393.6334
      4169.2334       3248.7434
 00  7 15  1 35 29.9960000  0  7G22G11G25G20G 1G16G19
  21291494.3964  -13962566.12148 -10864238.73446  21291491.7074   21291499.2294
      3523.8584       2745.8604
  21835904.3354  -30143191.35548 -22841970.46346  21835901.7964   21835908.7864
     -2068.9644      -1612.1764
  21059444.5734  -31121778.48448 -23929097.53747  21059442.8014   21059447.7854
     -1433.3734      -1116.9124
  19420652.5354  -37393442.17449 -28848789.61247  19420650.2954   19420655.1424
      2071.7464       1614.3474
  20892467.4454  -26680404.00148 -20485961.32147  20892465.0604   20892471.5064
      2603.3514       2028.5854
  21222689.2854  -23021749.40748 -17335682.06046  21222687.0084   21222693.2824
      3686.2754       2872.4204
  22934607.2524  -11574366.74347  -8676392.92245  22934605.2944   22934615.8454
      4154.9184       3237.5924
 00  7 15  1 35 59.9960000  0  7G22G11G25G20G 1G16G19
  21271399.0374  -14068170.23348 -10946527.58446  21271396.0854   21271403.7074
      3518.9894       2742.0694
  21847718.9804  -30081097.82448 -22793586.02946  21847717.4014   21847725.5744
     -2067.9394      -1611.3764
  21067639.7864  -31078713.73848 -23895540.63547  21067637.8854   21067642.5374
     -1434.9364      -1118.1314
  19408854.7274  -37455440.13349 -28897099.69947  19408852.4424   19408857.1234
      2064.0924       1608.3844
  20877606.9674  -26758496.82548 -20546812.83447  20877604.9044   20877611.1324
      2605.5054       2030.2644
  21201652.2204  -23132300.15948 -17421825.46246  21201649.7014   21201656.2764
      3686.4244       2872.5384
  22910890.1984  -11698998.51547  -8773508.35845  22910888.3644   22910898.7634
      4156.5024       3238.8294
 00  7 15  1 36 29.9960000  0  7G22G11G25G20G 1G16G19
  21251359.3784  -14173474.19848 -11028582.55446  21251356.9704   21251364.8904
      3505.7854       2731.7794
  21859558.6424  -30018884.50248 -22745108.24546  21859556.1834   21859563.9034
     -2075.0314      -1616.9014
  21075872.3854  -31035450.47548 -23861829.04147  21075870.7754   21075875.4574
     -1444.6404      -1125.6924
  19397129.7054  -37517055.36849 -28945111.56447  19397127.2234   19397132.3344
      2048.1794       1595.9844
  20862763.6034  -26836501.07648 -20607595.33847  20862761.1674   20862767.1284
      2599.4314       2025.5304
  21180643.2354  -23242701.39948 -17507852.35746  21180640.8064   21180647.7104
      3678.3074       2866.2134
  22887193.0964  -11823524.45047  -8870541.32345  22887191.3984   22887202.3414
      4149.8494       3233.6394
 00  7 15  1 36 59.9960000  0  7G22G11G25G20G 1G16G19
  21231388.5404  -14278422.73148 -11110360.55346  21231386.1284   21231393.9314
      3491.5964       2720.7244
  21871429.4554  -29956502.53748 -22696499.06146  21871427.0504   21871435.1954
     -2082.8604      -1623.0034
  21084152.7374  -30991939.22948 -23827924.20847  21084150.7834   21084155.2814
     -1455.1924      -1133.9144
  19385487.5524  -37578234.32449 -28992783.46847  19385485.3114   19385490.4604
      2031.3354       1582.8584
  20847946.3524  -26914364.84248 -20668268.37347  20847944.1754   20847949.9924
      2592.4444       2020.0874
  21159673.1844  -23352898.64948 -17593720.30146  21159670.7824   21159677.7954
      3669.1514       2859.0774
  22863527.2144  -11947891.38447  -8967450.39045  22863525.2814   22863535.2954
      4142.2244       3227.6984
 00  7 15  1 37 29.9960000  0  7G22G11G25G20G 1G16G19
  21211495.4894  -14382958.06948 -11191816.57446  21211493.5274   21211501.0114
      3475.2734       2708.0034
  21883341.6364  -29893900.44148 -22647718.35346  21883339.9444   21883348.4874
     -2092.6514      -1630.6314
  21092489.8524  -30948127.58948 -23793785.30047  21092487.7624   21092492.5394
     -1467.6144      -1143.5954
  19373939.9184  -37638920.71149 -29040071.55847  19373937.2124   19373942.1754
      2012.3894       1568.0964
  20833166.2984  -26992033.65448 -20728789.49447  20833164.0834   20833169.8714
      2583.4544       2013.0794
  21138752.7524  -23462835.48048 -17679385.31946  21138750.3234   21138757.3544
      3657.9204       2850.3234
  22839901.9034  -12072043.18547  -9064191.82545  22839900.1834   22839909.7664
      4132.4944       3220.1174
 00  7 15  1 37 59.9960000  0  7G22G11G25G20G 1G16G19
  21191664.8084  -14487169.30048 -11273020.03946  21191662.7954   21191670.0894
      3465.1294       2700.0994
  21895278.4594  -29831173.68648 -22598840.50946  21895276.5904   21895284.6684
     -2096.0374      -1633.2734
  21100866.1364  -30904110.05748 -23759485.95647  21100864.0424   21100868.7684
     -1473.7354      -1148.3644
  19362467.1434  -37699205.19749 -29087046.47947  19362464.9624   19362470.4924
      1999.6964       1558.2034
  20818406.1674  -27069600.06748 -20789230.82347  20818403.7634   20818409.6724
      2580.7874       2011.0014
  21117865.3434  -23572602.08548 -17764917.69846  21117862.5914   21117869.2424
      3652.9574       2846.4564
  22816299.8474  -12196070.96447  -9160836.61845  22816297.9344   22816308.2824
      4129.0524       3217.4384
 00  7 15  1 38 29.9960000  0  7G22G11G25G20G 1G16G19
  21171898.9934  -14591041.31248 -11353959.16846  21171896.5284   21171903.4434
      3457.4694       2694.1314
  21907241.7684  -29768313.31548 -22549858.53946  21907239.1464   21907246.6674
     -2096.7694      -1633.8424
  21109283.3744  -30859876.36148 -23725018.17447  21109281.4274   21109286.4254
     -1477.2094      -1151.0724
  19351075.1214  -37759073.97249 -29133697.46747  19351072.6084   19351077.6184
      1989.4844       1550.2484
  20803666.7794  -27147051.95748 -20849582.91247  20803664.7294   20803671.0954
      2580.6274       2010.8764
  21097012.4984  -23682184.43348 -17850306.49646  21097009.6194   21097016.7794
      3650.4694       2844.5194
  22792724.3994  -12319961.35747  -9257374.36645  22792722.8904   22792732.3774
      4128.1764       3216.7534
 00  7 15  1 38 59.9960000  0  7G22G11G25G20G 1G16G19
  21152209.1384  -14694511.29948 -11434585.03946  21152206.7864   21152214.3854
      3443.8274       2683.4974
  21919239.5254  -29705262.13648 -22500727.89346  21919237.4314   21919245.3024
     -2103.2554      -1638.8914
  21117752.7364  -30815369.12348 -23690337.24747  21117750.8634   21117755.8154
     -1486.4994      -1158.3104
  19339773.2644  -37818465.42349 -29179976.51447  19339770.9744   19339775.8124
      1973.3214       1537.6534
  20788961.5104  -27224329.42048 -20909799.09147  20788959.4324   20788965.7454
      2574.6284       2006.2044
  21076205.4844  -23791519.96048 -17935502.95446  21076203.4774   21076210.6954
      3641.9944       2837.9164
  22769186.7974  -12443653.11147  -9353757.32845  22769184.4974   22769194.5864
      4121.3374       3211.4244
 00  7 15  1 39 29.9960000  0  7G22G11G25G20G 1G16G19
  21132610.7744  -14797502.27548 -11514837.65246  21132608.0334   21132615.4174
      3424.3924       2668.3524
  21931286.5914  -29641949.26848 -22451393.33046  21931285.1284   21931292.9454
     -2115.3854      -1648.3464
  21126288.3414  -30770516.32348 -23655387.05347  21126286.1224   21126291.2224
     -1501.3974      -1169.9184
  19328576.7954  -37877303.85349 -29225824.63847  19328574.1894   19328579.5204
      1951.4464       1520.6064
  20774303.7114  -27301358.66648 -20969821.85547  20774301.4364   20774307.5284
      2562.9154       1997.0754
  21055461.7434  -23900532.81348 -18020447.98446  21055459.0454   21055466.0314
      3627.7664       2826.8294
  22745700.2734  -12567071.02647  -9449926.92045  22745698.7664   22745708.7854
      4108.7554       3201.6184
 00  7 15  1 39 59.9960000  0  7G22G11G25G20G 1G16G19
  21113079.2554  -14900140.03148 -11594815.03446  21113076.8474   21113083.8974
      3413.9854       2660.2444
  21943360.4234  -29578507.20548 -22401958.10146  21943358.0284   21943365.9924
     -2118.1704      -1650.5174
  21134863.9604  -30725449.70648 -23620270.25047  21134862.1164   21134867.3284
     -1507.0534      -1174.3264
  19317460.7864  -37935716.98649 -29271341.36147  19317458.3554   19317463.8424
      1938.6744       1510.6554
  20759667.9954  -27378269.12148 -21029752.06047  20759665.7094   20759672.1144
      2560.3934       1995.1124
  21034754.6864  -24009349.86748 -18105240.44747  21034752.1344   21034758.4774
      3622.6624       2822.8534
  22722242.3064  -12690343.24747  -9545982.97646  22722240.7914   22722250.6974
      4105.2904       3198.9224
 00  7 15  1 40 29.9960000  0  7G22G11G25G20G 1G16G19
  21093616.8744  -15002413.33848 -11674508.43946  21093614.1484   21093622.1184
      3400.4034       2649.6604
  21955458.5514  -29514931.07448 -22352418.41746  21955456.5904   21955464.3764
     -2123.9994      -1655.0594
  21143481.8264  -30680163.37148 -23584982.23947  21143479.7814   21143484.8604
     -1515.6824      -1181.0494
  19306427.8914  -37993695.15849 -29316519.15747  19306425.5354   19306430.8034
      1922.7924       1498.2814
  20745055.8004  -27455052.83448 -21089583.50447  20745053.6824   20745060.6074
      2554.8364       1990.7794
  21014086.2604  -24117961.39448 -18189872.76346  21014084.1904   21014090.4984
      3614.3934       2816.4094
  22698813.7934  -12813460.32348  -9641918.13846  22698812.2544   22698821.9864
      4098.7544       3193.8274
 00  7 15  1 40 59.9960000  0  7G22G11G25G20G 1G16G19
  21074233.8334  -15104274.84248 -11753880.95046  21074231.0294   21074238.2184
      3387.2034       2639.3764
  21967590.8704  -29451179.33148 -22302741.88546  21967588.3664   21967596.5814
     -2129.2194      -1659.1244
  21152149.7144  -30634614.65248 -23549489.76747  21152147.5174   21152152.4414
     -1523.8744      -1187.4344
  19295486.2784  -38051192.10049 -29361321.96247  19295484.1114   19295489.4944
      1907.3054       1486.2104
  20730477.4084  -27531665.25348 -21149281.47347  20730475.1314   20730481.7334
      2549.6914       1986.7734
  20993466.6834  -24226320.36248 -18274308.28146  20993463.8354   20993470.2934
      3606.5254       2810.2764
  22675423.3234  -12936376.28147  -9737696.59546  22675421.7564   22675432.0364
      4092.6144       3189.0414
 00  7 15  1 41 29.9960000  0  7G22G11G25G20G 1G16G19
  21054930.0934  -15205716.50948 -11832926.30146  21054927.3094   21054934.7714
      3376.8644       2631.3184
  21979756.1784  -29387249.85748 -22252926.87946  21979753.6204   21979761.4994
     -2131.3724      -1660.8054
  21160867.4864  -30588800.58648 -23513790.53947  21160865.5664   21160870.4844
     -1528.9754      -1191.4094
  19284638.1544  -38108200.83549 -29405744.34747  19284635.6304   19284641.1484
      1894.6824       1476.3744
  20715932.0244  -27608101.16148 -21208841.90047  20715929.8824   20715936.4554
      2547.4674       1985.0384
  20972896.0744  -24334419.47548 -18358541.30747  20972893.4834   20972899.8764
      3601.4924       2806.3564
  22652073.4764  -13059084.91548  -9833313.49446  22652071.2224   22652081.4564
      4089.3664       3186.5104
 00  7 15  1 41 59.9960000  0  7G22G11G25G20G 1G16G19
  21035698.8694  -15306776.64048 -11911674.36746  21035696.5244   21035703.7904
      3362.3274       2619.9954
  21991947.2364  -29323186.96148 -22203007.89646  21991944.9414   21991952.5324
     -2137.5574      -1665.6264
  21169627.5564  -30542764.84448 -23477918.56647  21169625.8164   21169630.7014
     -1538.0904      -1198.5124
  19273875.0074  -38164761.18449 -29449817.34247  19273872.6854   19273878.2454
      1877.9604       1463.3454
  20701412.7874  -27684402.15948 -21268297.20247  20701410.4554   20701416.5994
      2541.2174       1980.1694
  20952367.6674  -24442297.62548 -18442602.16247  20952365.0024   20952371.2714
      3592.3624       2799.2434
  22628754.0894  -13181626.31148  -9928800.08446  22628752.4024   22628762.0404
      4081.9964       3180.7684
 00  7 15  1 42 29.9960000  0  7G22G11G25G20G 1G16G19
  21016544.3864  -15407434.64248 -11990109.08546  21016541.6924   21016548.8554
      3353.5334       2613.1404
  22004165.9414  -29258976.46648 -22152973.90346  22004163.4724   22004171.4664
     -2137.8114      -1665.8224
  21178432.9094  -30496492.30748 -23441862.07847  21178431.1094   21178436.3454
     -1541.3044      -1201.0154
  19263200.7664  -38220854.08749 -29493526.09447  19263198.5894   19263203.9944
      1867.0044       1454.8074
  20686921.9224  -27760551.07148 -21327633.99747  20686919.8464   20686925.6524
      2540.8114       1979.8534
  20931884.7984  -24549935.59948 -18526475.85747  20931882.0124   20931888.9294
      3588.9704       2796.5974
  22605470.7974  -13303981.93148 -10024141.91346  22605468.5184   22605478.8464
      4080.4354       3179.5554
 00  7 15  1 42 59.9960000  0  7G22G11G25G20G 1G16G19
  20997443.2144  -15507811.67348 -12068324.86046  20997440.1224   20997447.9264
      3340.0764       2602.6524
  22016388.6884  -29194746.10548 -22102924.43146  22016386.5284   22016394.5264
     -2142.3994      -1669.3974
  21187259.3424  -30450109.36848 -23405719.56247  21187257.7354   21187262.6494
     -1548.9554      -1206.9774
  19252592.5544  -38276602.74649 -29536966.60147  19252590.0534   19252595.5774
      1851.4584       1442.6934
  20672436.6234  -27836672.29348 -21386949.21547  20672434.2494   20672440.5504
      2535.8584       1975.9914
  20911424.1914  -24657455.94248 -18610257.90247  20911421.7454   20911428.3044
      3580.9484       2790.3464
  22582198.6894  -13426274.97048 -10119434.98046  22582196.8244   22582206.5364
      4074.3014       3174.7724
 00  7 15  1 43 29.9960000  0  7G22G11G25G20G 1G16G19
  20978438.9104  -15607674.97948 -12146140.32146  20978436.7334   20978444.9174
      3318.1074       2585.5364
  22028658.8494  -29130268.39448 -22052682.22546  22028656.0364   22028664.1654
     -2155.3684      -1679.5014
  21196150.1254  -30403388.21548 -23369313.50347  21196148.4134   21196153.8464
     -1564.9754      -1219.4614
  19242093.9864  -38331775.27149 -29579958.17447  19242091.3614   19242096.5334
      1827.4464       1423.9854
  20658000.7714  -27912535.41448 -21446063.31347  20657998.2364   20658004.2704
      2522.4924       1965.5794
  20891030.4844  -24764625.77248 -18693766.82447  20891027.6634   20891034.5754
      3564.4684       2777.5054
  22558982.8224  -13548273.92348 -10214498.90846  22558981.0934   22558990.5884
      4059.7324       3163.4204
 00  7 15  1 43 59.9960000  0  7G22G11G25G20G 1G16G19
  20959517.4304  -15707113.80748 -12223625.03746  20959514.4604   20959521.2994
      3313.3844       2581.8544
  22040956.2534  -29065638.69147 -22002321.59046  22040954.4134   22040962.5334
     -2150.9344      -1676.0444
  21205087.9384  -30356423.04848 -23332717.31047  21205085.6074   21205091.1104
     -1563.6444      -1218.4234
  19231687.3784  -38386462.13149 -29622571.30847  19231684.8144   19231689.6274
      1820.6994       1418.7264
  20643595.3514  -27988232.75148 -21505048.23247  20643593.2484   20643599.6534
      2526.4124       1968.6324
  20870686.2274  -24871535.02148 -18777072.68847  20870683.6884   20870690.0954
      3565.1564       2778.0434
  22535805.4954  -13670069.70147 -10309404.51846  22535803.4254   22535813.3844
      4062.3934       3165.4944
 00  7 15  1 44 29.9960000  0  7G22G11G25G20G 1G16G19
  20940655.0344  -15806234.10048 -12300861.53546  20940652.6394   20940658.9954
      3291.1824       2564.5524
  22053262.3994  -29000969.37947 -21951930.07946  22053260.8004   22053268.7784
     -2163.7134      -1686.0064
  21214050.1844  -30309325.31148 -23296017.81647  21214047.9054   21214053.5094
     -1579.4894      -1230.7694
  19221351.7774  -38440770.75249 -29664889.70947  19221349.7674   19221355.0964
      1796.5704       1399.9254
  20629201.3644  -28063873.74548 -21563989.25647  20629199.3424   20629205.4124
      2513.0244       1958.1994
  20850370.9894  -24978291.01548 -18860259.14047  20850368.5364   20850374.8954
      3548.5464       2765.0994
  22512646.5204  -13791770.17548 -10404235.87146  22512644.5584   22512654.6864
      4047.6524       3154.0064
 00  7 15  1 44 59.9960000  0  7G22G11G25G20G 1G16G19
  20921886.7444  -15904855.23548 -12377709.07646  20921884.2324   20921892.0254
      3282.8554       2558.0654
  22065610.0174  -28936086.05448 -21901371.80846  22065607.9214   22065616.2794
     -2162.3854      -1684.9714
  21223070.9944  -30261919.58548 -23259078.33547  21223069.1924   21223074.3584
     -1581.3804      -1232.2414
  19211123.6334  -38494522.42349 -29706774.11847  19211121.2714   19211126.7964
      1786.3454       1391.9574
  20614852.3214  -28139280.98248 -21622748.13247  20614850.0224   20614855.7844
      2513.6134       1958.6604
  20830119.8774  -25084713.77848 -18943185.92647  20830117.0434   20830123.0994
      3545.7924       2762.9534
  22489539.5734  -13913196.70448 -10498853.75846  22489537.6484   22489547.7684
      4046.9004       3153.4234
 00  7 15  1 45 29.9960000  0  7G22G11G25G20G 1G16G19
  20903199.8784  -16003057.46948 -12454230.21446  20903197.1174   20903204.6994
      3265.0004       2544.1544
  22077980.7304  -28871074.68047 -21850713.76246  22077978.9724   22077987.5054
     -2170.5204      -1691.3094
  21232134.6714  -30214291.13648 -23221965.30047  21232132.5764   21232137.8314
     -1592.6604      -1241.0314
  19200985.4414  -38547798.74849 -29748288.13147  19200983.0004   19200988.5694
      1766.5684       1376.5474
  20600531.0124  -28214537.69548 -21681389.71947  20600528.8684   20600534.8164
      2504.7194       1951.7284
  20809915.8114  -25190884.37448 -19025916.23147  20809913.2084   20809919.1214
      3533.4374       2753.3264
  22466469.6364  -14034431.28948 -10593322.07446  22466467.4194   22466477.3174
      4036.5824       3145.3854
 00  7 15  1 45 59.9960000  0  7G22G11G25G20G 1G16G19
  20884606.6604  -16100766.97448 -12530367.40846  20884604.1004   20884611.0414
      3252.0744       2534.0814
  22090390.3414  -28805867.57348 -21799903.20446  22090387.9384   22090396.1594
     -2173.4634      -1693.6064
  21241253.4084  -30166370.99548 -23184624.97647  21241251.5844   21241256.5074
     -1598.7764      -1245.7984
  19190952.0974  -38600527.10249 -29789375.15447  19190949.3674   19190954.6144
      1751.8364       1365.0674
  20586252.3124  -28289572.81548 -21739858.63347  20586250.1834   20586256.0674
      2500.8684       1948.7294
  20789773.9374  -25296729.85748 -19108393.19047  20789771.6164   20789777.8014
      3526.1414       2747.6414
  22443449.3504  -14155401.80448 -10687584.64346  22443447.1494   22443457.3544
      4031.2894       3141.2584
 00  7 15  1 46 29.9960000  0  7G22G11G25G20G 1G16G19
  20866087.5614  -16198083.01548 -12606198.00646  20866085.1284   20866092.1514
      3235.0744       2520.8354
  22102815.6024  -28740569.50647 -21749021.77746  22102813.6544   22102822.6494
     -2180.2584      -1698.8964
  21250407.8004  -30118263.59648 -23147138.72746  21250406.0344   21250411.0564
     -1608.8224      -1253.6264
  19181003.4314  -38652807.97349 -29830113.48447  19181000.7274   19181005.9484
      1733.0794       1350.4514
  20571996.4224  -28364488.41448 -21798234.41347  20571994.2244   20571999.8994
      2493.0434       1942.6314
  20769675.2964  -25402349.21348 -19190693.94947  20769672.6764   20769678.8344
      3514.7154       2738.7374
  22420459.8924  -14276208.92548 -10781719.89246  22420458.0494   22420467.8104
      4022.0224       3134.0374
 00  7 15  1 46 59.9960000  0  7G22G11G25G20G 1G16G19
  20847652.4244  -16294961.07948 -12681687.31746  20847649.9384   20847657.0164
      3221.4054       2510.1824
  22115266.2114  -28675142.35647 -21698039.75746  22115263.9244   22115272.7274
     -2183.5824      -1701.4824
  21259605.3784  -30069929.76248 -23109476.03346  21259603.6904   21259608.7444
     -1615.4034      -1258.7554
  19171147.5054  -38704598.61949 -29870469.82147  19171145.0574   19171150.3724
      1717.6244       1338.4064
  20557770.9474  -28439243.32048 -21856484.97747  20557768.6554   20557774.3224
      2488.6424       1939.2014
  20749627.5014  -25507699.77548 -19272785.25947  20749625.0154   20749631.3894
      3506.6594       2732.4594
  22397510.5844  -14396810.02848 -10875694.60346  22397508.8044   22397518.2854
      4016.0374       3129.3764
 00  7 15  1 47 29.9960000  0  7G22G11G25G20G 1G16G19
  20829301.9574  -16391395.77848 -12756831.14646  20829299.2204   20829306.1844
      3210.8444       2501.9534
  22127741.8344  -28609586.92047 -21646957.78746  22127738.8984   22127747.7534
     -2183.4314      -1701.3714
  21268846.2584  -30021369.12348 -23071636.61747  21268844.5804   21268850.0034
     -1618.5734      -1261.2244
  19161386.5514  -38755895.19849 -29910441.17147  19161384.0944   19161388.8374
      1705.4554       1328.9264
  20543576.2134  -28513835.16248 -21914608.47147  20543574.2734   20543580.4624
      2487.5184       1938.3254
  20729632.1994  -25612776.49048 -19354663.18647  20729629.8534   20729636.3774
      3501.8274       2728.6954
  22374601.7564  -14517201.65548 -10969506.09246  22374599.1474   22374608.8184
      4013.3704       3127.2954
 00  7 15  1 47 59.9960000  0  7G22G11G25G20G 1G16G19
  20811023.7144  -16487448.53248 -12831677.36046  20811020.9494   20811027.3734
      3193.1174       2488.1384
  22140228.3624  -28543970.71647 -21595828.46146  22140225.9214   22140234.0934
     -2190.3804      -1706.7854
  21278118.1924  -29972648.11848 -23033672.24247  21278115.9594   21278121.2644
     -1628.8444      -1269.2254
  19151707.1944  -38806760.51149 -29950076.47647  19151704.7194   19151709.2164
      1686.1214       1313.8594
  20529400.9434  -28588328.34148 -21972655.08847  20529398.8174   20529404.7594
      2479.2784       1931.9024
  20709676.9954  -25717641.87248 -19436376.43147  20709674.5434   20709681.0824
      3489.8144       2719.3364
  22351718.9134  -14637447.17648 -11063203.73846  22351716.8374   22351726.3174
      4003.5404       3119.6364
 00  7 15  1 48 29.9960000  0  7G22G11G25G20G 1G16G19
  20792838.6824  -16583005.46548 -12906137.21446  20792836.4714   20792843.9204
      3174.7144       2473.8004
  22152747.2954  -28478185.19247 -21544567.20146  22152744.9024   22152753.4454
     -2197.8594      -1712.6124
  21287440.8904  -29923657.68448 -22995497.92346  21287438.6314   21287443.5884
     -1639.6364      -1277.6394
  19142131.0894  -38857082.01849 -29989288.03347  19142128.6894   19142133.3514
      1666.1664       1298.3104
  20515265.2744  -28662611.38648 -22030537.96147  20515263.2574   20515269.1094
      2470.4654       1925.0364
  20689784.3494  -25822182.11348 -19517836.32947  20689781.3734   20689787.5374
      3477.0224       2709.3654
  22328885.7794  -14757434.03148 -11156699.82346  22328884.2164   22328893.8574
      3993.0954       3111.4984
 00  7 15  1 48 59.9960000  0  7G22G11G25G20G 1G16G19
  20774743.7554  -16678098.26748 -12980235.41446  20774741.1504   20774748.2374
      3163.0994       2464.7514
  22165290.2164  -28412267.95547 -21493203.31346  22165288.5974   22165296.9094
     -2198.2394      -1712.9064
  21296807.2354  -29874434.58248 -22957142.30547  21296805.4244   21296810.7764
     -1643.4574      -1280.6154
  19132652.6154  -38906892.51549 -30028101.39747  19132650.1354   19132654.7164
      1652.9954       1288.0484
  20501162.8884  -28736718.68648 -22088283.89547  20501160.9104   20501167.1034
      2468.5354       1923.5334
  20669946.2064  -25926429.31648 -19599067.87647  20669943.6484   20669950.0814
      3471.1484       2704.7904
  22306095.8104  -14877195.59148 -11250020.36646  22306094.1134   22306103.8354
      3989.4464       3108.6524
 00  7 15  1 49 29.9960000  0  7G22G11G25G20G 1G16G19
  20756732.0264  -16772749.38748 -13053989.46046  20756729.6954   20756736.6984
      3147.9514       2452.9474
  22177854.0614  -28346247.58147 -21441759.04946  22177852.0444   22177860.4524
     -2202.0234      -1715.8524
  21306213.0014  -29825006.46648 -22918626.93846  21306211.1864   21306216.6524
     -1650.6234      -1286.1974
  19123266.4184  -38956216.25849 -30066535.47147  19123264.0934   19123268.4944
      1636.3724       1275.0954
  20487090.2814  -28810676.23648 -22145913.13747  20487088.1034   20487093.2494
      2463.1144       1919.3094
  20650159.6374  -26030407.11248 -19680089.50747  20650157.0794   20650163.2624
      3461.8204       2697.5214
  22283344.1754  -14996756.16448 -11343184.28646  22283341.9764   22283351.6444
      3982.3144       3103.0974
 00  7 15  1 49 59.9960000  0  7G22G11G25G20G 1G16G19
  20738785.6074  -16867057.04748 -13127475.87746  20738783.3644   20738790.6534
      3136.8854       2444.3234
  22190417.3944  -28280228.52647 -21390315.81546  22190415.0984   22190422.9174
     -2201.4974      -1715.4474
  21315637.9554  -29775476.67848 -22880032.35046  21315636.1964   21315641.6174
     -1653.5874      -1288.5094
  19113954.6364  -39005153.16049 -30104668.11447  19113951.7964   19113956.2284
      1623.8614       1265.3464
  20473025.6314  -28884585.03148 -22203504.38147  20473023.2794   20473028.6244
      2461.9544       1918.4054
  20630405.3754  -26134214.37348 -19760978.25847  20630403.1484   20630409.3644
      3456.4634       2693.3464
  22260612.0214  -15116216.08748 -11436269.77746  22260609.9734   22260618.8834
      3979.4004       3100.8254
 00  7 15  1 50 29.9960000  0  7G22G11G25G20G 1G16G19
  20720931.6084  -16960878.21548 -13200583.20546  20720929.3804   20720937.0884
      3117.7184       2429.3904
  22203006.8264  -28214073.69547 -21338766.79545  22203003.9984   22203012.8634
     -2208.9164      -1721.2334
  21325109.1494  -29725706.73848 -22841250.62246  21325107.4344   21325112.6294
     -1664.4714      -1296.9894
  19104742.8524  -39053561.47349 -30142388.86947  19104740.0734   19104744.5354
      1603.2724       1249.3034
  20458996.7254  -28958305.01048 -22260948.49747  20458994.6574   20459000.3684
      2452.7134       1911.2044
  20610711.2284  -26237709.08548 -19841623.46547  20610708.9304   20610715.0974
      3443.1164       2682.9474
  22237925.3724  -15235433.85848 -11529166.58946  22237923.3704   22237932.5204
      3968.3594       3092.2224
 00  7 15  1 50 59.9960000  0  7G22G11G25G20G 1G16G19
  20703190.6454  -17054111.80748 -13273232.67546  20703187.7964   20703194.9504
      3099.1874       2414.9494
  22215639.3024  -28147687.38747 -21287037.39545  22215636.9384   22215646.2264
     -2215.4494      -1726.3164
  21334643.6284  -29675600.13848 -22802206.56946  21334642.3724   21334647.5434
     -1674.5264      -1304.8254
  19095650.2944  -39101341.12749 -30179619.76047  19095647.8724   19095652.5454
      1583.4124       1233.8284
  20445022.0924  -29031737.47348 -22318168.57747  20445020.2254   20445026.7864
      2444.2414       1904.6034
  20591095.6954  -26340789.89748 -19921946.14847  20591093.3604   20591099.6274
      3430.3914       2673.0294
  22215303.4204  -15354309.61948 -11621796.89546  22215301.6514   22215310.8784
      3958.0514       3084.1894
 00  7 15  1 51 29.9960000  0  7G22G11G25G20G 1G16G19
  20685519.0724  -17146970.64148 -13345590.12546  20685516.9434   20685524.2734
      3086.4094       2404.9934
  22228274.4344  -28081288.15047 -21235297.92045  22228272.0404   22228281.3474
     -2216.0644      -1726.7984
  21344201.7644  -29625375.35248 -22763070.41646  21344199.9864   21344204.9934
     -1678.6384      -1308.0284
  19086636.8864  -39148706.58849 -30216527.91147  19086634.3754   19086639.1064
      1569.3484       1222.8684
  20431062.3194  -29105098.20548 -22375332.76547  20431060.3144   20431066.5274
      2441.6314       1902.5714
  20571518.4094  -26443670.13948 -20002112.53547  20571515.7864   20571522.3514
      3423.4564       2667.6264
  22192706.6754  -15473057.87748 -11714327.85146  22192704.9214   22192713.7984
      3953.5944       3080.7174
 00  7 15  1 51 59.9960000  0  7G22G11G25G20G 1G16G19
  20667949.5154  -17239303.35848 -13417537.63046  20667947.0084   20667953.8434
      3069.7334       2391.9954
  22240939.3404  -28014730.64847 -21183435.12845  22240937.3494   22240947.5774
     -2220.3794      -1730.1594
  21353810.0194  -29574885.60348 -22723727.79746  21353807.9654   21353813.1484
     -1686.5404      -1314.1854
  19077730.7794  -39195508.10749 -30252996.62147  19077728.5924   19077732.9964
      1551.4714       1208.9394
  20417144.1714  -29178238.96648 -22432325.53947  20417142.2384   20417148.3204
      2435.2104       1897.5654
  20552007.8394  -26546199.73448 -20082005.70047  20552005.1834   20552011.3974
      3412.6404       2659.1974
  22170162.5624  -15591529.34048 -11806643.12246  22170160.1964   22170169.3284
      3945.2574       3074.2244
 00  7 15  1 52 29.9960000  0  7G22G11G25G20G 1G16G19
  20650438.9104  -17331319.92348 -13489238.77746  20650436.4944   20650443.6424
      3056.3624       2381.5784
  22253594.1134  -27948231.02547 -21131617.43245  22253591.6784   22253602.4814
     -2221.1324      -1730.7494
  21363427.4554  -29524345.98948 -22684346.32946  21363425.2724   21363430.6524
     -1690.9184      -1317.5964
  19068892.0664  -39241957.33549 -30289190.82447  19068889.5444   19068894.0284
      1536.9574       1197.6284
  20403227.8644  -29251372.69348 -22489312.82847  20403225.6204   20403231.2334
      2432.1844       1895.2074
  20532523.3764  -26648588.96348 -20161789.48947  20532520.7474   20532527.5944
      3405.1514       2653.3644
  22147630.3614  -15709935.69648 -11898907.66946  22147628.4614   22147637.0374
      3940.3064       3070.3604
 00  7 15  1 52 59.9960000  0  7G22G11G25G20G 1G16G19
  20633035.6004  -17422775.67448 -13560502.91946  20633033.0644   20633039.6384
      3041.2544       2369.8084
  22266283.2624  -27881550.52747 -21079658.81145  22266281.5944   22266291.7224
     -2223.5484      -1732.6284
  21373099.4564  -29473516.60648 -22644739.06746  21373097.8924   21373103.0274
     -1696.9354      -1322.2834
  19060166.3484  -39287810.89749 -30324920.87547  19060163.8074   19060168.3364
      1520.6624       1184.9314
  20389358.1854  -29324257.26848 -22546105.97847  20389356.0304   20389362.3714
      2427.5074       1891.5654
  20513112.1384  -26750594.00548 -20241273.90147  20513109.7214   20513116.6314
      3395.9094       2646.1624
  22125156.8084  -15828033.88748 -11990932.09746  22125154.8644   22125164.2174
      3933.6004       3065.1384
 00  7 15  1 53 29.9960000  0  7G22G11G25G20G 1G16G19
  20615719.3044  -17513777.03948 -13631412.99246  20615716.6504   20615723.1324
      3024.6654       2356.8784
  22278985.6394  -27814800.49947 -21027646.01445  22278983.4764   22278994.3354
     -2227.2134      -1735.4834
  21382806.0534  -29422508.62948 -22604992.63646  21382804.2054   21382809.5194
     -1704.2974      -1328.0234
  19051533.6784  -39333176.19649 -30360270.45747  19051531.2074   19051535.6294
      1502.9394       1171.1214
  20375515.0764  -29397001.35848 -22602789.66047  20375513.0654   20375519.3564
      2421.3884       1886.7964
  20493754.3234  -26852320.86248 -20320541.55547  20493751.9164   20493758.1494
      3385.1634       2637.7894
  22102721.0694  -15945931.56448 -12082800.27546  22102719.3774   22102728.6084
      3925.4674       3058.7994
 00  7 15  1 53 59.9960000  0  7G22G11G25G20G 1G16G19
  20598505.9274  -17604227.94348 -13701894.14446  20598503.5664   20598511.0884
      3010.7584       2346.0414
  22291718.4324  -27747890.79047 -20975508.76945  22291717.0834   22291726.5604
     -2228.0104      -1736.1074
  21392564.3844  -29371230.66548 -22565035.82546  21392562.3114   21392567.1724
     -1708.7734      -1331.5104
  19043011.9194  -39377958.51549 -30395165.76847  19043009.4844   19043013.8424
      1488.0024       1159.4824
  20361717.3594  -29469511.65848 -22659291.16547  20361715.0744   20361721.1094
      2418.1174       1884.2464
  20474467.6664  -26953674.28248 -20399518.21647  20474465.2974   20474470.9844
      3377.2024       2631.5854
  22080341.8134  -16063534.18048 -12174438.54746  22080340.0304   22080348.8394
      3920.1564       3054.6604
 00  7 15  1 54 29.9960000  0  7G22G11G25G20G 1G16G19
  20581377.8184  -17694237.31448 -13772031.24146  20581375.3964   20581382.8834
      2994.3134       2333.2314
  22304459.7154  -27680936.38847 -20923336.73345  22304458.1034   22304467.8584
     -2231.1294      -1738.5314
  21402352.0534  -29319796.45948 -22524957.26446  21402349.7834   21402355.1004
     -1715.6234      -1336.8484
  19034579.8344  -39422268.92649 -30429693.35847  19034577.4704   19034581.9674
      1470.5644       1145.8944
  20347941.9484  -29541900.22248 -22715697.80547  20347939.8304   20347945.5924
      2412.3344       1879.7414
  20455230.9944  -27054764.00948 -20478289.40047  20455228.3984   20455234.1674
      3366.6504       2623.3614
  22057997.9974  -16180952.72548 -12265933.38146  22057996.1114   22058004.6504
      3912.2824       3048.5274
 00  7 15  1 54 59.9960000  0  7G22G11G25G20G 1G16G19
  20564337.0724  -17783785.35448 -13841808.87446  20564334.8404   20564342.5134
      2974.5914       2317.8604
  22317212.4984  -27613923.61547 -20871119.19445  22317210.1674   22317220.4554
     -2237.2784      -1743.3244
  21412171.7664  -29268191.52448 -22484745.66546  21412169.8884   21412175.3894
     -1725.5364      -1344.5734
  19026241.3834  -39466089.12649 -30463838.97447  19026238.8794   19026243.2454
      1449.9334       1129.8194
  20334192.6674  -29614150.14648 -22771996.41747  20334190.8034   20334196.9564
      2403.4904       1872.8484
  20436047.8614  -27155570.97548 -20556840.25347  20436045.4244   20436051.1674
      3352.9374       2612.6774
  22035692.9714  -16298169.37148 -12357270.87846  22035690.3844   22035699.0714
      3901.2784       3039.9534
 00  7 15  1 55 29.9960000  0  7G22G11G25G20G 1G16G19
  20547400.1814  -17872793.51548 -13911165.80946  20547397.5694   20547404.5474
      2957.6944       2304.6934
  22329989.1974  -27546779.19747 -20818799.07645  22329986.8534   22329997.4494
     -2240.5314      -1745.8584
  21422038.4634  -29216341.84848 -22444343.36746  21422036.4674   21422042.1054
     -1732.5294      -1350.0214
  19018010.5324  -39509341.73149 -30497542.30347  19018008.0434   19018012.4174
      1432.0974       1115.9214
  20320485.3454  -29686185.34748 -22828127.70847  20320483.2174   20320489.3204
      2397.4364       1868.1314
  20416934.0264  -27256016.83648 -20635109.72447  20416931.1764   20416937.0364
      3342.0124       2604.1644
  22013439.9444  -16415106.93348 -12448390.90946  22013437.8864   22013446.7674
      3893.0694       3033.5594
 00  7 15  1 55 59.9960000  0  7G22G11G25G20G 1G16G19
  20530545.7584  -17961361.10648 -13980179.43546  20530543.1934   20530550.2514
      2941.5574       2292.1204
  22342772.3364  -27479607.75747 -20766457.89745  22342769.7754   22342780.1204
     -2242.7904      -1747.6204
  21431932.1474  -29164350.96648 -22403831.03646  21431929.9614   21431935.4164
     -1738.6614      -1354.7984
  19009868.2054  -39552127.12149 -30530881.57547  19009865.9704   19009870.7744
      1415.0894       1102.6674
  20306799.2834  -29758107.34048 -22884170.78747  20306796.8744   20306802.6344
      2392.2634       1864.1014
  20397868.8514  -27356200.77648 -20713175.09747  20397866.3734   20397872.5734
      3331.7984       2596.2054
  21991220.6904  -16531865.74148 -12539371.65646  21991218.9334   21991228.4784
      3885.6914       3027.8054
 00  7 15  1 56 29.9960000  0  7G22G11G25G20G 1G16G19
  20513783.3574  -18049447.86648 -14048818.39046  20513780.7624   20513787.8074
      2927.8564       2281.4424
  22355566.2074  -27412374.96947 -20714068.91945  22355564.0784   22355573.4674
     -2242.3994      -1747.3124
  21441859.2074  -29112183.62448 -22363181.20746  21441857.2484   21441862.7344
     -1742.0814      -1357.4644
  19001822.9564  -39594406.71849 -30563826.72047  19001820.4434   19001825.1894
      1400.6024       1091.3794
  20293141.2684  -29829878.76448 -22940096.54147  20293139.1264   20293145.4104
      2389.6144       1862.0354
  20378862.0814  -27456083.16048 -20791005.49147  20378859.6084   20378865.7594
      3324.0854       2590.1944
  21969043.9514  -16648407.69948 -12630183.42746  21969042.0434   21969050.4404
      3880.8204       3024.0114
 00  7 15  1 56 59.9950000  0  7G22G11G25G20G 1G16G19
  20497104.7384  -18137094.48748 -14117114.38646  20497102.3934   20497109.2414
      2916.0354       2272.2304
  22368361.9224  -27345132.63447 -20661672.50945  22368359.3714   22368370.0864
     -2239.9124      -1745.3804
  21451810.1704  -29059890.25648 -22322433.17846  21451808.5404   21451813.9994
     -1743.5224      -1358.5874
  18993865.5904  -39636224.51649 -30596412.02047  18993863.4164   18993867.5484
      1388.0654       1081.6094
  20279504.3154  -29901543.77248 -22995939.38047  20279501.9384   20279507.7664
      2388.9414       1861.5134
  20359904.8684  -27555704.87048 -20868632.76947  20359902.2424   20359908.4494
      3318.2964       2585.6854
  21946899.9834  -16764774.22248 -12720858.51146  21946897.7504   21946906.3394
      3877.9194       3021.7514
 00  7 15  1 57 29.9950000  0  7G22G11G25G20G 1G16G19
  20480518.9514  -18224254.62348 -14185031.30246  20480516.5494   20480523.2624
      2901.3224       2260.7684
  22381168.7524  -27277829.54647 -20609228.77145  22381166.9734   22381177.7724
     -2240.2264      -1745.6224
  21461795.1884  -29007419.67248 -22281547.05746  21461793.3414   21461799.1724
     -1747.6884      -1361.8324
  18986004.6364  -39677532.47149 -30628600.04247  18986002.2314   18986006.6924
      1372.6294       1069.5834
  20265895.7504  -29973057.63248 -23051664.44147  20265893.6164   20265898.7564
      2385.4624       1858.8014
  20341005.2904  -27655021.14048 -20946022.03647  20341002.8174   20341009.0184
      3309.6034       2578.9094
  21924797.7694  -16880922.88348 -12811363.83646  21924795.5024   21924803.8684
      3872.1114       3017.2254
 00  7 15  1 57 59.9950000  0  7G22G11G25G20G 1G16G19
  20464023.0984  -18310944.28548 -14252581.62146  20464020.1344   20464026.6104
      2883.1474       2246.6054
  22393983.0364  -27210492.33747 -20556758.44945  22393981.0614   22393991.7574
     -2243.7394      -1748.3564
  21471809.0794  -28954797.24348 -22240542.61246  21471807.1974   21471812.8694
     -1755.1954      -1367.6854
  18978237.6354  -39718349.32249 -30660405.38047  18978235.2714   18978239.4424
      1353.7524       1054.8714
  20252312.1004  -30044439.19148 -23107286.41347  20252309.7614   20252315.2424
      2378.5614       1853.4224
  20322160.8914  -27754047.87648 -21023185.69347  20322158.5034   20322164.8504
      3297.4374       2569.4304
  21902733.7114  -16996869.80948 -12901711.97046  21902731.4974   21902739.8614
      3862.8864       3010.0354
 00  7 15  1 58 29.9950000  0  7G22G11G25G20G 1G16G19
  20447638.0944  -18397043.69048 -14319672.00046  20447635.4224   20447642.4734
      2864.5314       2232.1004
  22406825.0984  -27143006.59047 -20504172.37045  22406823.3484   22406833.3714
     -2247.4884      -1751.2834
  21481873.8314  -28901907.67348 -22199330.00046  21481871.7574   21481877.3404
     -1762.8964      -1373.6844
  18970586.5384  -39758556.55049 -30691735.69047  18970584.0724   18970588.4894
      1334.5574       1039.9154
  20238775.9854  -30115570.78848 -23162713.60747  20238773.6394   20238779.5934
      2371.3974       1847.8404
  20303394.5874  -27852664.47948 -21100029.76547  20303392.4984   20303398.8924
      3284.8784       2559.6434
  21880730.4504  -17112496.43748 -12991810.51946  21880728.3764   21880736.8594
      3853.3364       3002.5984
 00  7 15  1 58 59.9950000  0  7G22G11G25G20G 1G16G19
  20431342.1074  -18482680.59448 -14386401.98446  20431339.5914   20431346.3444
      2842.1064       2214.6284
  22419670.5424  -27075505.70547 -20451574.50545  22419668.5354   22419678.7174
     -2254.9204      -1757.0714
  21491964.0794  -28848883.32148 -22158012.36746  21491962.2184   21491967.3774
     -1774.3444      -1382.6044
  18963026.3014  -39798283.67149 -30722691.89247  18963024.0314   18963028.4994
      1311.5824       1022.0124
  20225262.4714  -30186583.01648 -23218047.79147  20225260.5574   20225266.3444
      2360.4524       1839.3134
  20284682.1204  -27951000.12048 -21176654.90847  20284679.6994   20284686.3964
      3268.5094       2546.8874
  21858763.9304  -17227932.14648 -13081760.30946  21858761.7834   21858770.2214
      3840.0284       2992.2274
 00  7 15  1 59 29.9950000  0  7G22G11G25G20G 1G16G19
  20415141.1034  -18567815.39448 -14452740.71046  20415138.4794   20415145.9104
      2829.3974       2204.7224
  22432524.8084  -27007956.08547 -20398938.64945  22432523.0974   22432532.4294
     -2252.4474      -1755.1464
  21502086.2564  -28795689.30248 -22116562.52346  21502084.2594   21502090.1514
     -1775.9134      -1383.8244
  18955565.7104  -39837492.65048 -30753244.35047  18955562.9364   18955567.0554
      1298.3264       1011.6834
  20211779.5504  -30257438.99048 -23273260.21847  20211777.3254   20211783.0814
      2359.2804       1838.3994
  20266030.7044  -28049015.11948 -21253030.20247  20266028.1584   20266034.4924
      3261.8434       2541.6944
  21836840.1774  -17343139.31848 -13171532.02346  21836838.2254   21836846.6004
      3836.4494       2989.4374
 00  7 15  1 59 59.9950000  0  7G22G11G25G20G 1G16G19
  20399029.8944  -18652477.96348 -14518711.46146  20399027.2594   20399035.1874
      2812.3314       2191.4244
  22445381.9464  -26940393.17647 -20346292.44845  22445380.2234   22445389.4114
     -2254.1474      -1756.4684
  21512234.1694  -28742360.54248 -22075007.69746  21512232.4354   21512238.2594
     -1781.6574      -1388.3034
  18948197.2224  -39876214.95349 -30783417.57847  18948194.6074   18948198.4944
      1280.7894        998.0174
  20198319.6384  -30328171.28048 -23328376.26447  20198317.3184   20198322.7354
      2353.8594       1834.1754
  20247434.0974  -28146740.19748 -21329179.58547  20247431.6124   20247437.7864
      3250.8134       2533.0994
  21814954.9294  -17458149.47148 -13261150.22046  21814952.7524   21814960.5284
      3828.5134       2983.2524
 00  7 15  2  0 29.9950000  0  7G22G11G25G20G 1G16G19
  20383018.5794  -18736621.81148 -14584278.02146  20383016.1264   20383022.8304
      2794.5754       2177.5884
  22458249.5664  -26872775.43247 -20293603.49545  22458247.8414   22458256.7194
     -2256.3584      -1758.1944
  21522416.1274  -28688854.49148 -22033314.70946  21522414.6124   21522419.9284
     -1787.9554      -1393.2114
  18940929.7934  -39914404.87549 -30813175.96847  18940927.0624   18940931.4684
      1262.6064        983.8494
  20184891.5684  -30398735.38048 -23383361.25547  20184889.3164   20184894.7074
      2347.8214       1829.4694
  20228901.7934  -28244128.68648 -21405066.69147  20228899.3044   20228905.4934
      3239.1444       2524.0084
  21793115.3304  -17572917.32248 -13350579.60546  21793113.0794   21793121.1474
      3820.0374       2976.6484
 00  7 15  2  0 59.9950000  0  7G22G11G25G20G 1G16G19
  20367116.9194  -18820184.05748 -14649391.38546  20367114.4864   20367121.3224
      2780.1054       2166.3134
  22471138.4834  -26805045.26347 -20240826.95745  22471136.0534   22471145.6224
     -2255.0464      -1757.1714
  21532642.8074  -28635112.57848 -21991437.93246  21532641.2584   21532646.7814
     -1790.8264      -1395.4494
  18933774.6974  -39952001.15049 -30842471.77547  18933772.4604   18933777.3104
      1247.7544        972.2764
  20171507.1174  -30469070.51748 -23438167.83647  20171504.8504   20171510.5374
      2345.1464       1827.3874
  20210445.5374  -28341117.49748 -21480642.36047  20210442.8314   20210449.0024
      3230.7404       2517.4584
  21771332.6914  -17687381.49148 -13439772.35846  21771330.8434   21771339.2334
      3814.8494       2972.6074
 00  7 15  2  1 29.9950000  0  7G22G11G25G20G 1G16G19
  20351293.7974  -18903331.87248 -14714181.79846  20351291.0714   20351298.5674
      2761.3644       2151.7114
  22484016.5314  -26737375.51947 -20188097.50745  22484013.8394   22484022.8914
     -2257.9284      -1759.4124
  21542881.7024  -28581306.80948 -21949511.40746  21542880.0744   21542885.7714
     -1797.8214      -1400.8994
  18926701.7104  -39989172.42149 -30871436.40647  18926699.4114   18926703.5634
      1228.6664        957.4034
  20158133.8514  -30539346.56348 -23492928.37447  20158131.7644   20158137.4974
      2338.3004       1822.0524
  20192033.2014  -28437874.51048 -21556037.41047  20192030.6414   20192036.7494
      3218.1274       2507.6334
  21749576.8604  -17801710.78648 -13528860.01146  21749574.7504   21749583.4474
      3805.4564       2965.2884
 00  7 15  2  1 59.9950000  0  7G22G11G25G20G 1G16G19
  20335578.8944  -18985916.21348 -14778533.14646  20335576.2964   20335583.1804
      2746.0604       2139.7834
  22496909.0124  -26669623.02747 -20135303.57945  22496906.6264   22496916.2404
     -2257.0674      -1758.7444
  21553160.5474  -28527292.67248 -21907422.52046  21553158.7484   21553164.3874
     -1801.2044      -1403.5334
  18919737.1504  -40025771.61248 -30899955.25847  18919734.5314   18919739.1044
      1213.1784        945.3334
  20144799.8854  -30609417.31749 -23547528.94447  20144797.8664   20144803.4734
      2334.9944       1819.4764
  20173692.7134  -28534251.34548 -21631136.21947  20173690.5684   20173696.8114
      3208.9094       2500.4484
  21727874.7444  -17915757.80748 -13617727.70446  21727872.6164   21727880.7364
      3799.5604       2960.6914
 00  7 15  2  2 29.9950000  0  7G22G11G25G20G 1G16G19
  20319968.2084  -19067952.01848 -14842457.06246  20319965.4264   20319972.1114
      2727.6274       2125.4224
  22509814.7674  -26601807.95247 -20082460.90945  22509811.9644   22509821.5484
     -2259.2664      -1760.4664
  21563474.4394  -28473090.03748 -21865186.74946  21563473.0504   21563479.0834
     -1807.6054      -1408.5224
  18912878.2614  -40061815.08049 -30928041.08247  18912875.6734   18912880.2944
      1194.4714        930.7574
  20131501.9504  -30679300.04649 -23601983.00147  20131499.6424   20131505.2494
      2328.5454       1814.4504
  20155422.1644  -28630262.79448 -21705950.31747  20155420.1594   20155426.6394
      3196.5534       2490.8204
  21706222.6034  -18029538.86548 -13706388.14846  21706220.4554   21706228.9664
      3790.5204       2953.6494
 00  7 15  2  2 59.9950000  0  7G22G11G25G20G 1G16G19
  20304455.1704  -19149467.29748 -14905975.37346  20304453.1464   20304460.5584
      2707.5644       2109.7884
  22522724.4944  -26533963.48047 -20029595.30545  22522721.8024   22522732.9234
     -2262.8324      -1763.2404
  21573818.6884  -28418730.30548 -21822828.57646  21573817.3274   21573823.5554
     -1815.4294      -1414.6164
  18906119.7394  -40097331.73749 -30955716.40947  18906117.3394   18906121.5814
      1174.2344        914.9874
  20118233.8514  -30749024.76849 -23656313.93847  20118231.5274   20118237.1184
      2320.6794       1808.3214
  20137216.6054  -28725937.13149 -21780501.72347  20137214.0234   20137220.6064
      3182.6434       2479.9814
  21684615.4444  -18143083.10248 -13794864.06246  21684613.4514   21684622.1484
      3779.9964       2945.4464
 00  7 15  2  3 29.9950000  0  7G22G11G25G20G 1G16G19
  20289041.5894  -19230474.91048 -14969098.10646  20289038.7934   20289045.2494
      2693.5184       2098.8434
  22535637.7334  -26466107.39847 -19976720.69245  22535635.1054   22535645.0974
     -2260.2564      -1761.2314
  21584190.8094  -28364231.03148 -21780361.65646  21584188.5524   21584194.4174
     -1817.1324      -1415.9454
  18899458.8834  -40132335.52749 -30982992.09447  18899456.2924   18899460.5154
      1160.0184        903.9104
  20104992.9824  -30818606.29349 -23710533.29547  20104990.7294   20104996.3314
      2318.7994       1806.8564
  20119072.0604  -28821286.68349 -21854800.04647  20119069.6464   20119076.3184
      3174.6804       2473.7764
  21663051.0754  -18256404.78348 -13883166.55246  21663049.0554   21663057.0974
      3775.4544       2941.9074
 00  7 15  2  3 59.9950000  0  7G22G11G25G20G 1G16G19
  20273729.3354  -19310940.14948 -15031798.21146  20273726.6864   20273733.2644
      2674.5894       2084.0934
  22548557.5934  -26398210.78847 -19923814.47745  22548555.3444   22548566.2324
     -2262.4024      -1762.8984
  21594594.1784  -28309562.05948 -21737762.49746  21594591.9034   21594597.3444
     -1823.5734      -1420.9634
  18892901.8974  -40166793.82349 -31009842.72647  18892899.3824   18892903.4014
      1141.0194        889.1064
  20091784.8424  -30888012.73849 -23764616.23047  20091782.8734   20091788.5954
      2312.1664       1801.6884
  20100995.6834  -28916277.77849 -21928819.05447  20100993.3594   20101000.1484
      3161.8714       2463.7954
  21641535.1754  -18369471.10548 -13971270.06046  21641533.0054   21641541.2934
      3766.0834       2934.6064
 00  7 15  2  4 29.9950000  0  7G22G11G25G20G 1G16G19
  20258500.3244  -19390967.66948 -15094157.25046  20258497.6684   20258503.7844
      2653.4244       2067.6014
  22561465.2384  -26330383.87147 -19870962.58545  22561462.4234   22561473.8034
     -2266.5134      -1766.1074
  21605008.3734  -28254832.85248 -21695116.39946  21605006.5744   21605012.0954
     -1832.1024      -1427.6114
  18886428.2944  -40200812.83749 -31036351.05647  18886425.7474   18886430.0014
      1119.8194        872.5884
  20078590.9834  -30957351.12649 -23818646.13247  20078588.6174   20078593.6354
      2303.3554       1794.8224
  20082967.7644  -29011014.89049 -22002640.15847  20082965.4314   20082972.1074
      3146.8214       2452.0684
  21620047.8994  -18482388.18548 -14059257.28546  21620045.7414   21620053.3584
      3754.5764       2925.6444
 00  7 15  2  4 59.9950000  0  7G22G11G25G20G 1G16G19
  20243407.7064  -19470281.96248 -15155960.52746  20243404.7104   20243411.0554
      2634.8854       2053.1554
  22574410.5924  -26262356.04647 -19817954.14245  22574407.7354   22574418.9044
     -2267.9134      -1767.2014
  21615485.6784  -28199771.75748 -21652211.69646  21615484.1744   21615490.0434
     -1837.8544      -1432.0924
  18880089.4314  -40234118.26649 -31062303.34547  18880087.3504   18880092.1674
      1101.2934        858.1524
  20065460.5394  -31026348.20049 -23872410.07647  20065458.4014   20065464.1344
      2297.2334       1790.0514
  20065040.6994  -29105222.87649 -22076048.96047  20065038.1674   20065044.8894
      3134.4604       2442.4354
  21598640.2984  -18594881.84648 -14146914.58946  21598638.5644   21598646.2724
      3745.7374       2918.7554
 00  7 15  2  5 29.9950000  0  7G22G11G25G20G 1G16G19
  20228400.7094  -19549142.07748 -15217409.90246  20228397.9284   20228404.6674
      2623.0904       2043.9654
  22587344.2404  -26194391.54647 -19764995.03345  22587341.3804   22587352.0434
     -2262.3544      -1762.8654
  21625976.8734  -28144641.92548 -21609253.44146  21625974.9624   21625980.6084
     -1836.6764      -1431.1754
  18873838.3524  -40266970.54048 -31087902.52147  18873835.9714   18873840.4224
      1089.5904        849.0324
  20052345.9774  -31095265.09049 -23926111.54147  20052343.9304   20052349.4084
      2297.9864       1790.6384
  20047165.8554  -29199160.36049 -22149246.97847  20047163.0144   20047169.1594
      3128.8214       2438.0424
  21577264.9104  -18707212.46048 -14234444.90146  21577262.8914   21577270.2174
      3743.7024       2917.1714
 00  7 15  2  5 59.9950000  0  7G22G11G25G20G 1G16G19
  20213495.7694  -19627465.60448 -15278441.16846  20213493.2874   20213500.0494
      2598.4614       2024.7744
  22600280.4094  -26126412.80447 -19712024.82945  22600277.8934   22600287.7674
     -2269.4814      -1768.4254
  21636495.9554  -28089365.21548 -21566180.73146  21636494.0134   21636499.8204
     -1848.2714      -1440.2084
  18867688.7434  -40299288.37648 -31113085.25647  18867686.2884   18867690.5554
      1065.0374        829.8984
  20039262.7614  -31164020.95349 -23979687.53047  20039260.4364   20039265.4854
      2285.8984       1781.2194
  20029356.4954  -29292744.98349 -22222170.04947  20029354.1524   20029360.5414
      3110.3004       2423.6104
  21555935.3684  -18819298.59748 -14321784.68346  21555933.5514   21555941.1114
      3728.8104       2905.5644
 00  7 15  2  6 29.9950000  0  7G22G11G25G20G 1G16G19
  20198681.5854  -19705314.33048 -15339102.45146  20198679.1604   20198686.0074
      2587.4584       2016.1984
  22613205.4574  -26058487.53947 -19659096.30745  22613203.8044   22613214.2054
     -2262.7954      -1763.2014
  21647029.7354  -28034008.26648 -21523045.49646  21647028.2144   21647033.8254
     -1846.0784      -1438.5004
  18861628.0934  -40331135.46048 -31137901.16547  18861625.7054   18861630.3014
      1054.1894        821.4474
  20026197.1894  -31232680.54449 -24033188.50547  20026194.8834   20026200.4084
      2287.5334       1782.4924
  20011603.6294  -29386039.31849 -22294866.91847  20011601.0374   20011607.4044
      3105.4294       2419.8154
  21534640.5424  -18931203.86248 -14408983.51846  21534638.5484   21534646.4864
      3727.6034       2904.6234
 00  7 15  2  6 59.9950000  0  7G22G11G25G20G 1G16G19
  20183961.2114  -19782667.64348 -15399377.69246  20183958.6514   20183965.8984
      2565.3504       1998.9734
  22626124.7584  -25990600.41247 -19606197.48945  22626122.5554   22626133.5354
     -2267.0574      -1766.5304
  21657582.3624  -27978554.42748 -21479834.75946  21657580.6874   21657586.3924
     -1854.8134      -1445.3084
  18855661.3044  -40362492.78548 -31162335.44947  18855659.0024   18855663.0974
      1032.3204        804.4054
  20013153.6944  -31301225.48849 -24086600.14747  20013151.3944   20013156.7954
      2278.1424       1775.1754
  19993909.4184  -29479022.27749 -22367321.15547  19993906.6754   19993913.0934
      3089.4714       2407.3804
  21513383.3794  -19042909.21848 -14496026.54846  21513381.4494   21513389.7684
      3715.3974       2895.1114
 00  7 15  2  7 29.9950000  0  7G22G11G25G20G 1G16G19
  20169356.2594  -19859419.20948 -15459184.03946  20169353.7024   20169360.4624
      2548.7834       1986.0634
  22639056.3514  -25922649.80947 -19553249.23645  22639054.6424   22639064.1674
     -2265.6054      -1765.3894
  21668172.9874  -27922901.64248 -21436468.99646  21668170.9664   21668176.7444
     -1857.8814      -1447.6974
  18849807.7794  -40393255.30748 -31186306.25147  18849805.1174   18849809.0664
      1015.9834        791.6764
  20000151.6254  -31369551.40349 -24139841.11747  20000149.2634   20000154.4414
      2274.3804       1772.2454
  19976294.6484  -29571587.91149 -22439450.20147  19976292.0984   19976298.3484
      3079.0634       2399.2684
  21492184.4684  -19154309.86548 -14582832.15146  21492182.6604   21492190.8044
      3708.7704       2889.9454
 00  7 15  2  7 59.9950000  0  7G22G11G25G20G 1G16G19
  20154845.6144  -19935674.71048 -15518603.84646  20154843.2934   20154849.9764
      2534.5654       1974.9844
  22651977.6214  -25854746.47847 -19500337.80545  22651975.2044   22651985.0584
     -2261.6224      -1762.2854
  21678780.4134  -27867159.36048 -21393033.50446  21678778.4364   21678784.4924
     -1858.4704      -1448.1544
  18844046.1184  -40423529.64248 -31209896.64447  18844043.7244   18844048.1384
      1002.0474        780.8154
  19987170.5754  -31437765.58049 -24192995.01347  19987168.4514   19987174.3634
      2273.0224       1771.1874
  19958739.3994  -29663841.46149 -22511336.06847  19958737.0504   19958742.8724
      3070.9654       2392.9594
  21471023.1294  -19265512.01048 -14669483.06346  21471021.3284   21471029.4844
      3704.4754       2886.5994
 00  7 15  2  8 29.9950000  0  7G22G11G25G20G 1G16G19
  20140439.7934  -20011378.32548 -15577593.60946  20140437.1944   20140443.2884
      2511.2854       1956.8434
  22664900.5914  -25786839.47947 -19447423.53245  22664897.6074   22664907.8024
     -2266.5404      -1766.1284
  21689414.4154  -27811275.93948 -21349488.03746  21689412.5384   21689418.7574
     -1868.0054      -1455.5864
  18838388.8714  -40453261.41148 -31233064.25847  18838386.2874   18838390.6044
       979.1024        762.9384
  19974221.4854  -31505814.26549 -24246019.94447  19974219.2544   19974225.0974
      2262.6244       1763.0814
  19941254.0714  -29755726.97149 -22582935.14747  19941251.4154   19941257.2984
      3053.8174       2379.5974
  21449909.8604  -19376461.31248 -14755936.93346  21449908.2044   21449916.1154
      3691.1784       2876.2374
 00  7 15  2  8 59.9950000  0  7G22G11G25G20G 1G16G19
  20126134.7084  -20086548.85648 -15636167.99246  20126132.4454   20126138.7424
      2493.6694       1943.1174
  22677817.4444  -25718953.05547 -19394525.27145  22677815.9374   22677826.9554
     -2265.5574      -1765.3554
  21700070.4654  -27755274.77448 -21305850.82646  21700069.0674   21700075.5454
     -1871.7004      -1458.4644
  18832830.3334  -40482471.30048 -31255825.21447  18832827.9764   18832831.9744
       961.8744        749.5124
  19961299.4704  -31573718.83649 -24298932.59047  19961297.2114   19961302.9704
      2258.0344       1759.5074
  19923835.2924  -29847263.74249 -22654262.48247  19923832.7724   19923838.4134
      3042.3634       2370.6724
  21428841.9704  -19487178.37248 -14842209.83946  21428839.8794   21428847.5524
      3683.6034       2870.3374
 00  7 15  2  9 29.9950000  0  7G22G11G25G20G 1G16G19
  20111951.3424  -20161085.30048 -15694248.27946  20111948.5074   20111954.9814
      2475.3804       1928.8654
  22690750.6084  -25650991.45547 -19341568.45045  22690749.1074   22690760.1524
     -2265.1104      -1765.0064
  21710768.5544  -27699058.93148 -21262046.33246  21710766.8564   21710772.9964
     -1875.9094      -1461.7484
  18827390.3224  -40511059.65848 -31278101.85947  18827387.8744   18827391.8854
       944.0624        735.6354
  19948423.7944  -31641380.35449 -24351655.83747  19948421.6374   19948427.3494
      2252.8364       1755.4554
  19906501.8744  -29938350.58049 -22725239.21747  19906499.4104   19906505.2274
      3030.1974       2361.1924
  21407836.0754  -19597563.53248 -14928224.13146  21407834.0714   21407841.6754
      3675.4564       2863.9864
 00  7 15  2  9 59.9950000  0  7G22G11G25G20G 1G16G19
  20097859.7144  -20235136.47748 -15751950.43846  20097857.2194   20097863.3194
      2459.3044       1916.3394
  22703669.0484  -25583108.21447 -19288672.68045  22703666.5374   22703678.6814
     -2262.3524      -1762.8624
  21721478.3544  -27642780.97448 -21218193.43346  21721476.2074   21721482.2204
     -1877.8304      -1463.2424
  18822039.1384  -40539176.73048 -31300011.26847  18822036.9814   18822041.4644
       928.4554        723.4704
  19935565.7204  -31708949.40149 -24404307.03047  19935563.6194   19935569.6164
      2249.8604       1753.1374
  19889225.8294  -30029136.16349 -22795981.21447  19889223.4264   19889229.0534
      3020.2644       2353.4514
  21386864.8384  -19707766.94848 -15014096.80246  21386863.0634   21386871.0014
      3669.4814       2859.3314
 00  7 15  2 10 29.9950000  0  7G22G11G25G20G 1G16G19
  20083872.0144  -20308638.69048 -15809224.83546  20083869.6984   20083876.3684
      2441.0324       1902.0994
  22716582.5014  -25515244.41147 -19235792.06045  22716580.6354   22716593.2294
     -2261.6804      -1762.3374
  21732210.5874  -27586380.92948 -21174245.39546  21732208.8864   21732215.0174
     -1881.8114      -1466.3474
  18816790.7314  -40566759.78448 -31321504.56247  18816788.3114   18816792.8274
       910.7254        709.6564
  19922737.7124  -31776363.87049 -24456837.77047  19922735.2884   19922740.8624
      2244.7714       1749.1724
  19872019.7114  -30119556.80049 -22866438.83847  19872016.9374   19872022.2504
      3008.0744       2343.9534
  21365941.1684  -19817725.78348 -15099778.87346  21365938.7784   21365946.4404
      3661.3784       2853.0184
 00  7 15  2 10 59.9950000  0  7G22G11G25G20G 1G16G19
  20069987.0524  -20381606.32248 -15866082.68146  20069984.3334   20069990.9854
      2422.2264       1887.4484
  22729490.2974  -25447419.20047 -19182941.51945  22729487.1034   22729498.3034
     -2261.2774      -1762.0294
  21742962.6494  -27529877.23448 -21130216.58446  21742961.4034   21742967.1174
     -1886.1974      -1469.7634
  18811640.7724  -40593824.68448 -31342594.10047  18811638.0674   18811642.5294
       892.4584        695.4234
  19909935.1304  -31843640.35649 -24509260.99447  19909932.8304   19909938.7584
      2239.2044       1744.8334
  19854879.6124  -30209626.13849 -22936622.71947  19854877.2114   19854882.8324
      2995.4044       2334.0814
  21345060.1034  -19927455.58848 -15185282.49746  21345057.9164   21345064.9594
      3652.7574       2846.3024
 00  7 15  2 11 29.9950000  0  7G22G11G25G20G 1G16G19
  20056211.3534  -20453999.08448 -15922492.57546  20056208.8664   20056214.8294
      2400.0864       1870.1944
  22742395.4404  -25379597.87247 -19130094.00645  22742394.2034   22742404.9304
     -2263.9984      -1764.1504
  21753742.1444  -27473234.42448 -21086079.37846  21753740.0904   21753745.9594
     -1893.7384      -1475.6394
  18806596.1024  -40620333.00448 -31363249.94447  18806593.8064   18806597.8454
       870.9484        678.6614
  19897166.1114  -31910741.03449 -24561547.22147  19897163.9884   19897169.9464
      2230.3964       1737.9714
  19837814.6254  -30299304.67349 -23006502.08047  19837812.2534   19837817.5314
      2979.3704       2321.5884
  21324229.5224  -20036917.86748 -15270577.67946  21324227.4694   21324234.7084
      3640.9074       2837.0694
 00  7 15  2 11 59.9950000  0  7G22G11G25G20G 1G16G19
  20042559.7924  -20525737.95148 -15978392.94046  20042557.5044   20042563.5734
      2387.0114       1860.0074
  22755315.3394  -25311706.02547 -19077191.54645  22755313.3944   22755324.2234
     -2257.5434      -1759.1194
  21764561.8214  -27416377.20948 -21041775.10646  21764559.5304   21764565.5544
     -1892.0994      -1474.3624
  18801672.6424  -40646207.12849 -31383411.60447  18801670.1134   18801674.1994
       858.5794        669.0224
  19884446.2094  -31977588.59249 -24613636.21447  19884443.8474   19884449.2864
      2230.7104       1738.2164
  19820839.1104  -30388512.97349 -23076015.02447  19820836.4564   19820842.0014
      2972.4474       2316.1914
  21303464.9644  -20146034.89548 -15355603.79946  21303462.6694   21303470.2654
      3638.1434       2834.9114
 00  7 15  2 12 29.9950000  0  7G22G11G25G20G 1G16G19
  20028983.8694  -20597081.83748 -16033985.52546  20028981.2174   20028987.2844
      2364.6524       1842.5854
  22768198.9534  -25244007.41247 -19024439.65945  22768196.3594   22768207.1064
     -2260.2354      -1761.2094
  21775371.9774  -27359567.79348 -20997508.07846  21775370.1054   21775376.1674
     -1899.6314      -1480.2284
  18796820.2134  -40671707.08249 -31403281.70547  18796817.6894   18796821.9694
       836.9154        652.1424
  19871723.2784  -32044443.41949 -24665730.86847  19871721.2164   19871726.9804
      2221.7944       1731.2664
  19803903.1874  -30477509.65449 -23145363.06447  19803900.7904   19803906.6944
      2956.1894       2303.5234
  21282717.3554  -20255066.84448 -15440563.63146  21282715.0444   21282722.3114
      3626.1384       2825.5574
 00  7 15  2 12 59.9950000  0  7G22G11G25G20G 1G16G19
  20015524.3484  -20667810.45548 -16089098.68446  20015521.4154   20015527.5274
      2347.7614       1829.4214
  22781086.8764  -25176286.32947 -18971670.24245  22781084.3744   22781094.5154
     -2257.3114      -1758.9424
  21786214.7034  -27302589.50448 -20953109.46846  21786212.5454   21786218.9084
     -1901.6104      -1481.7734
  18792080.3614  -40696613.73849 -31422689.49647  18792077.9354   18792082.3274
       820.7484        639.5444
  19859041.5024  -32111086.78949 -24717660.75347  19859039.3914   19859045.0864
      2218.3514       1728.5844
  19787050.2034  -30566074.20249 -23214374.37347  19787047.5944   19787053.2984
      2945.3864       2295.1064
  21262026.5584  -20363794.06748 -15525286.03246  21262024.4344   21262032.2324
      3619.5614       2820.4334
 00  7 15  2 13 29.9950000  0  8G22G11G25G 4G20G 1G16G19
  20002185.5684  -20737907.01248 -16143719.33246  20002182.7844   20002188.5084
      2330.5264       1815.9924
  22793978.1314  -25108530.88847 -18918874.03445  22793976.6774   22793987.9814
     -2254.4904      -1756.7414
  21797092.0344  -27245429.74448 -20908569.45646  21797089.8764   21797095.8124
     -1903.7464      -1483.4344
  23341797.4014   -6291844.27957  -4876516.90845  23341795.7834   23341802.5574
      2677.8574       2086.6404
  18787456.8904  -40720911.91249 -31441623.14147  18787454.2894   18787458.2924
       804.3814        626.7904
  19846402.9284  -32177503.91249 -24769414.34447  19846400.7914   19846406.4474
      2214.7164       1725.7534
  19770282.3524  -30654189.51249 -23283035.62647  19770279.9104   19770285.8914
      2934.2644       2286.4394
  21241397.0284  -20472200.93148 -15609758.80446  21241394.9184   21241403.1604
      3612.8014       2815.1674
 00  7 15  2 13 59.9950000  0  8G22G11G25G 4G20G 1G16G19
  19988948.4474  -20807464.07048 -16197919.58746  19988946.0574   19988952.3174
      2313.5754       1802.7834
  22806861.2314  -25040838.58447 -18866127.06145  22806859.2734   22806870.3014
     -2251.2274      -1754.1914
  21807984.7694  -27188185.57248 -20863963.66846  21807983.2534   21807989.0704
     -1905.4464      -1484.7584
  23326567.9584   -6371873.41047  -4938877.22945  23326566.6124   23326575.1364
      2664.4104       2076.1604
  18782930.9554  -40744695.75649 -31460156.01747  18782928.4904   18782932.3564
       788.3144        614.2704
  19833789.5854  -32243789.44349 -24821065.39547  19833787.3624   19833793.0644
      2211.3954       1723.1644
  19753582.5484  -30741948.04449 -23351418.87847  19753579.8684   19753585.9184
      2923.4004       2277.9724
  21220811.4924  -20580381.50448 -15694055.24746  21220809.2784   21220816.7554
      3606.3074       2810.1054
 00  7 15  2 14 29.9950000  0  8G22G11G25G 4G20G 1G16G19
  19975812.2984  -20876493.27948 -16251708.53046  19975810.1894   19975816.9904
      2292.0044       1785.9754
  22819728.0774  -24973225.99647 -18813442.18245  22819725.7974   22819736.6074
     -2252.4964      -1755.1804
  21818890.9094  -27130872.68548 -20819304.33046  21818889.3324   21818895.4924
     -1911.6324      -1489.5854
  23311418.3914   -6451478.40847  -5000907.09945  23311416.3644   23311424.5414
      2646.2514       2062.0184
  18778500.2134  -40767978.68049 -31478298.56447  18778497.7484   18778501.8604
       767.6334        598.1554
  19821197.9074  -32309956.88749 -24872624.42647  19821195.8344   19821201.9104
      2203.5274       1717.0334
  19736947.8144  -30829361.83849 -23419533.49947  19736945.3154   19736951.5314
      2907.9354       2265.9224
  21200265.7644  -20688349.10048 -15778185.72246  21200263.6414   21200271.3284
      3595.2754       2801.5094
 00  7 15  2 14 59.9950000  0  8G22G11G25G 4G20G 1G16G19
  19962788.6624  -20944936.34848 -16305040.75646  19962786.1514   19962792.5234
      2269.5794       1768.5024
  22832589.0334  -24905639.37847 -18760777.54845  22832587.0324   22832597.4364
     -2254.5074      -1756.7534
  21829821.1954  -27073435.70148 -20774548.29546  21829819.4754   21829825.4244
     -1918.6404      -1495.0444
  23296361.8054   -6530600.96347  -5062560.98645  23296360.5484   23296367.6224
      2627.2374       2047.1934
  18774176.0754  -40790703.18449 -31496005.97847  18774173.5304   18774177.5834
       746.1144        581.3874
  19808640.0784  -32375949.33349 -24924047.09647  19808637.9604   19808643.6604
      2194.7884       1710.2244
  19720390.8274  -30916371.59449 -23487333.28447  19720388.0464   19720394.2484
      2891.5394       2253.1474
  21179771.6734  -20796046.03448 -15862105.28746  21179769.4264   21179776.9484
      3583.3204       2792.1934
 00  7 15  2 15 29.9950000  0  8G22G11G25G 4G20G 1G16G19
  19949871.1964  -21012818.36248 -16357935.78646  19949868.6934   19949874.7034
      2252.9794       1755.5684
  22845440.6334  -24838108.02947 -18708155.99745  22845438.8004   22845449.5834
     -2250.4394      -1753.5864
  21840769.2684  -27015903.09148 -20729717.75446  21840767.4914   21840773.8074
     -1919.6494      -1495.8284
  23281392.1294   -6609266.59747  -5123858.83545  23281391.6444   23281398.6924
      2614.1474       2036.9904
  18769952.6394  -40812895.39149 -31513298.61647  18769950.1214   18769954.5494
       730.5284        569.2444
  19796110.3494  -32441793.17349 -24975353.96947  19796108.1124   19796113.7884
      2191.9794       1708.0344
  19703905.6194  -31003002.08149 -23554837.53247  19703903.0044   19703908.8454
      2881.0024       2244.9374
  21159324.0464  -20903498.14248 -15945834.09446  21159322.1014   21159329.1044
      3577.2874       2787.4924
 00  7 15  2 15 59.9950000  0  8G22G11G25G 4G20G 1G16G19
  19937053.9034  -21080172.52548 -16410419.50946  19937051.1834   19937057.6904
      2236.5494       1742.7654
  22858273.8974  -24770670.16847 -18655607.28045  22858271.6984   22858283.6004
     -2246.0524      -1750.1594
  21851728.5804  -26958312.18348 -20684841.78846  21851726.6474   21851732.8324
     -1920.3154      -1496.3464
  23266502.9714   -6687509.19547  -5184827.03145  23266502.1324   23266510.3884
      2601.2634       2026.9624
  18765824.5594  -40834590.30649 -31530203.75047  18765822.0674   18765826.1394
       715.2064        557.3054
  19783602.0814  -32507523.82749 -25026572.64647  19783599.8394   19783605.7464
      2189.4484       1706.0634
  19687486.0984  -31089286.67549 -23622072.25847  19687483.7004   19687489.8164
      2870.6984       2236.9074
  21138916.3694  -21010740.32948 -16029399.32146  21138914.5764   21138921.5244
      3571.5334       2783.0104
 00  7 15  2 16 29.9950000  0  8G22G11G25G 4G20G 1G16G19
  19924354.8604  -21146905.49748 -16462419.18446  19924352.5624   19924358.8404
      2219.7714       1729.6914
  22871104.6184  -24703237.28747 -18603062.46945  22871102.7034   22871115.1884
     -2241.9014      -1746.9224
  21862715.8454  -26900573.71248 -20639850.83546  21862713.9184   21862720.4094
     -1921.2634      -1497.0844
  23251712.7614   -6765236.13747  -5245393.43445  23251711.6164   23251719.6724
      2588.0034       2016.6234
  18761807.8144  -40855696.26649 -31546649.96147  18761805.4804   18761809.8094
       699.4764        545.0474
  19771132.7424  -32573049.53349 -25077631.61747  19771130.7684   19771136.6534
      2186.5584       1703.8104
  19671150.1364  -31175131.38749 -23688964.21947  19671147.5804   19671153.9754
      2859.9204       2228.5084
  21118566.3544  -21117680.31548 -16112729.06546  21118564.4324   21118571.2954
      3565.3774       2778.2124
 00  7 15  2 16 59.9950000  0  8G22G11G25G 4G20G 1G16G19
  19911769.3604  -21213044.69448 -16513956.17846  19911766.7574   19911772.7044
      2198.0484       1712.7634
  22883930.4854  -24635841.54647 -18550546.55545  22883928.0754   22883939.9494
     -2242.5084      -1747.3924
  21873725.6334  -26842718.74748 -20594769.10446  21873723.4954   21873729.7544
     -1927.0644      -1501.6054
  23237014.2964   -6842475.33447  -5305579.77045  23237012.4654   23237020.4954
      2569.7904       2002.4394
  18757898.3354  -40876241.98149 -31562659.61947  18757895.6184   18757900.3884
       678.8824        528.9994
  19758697.1304  -32638399.55549 -25128553.69747  19758695.0224   19758700.5954
      2178.7694       1697.7414
  19654892.4654  -31260563.78949 -23755534.89747  19654890.0464   19654896.5444
      2844.2154       2216.2724
  21098268.4304  -21224346.67948 -16195845.58346  21098266.3344   21098273.3324
      3554.3284       2769.6044
 00  7 15  2 17 29.9950000  0  8G22G11G25G 4G20G 1G16G19
  19899295.7094  -21278595.66048 -16565034.81147  19899293.1104   19899298.8364
      2176.2154       1695.7504
  22896745.9924  -24568492.62347 -18498067.17345  22896744.4594   22896756.4934
     -2243.1314      -1747.8944
  21884755.7704  -26784755.86248 -20549603.27446  21884753.9744   21884759.6444
     -1932.8144      -1506.0864
  23222408.8274   -6919232.64047  -5365390.60545  23222407.9434   23222414.8764
      2551.5944       1988.2564
  18754093.5284  -40896234.04049 -31578237.85547  18754091.1694   18754095.8264
       658.2394        512.9144
  19746294.4294  -32703580.71649 -25179344.19547  19746291.9684   19746297.3254
      2170.9634       1691.6604
  19638712.8394  -31345588.55149 -23821787.93547  19638710.4884   19638716.4404
      2828.4154       2203.9584
  21078021.0754  -21330745.80148 -16278753.85146  21078019.0314   21078026.1554
      3543.2194       2760.9454
 00  7 15  2 17 59.9950000  0  8G22G11G25G 4G20G 1G16G19
  19886937.7404  -21343536.26248 -16615637.83747  19886935.3164   19886941.1684
      2153.8774       1678.3464
  22909558.6464  -24501172.52347 -18445610.22145  22909555.8624   22909569.0734
     -2244.0954      -1748.6344
  21895809.7114  -26726666.26448 -20504338.72446  21895807.6794   21895814.1604
     -1938.9504      -1510.8684
  23207899.6614   -6995485.91347  -5424808.70745  23207897.8074   23207904.2634
      2532.6844       1973.5364
  18750398.9474  -40915651.51649 -31593368.36647  18750396.3664   18750400.8454
       637.1174        496.4554
  19733926.5454  -32768571.98349 -25229986.72247  19733924.3094   19733929.8114
      2162.6624       1685.1914
  19622615.6564  -31430182.97449 -23887705.64047  19622613.0794   19622618.5574
      2812.0664       2191.2194
  21057828.5714  -21436856.48748 -16361437.37146  21057826.7724   21057834.0364
      3531.6394       2751.9244
 00  7 15  2 18 29.9950000  0  8G22G11G25G 4G20G 1G16G19
  19874684.2924  -21407929.96848 -16665814.71447  19874681.4194   19874687.4384
      2140.1144       1667.6214
  22922349.7294  -24433949.63347 -18393229.05145  22922348.3544   22922360.3554
     -2236.3074      -1742.5594
  21906874.9764  -26668517.48748 -20459028.05246  21906873.2604   21906879.2974
     -1936.3934      -1508.8764
  23193471.4684   -7071299.49247  -5483884.22245  23193467.9904   23193477.3124
      2522.5954       1965.6634
  18746801.3274  -40934559.37749 -31608101.77947  18746798.6794   18746803.1124
       624.6424        486.7364
  19721582.9144  -32833438.65549 -25280532.16747  19721580.6134   19721585.9854
      2163.0094       1685.4614
  19606587.3784  -31514410.67849 -23953337.59947  19606584.7194   19606590.7964
      2804.3154       2185.1804
  21037679.6114  -21542743.42448 -16443946.55446  21037677.5284   21037684.0524
      3528.6954       2749.6294
 00  7 15  2 18 59.9950000  0  8G22G11G25G 4G20G 1G16G19
  19862541.9234  -21471739.06148 -16715536.04547  19862539.0534   19862545.0214
      2116.3234       1649.0834
  22935128.7674  -24366790.98147 -18340897.93045  22935127.1634   22935140.1344
     -2238.3874      -1744.1834
  21917958.0974  -26610275.71548 -20413644.92146  21917956.1634   21917962.1054
     -1943.7104      -1514.5764
  23179134.5014   -7146636.38147  -5542588.25845  23179133.4024   23179140.3924
      2502.4384       1949.9464
  18743306.5714  -40952921.65749 -31622410.06347  18743304.1514   18743308.7314
       602.1634        469.2184
  19709269.5694  -32898144.80349 -25330952.52947  19709267.2344   19709272.9884
      2153.3804       1677.9584
  19590635.9354  -31598233.73949 -24018654.24547  19590633.5994   19590639.7394
      2786.5184       2171.3134
  21017578.7744  -21648370.07148 -16526252.93746  21017576.9104   21017584.2464
      3515.7354       2739.5314
 00  7 15  2 19 29.9950000  0  8G22G11G25G 4G20G 1G16G19
  19850509.1154  -21534969.33448 -16764806.34147  19850506.3844   19850512.7784
      2097.3534       1634.2994
  22947895.1644  -24299706.66047 -18288624.71545  22947892.6854   22947904.9574
     -2235.4634      -1741.8954
  21929057.3934  -26551950.25548 -20368196.57346  21929055.3584   21929061.5314
     -1946.1764      -1516.4984
  23164887.7104   -7221502.92047  -5600925.78545  23164886.0764   23164892.8674
      2487.0824       1937.9814
  18739915.1464  -40970745.50649 -31636298.78447  18739912.7854   18739916.8034
       584.5254        455.4734
  19696985.5884  -32962697.55249 -25381253.35847  19696983.3794   19696989.0404
      2148.5844       1674.2214
  19574761.8944  -31681656.97549 -24083659.34947  19574759.0894   19574764.8234
      2773.4874       2161.1574
  20997527.1464  -21753743.18148 -16608361.75946  20997524.9444   20997532.4144
      3507.5794       2733.1764
 00  7 15  2 19 59.9950000  0  8G22G11G25G 4G20G 1G16G19
  19838590.7244  -21597598.78948 -16813608.47247  19838588.1384   19838594.5524
      2080.4784       1621.1504
  22960650.9284  -24232678.84347 -18236395.51845  22960649.7374   22960661.1964
     -2230.4444      -1738.0014
  21940174.6364  -26493521.97948 -20322668.10946  21940173.5084   21940180.4254
     -1946.3894      -1516.6654
  23150735.4044   -7295876.92947  -5658879.52445  23150733.9814   23150741.1664
      2473.7484       1927.5904
  18736629.6924  -40988009.87149 -31649751.54747  18736627.1204   18736631.6724
       569.0344        443.4034
  19684734.8844  -33027075.97949 -25431418.35047  19684732.6294   19684738.1304
      2145.9514       1672.1694
  19558966.8064  -31764658.40349 -24148335.76747  19558964.2524   19558970.1854
      2762.5394       2152.6284
  20977527.6294  -21858841.53548 -16690256.47446  20977525.4244   20977532.7254
      3501.5704       2728.4924
 00  7 15  2 20 29.9950000  0  8G22G11G25G 4G20G 1G16G19
  19826767.5294  -21659731.74648 -16862023.71846  19826764.8594   19826771.0734
      2057.8734       1603.5354
  22973374.2614  -24165815.98247 -18184294.89245  22973372.6124   22973386.6654
     -2230.9064      -1738.3614
  21951293.2654  -26435098.12648 -20277143.09046  21951291.4094   21951297.8184
     -1952.2494      -1521.2334
  23136656.0534   -7369863.38247  -5716531.27845  23136654.5834   23136662.1004
      2454.8294       1912.8544
  18733430.1954  -41004820.21849 -31662850.52947  18733427.9614   18733432.6584
       547.8714        426.9124
  19672496.8894  -33091385.49149 -25481529.64547  19672494.7184   19672500.6014
      2137.6134       1665.6714
  19543232.6034  -31847341.04849 -24212763.78047  19543230.0364   19543236.1574
      2745.8734       2139.6414
  20957560.7074  -21963770.04048 -16772018.84346  20957558.3144   20957564.9504
      3489.8894       2719.3914
 00  7 15  2 20 59.9950000  0  8G22G11G25G 4G20G 1G16G19
  19815065.4204  -21721224.35148 -16909939.99047  19815063.0554   19815069.3334
      2042.6404       1591.6674
  22986092.9184  -24098978.92347 -18132214.33545  22986091.2974   22986103.7244
     -2223.8384      -1732.8494
  21962436.4864  -26376539.05948 -20231512.71346  21962434.4774   21962441.1924
     -1950.5334      -1519.8914
  23122678.2174   -7443318.99847  -5773769.37745  23122676.4284   23122681.5404
      2443.2864       1903.8524
  18730345.4634  -41021034.44649 -31675485.00647  18730342.7734   18730347.4304
       534.1754        416.2414
  19660299.4344  -33155484.17849 -25531476.66347  19660297.0924   19660302.5974
      2136.7604       1665.0074
  19527586.5284  -31929561.37849 -24276831.55247  19527584.0504   19527590.0514
      2736.6014       2132.4164
  20937652.4704  -22068386.44248 -16853538.03346  20937650.3134   20937657.1284
      3485.6204       2716.0654
 00  7 15  2 21 29.9950000  0  8G22G11G25G 4G20G 1G16G19
  19803474.8374  -21782138.44548 -16957405.47947  19803471.9704   19803478.0344
      2020.4074       1574.3414
  22998794.9284  -24032234.08647 -18080205.65045  22998793.4934   22998806.1204
     -2223.6654      -1732.7124
  21973593.5034  -26317910.05948 -20185827.84346  21973592.1954   21973598.0564
     -1955.7564      -1523.9654
  23108790.1084   -7516306.26547  -5830642.56145  23108787.2434   23108794.9684
      2424.6954       1889.3744
  18727361.0094  -41036715.91749 -31687704.34847  18727358.6854   18727362.9454
       513.4814        400.1164
  19648129.8874  -33219435.36649 -25581308.74647  19648127.5804   19648133.2694
      2128.8974       1658.8804
  19512017.2504  -32011380.82549 -24340586.94647  19512014.3884   19512020.3414
      2720.2604       2119.6824
  20917791.8674  -22172753.57048 -16934862.98246  20917789.8344   20917796.9784
      3474.3814       2707.3084
 00  7 15  2 21 59.9950000  0  8G22G11G25G 4G20G 1G16G19
  19791992.5894  -21842474.71248 -17004420.71647  19791990.0404   19791995.9194
      2003.2234       1560.9534
  23011477.1524  -23965585.99847 -18028272.38245  23011475.2344   23011488.9844
     -2218.2634      -1728.5194
  21984762.7904  -26259214.72648 -20140091.29446  21984760.9774   21984767.5454
     -1955.8744      -1524.0564
  23094989.7914   -7588826.15047  -5887151.51745  23094986.7684   23094993.6354
      2411.1664       1878.8384
  18724478.4764  -41051866.47649 -31699509.98947  18724475.8264   18724480.0794
       497.8704        387.9514
  19635988.1324  -33283240.95049 -25631027.36947  19635985.7674   19635991.6744
      2126.1104       1656.7094
  19496523.7154  -32092799.56949 -24404030.10447  19496521.1334   19496527.0874
      2708.9474       2110.8664
  20897978.2624  -22276872.73748 -17015994.72146  20897976.3054   20897983.2704
      3468.1804       2702.4754
 00  7 15  2 22 29.9950000  0  7G22G25G 4G20G 1G16G19
  19780633.7064  -21902165.68748 -17050933.12646  19780630.8954   19780636.7364
      1982.8724       1545.0944
  21995957.4304  -26200388.76248 -20094252.95246  21995955.6174   21995961.9964
     -1959.0154      -1526.5074
  23081290.7454   -7660811.20847  -5943243.74945  23081288.7644   23081296.7734
      2394.4584       1865.8124
  18721708.9634  -41066419.62049 -31710850.11847  18721706.3184   18721710.6304
       479.0944        373.3204
  19623886.3014  -33346834.48149 -25680580.76447  19623884.1574   19623890.0944
      2120.2394       1652.1344
  19481119.4784  -32173748.82949 -24467107.43447  19481116.8624   19481122.8254
      2694.4704       2099.5864
  20878225.0814  -22380677.38048 -17096881.35446  20878222.8784   20878229.6744
      3458.8884       2695.2364
 00  7 15  2 22 59.9950000  0  7G22G25G 4G20G 1G16G19
  19769383.0784  -21961288.61548 -17097002.89747  19769380.4764   19769386.3424
      1954.9714       1523.3504
  22007161.3604  -26141512.68548 -20048375.55946  22007159.0834   22007165.7674
     -1969.6444      -1534.7844
  23067679.2374   -7732339.10747  -5998979.71145  23067677.3714   23067684.9084
      2370.2554       1846.9564
  18719038.2074  -41080453.76949 -31721785.82747  18719035.7094   18719040.1694
       452.8494        352.8704
  19611810.4464  -33410294.13549 -25730029.84247  19611808.1964   19611813.8474
      2106.7914       1641.6544
  19465789.4214  -32254305.76949 -24529879.06047  19465787.0304   19465793.1114
      2672.3704       2082.3674
  20858516.8354  -22484245.45748 -17177583.65146  20858514.6584   20858521.1844
      3442.0284       2682.0974
 00  7 15  2 23 29.9950000  0  7G22G25G 4G20G 1G16G19
  19758252.8144  -22019775.26248 -17142576.86547  19758250.7754   19758256.7074
      1940.8454       1512.3484
  22018387.5724  -26082521.72948 -20002408.65646  22018385.1014   22018391.1364
     -1966.2854      -1532.1674
  23054167.9084   -7803342.53647  -6054307.03245  23054166.2174   23054173.2654
      2359.9794       1838.9434
  18716478.8254  -41093902.65349 -31732265.49147  18716476.2754   18716480.8194
       440.5054        343.2524
  19599773.1614  -33473553.41149 -25779322.78047  19599770.7994   19599775.9374
      2107.3054       1642.0554
  19450547.8684  -32334401.61949 -24592291.40147  19450545.3814   19450551.2764
      2664.1314       2075.9474
  20838866.1604  -22587509.96448 -17258049.40746  20838864.0294   20838870.7664
      3439.0494       2679.7774
 00  7 15  2 23 59.9950000  0  7G22G25G 4G20G 1G16G19
  19747234.9514  -22077674.66448 -17187693.24046  19747232.4834   19747238.6434
      1915.7684       1492.8044
  22029624.5954  -26023468.50248 -19956393.20046  22029623.0964   22029628.6194
     -1973.8014      -1538.0224
  23040746.3224   -7873871.07847  -6109264.28945  23040744.6444   23040752.8474
      2338.6714       1822.3354
  18714021.7144  -41106816.65249 -31742328.35847  18714019.0744   18714023.6154
       417.1894        325.0824
  19587763.8984  -33536662.81849 -25828498.93747  19587761.5384   19587766.8144
      2096.7894       1633.8604
  19435385.3674  -32414085.11449 -24654382.42947  19435382.6944   19435388.2264
      2644.8704       2060.9384
  20819263.7844  -22690520.92648 -17338317.60547  20819261.7184   20819268.2034
      3425.1334       2668.9304
 00  7 15  2 24 29.9940000  0  7G22G25G 4G20G 1G16G19
  19736328.3844  -22134989.00048 -17232353.73246  19736325.9424   19736332.2084
      1900.3634       1480.8014
  22040873.1174  -25964361.75148 -19910336.06246  22040870.0484   22040876.8274
     -1971.5744      -1536.2914
  23027416.1934   -7943926.32547  -6163852.73745  23027413.8284   23027421.9104
      2326.9784       1813.2214
  18711665.0934  -41119200.38049 -31751978.02647  18711662.3894   18711667.2744
       403.5344        314.4434
  19575782.5904  -33599624.89849 -25877560.28947  19575780.2544   19575785.8184
      2095.9864       1633.2354
  19420300.1104  -32493356.99749 -24716152.71747  19420297.4394   19420303.5254
      2635.2604       2053.4484
  20799709.4194  -22793279.81148 -17418389.37647  20799707.4204   20799713.9104
      3420.8824       2665.6214
 00  7 15  2 24 59.9940000  0  7G22G25G 4G20G 1G16G19
  19725544.4584  -22191658.75248 -17276511.95046  19725542.2464   19725548.1194
      1878.7084       1463.9254
  22052142.6544  -25905136.57448 -19864186.65046  22052140.5614   22052146.3604
     -1975.4554      -1539.3134
  23014184.4734   -8013449.75547  -6218026.81645  23014183.0564   23014192.2174
      2309.0784       1799.2834
  18709420.6614  -41130992.47749 -31761166.69247  18709418.3164   18709422.8104
       383.7984        299.0644
  19563840.4074  -33662381.19349 -25926461.29347  19563838.0564   19563843.6714
      2089.0304       1627.8144
  19405304.2774  -32572157.83749 -24777555.95747  19405302.0034   19405308.1434
      2619.3824       2041.0774
  20780213.6214  -22895730.41448 -17498220.93047  20780211.5784   20780218.0714
      3410.4194       2657.4674
 00  7 15  2 25 29.9940000  0  7G22G25G 4G20G 1G16G19
  19714860.4384  -22247808.10148 -17320264.65647  19714857.5044   19714863.3854
      1858.8354       1448.4414
  22063410.4444  -25845924.78748 -19818047.65646  22063408.0024   22063414.4534
     -1977.5514      -1540.9464
  23001032.9984   -8082565.65947  -6271883.33145  23001030.7554   23001039.6494
      2292.9274       1786.6884
  18707264.8144  -41142319.96748 -31769993.31847  18707262.5454   18707267.1314
       365.7744        285.0194
  19551913.5124  -33725057.09849 -25975299.65847  19551911.0394   19551916.7154
      2083.7664       1623.7144
  19390374.9374  -32650610.76449 -24838688.09747  19390372.5734   19390378.7254
      2605.1824       2030.0124
  20760753.0784  -22997996.19748 -17577908.47547  20760751.0924   20760757.5394
      3401.6884       2650.6654
 00  7 15  2 25 59.9940000  0  7G22G25G 4G20G 1G16G19
  19704300.7374  -22303295.36348 -17363501.45147  19704298.2734   19704304.2724
      1836.4384       1430.9904
  22074701.6144  -25786588.09948 -19771811.33946  22074699.6054   22074705.3944
     -1981.9604      -1544.3814
  22987985.1704   -8151132.99747  -6325312.40645  22987984.0024   22987991.9854
      2274.3604       1772.2254
  18705224.9124  -41153042.78049 -31778348.76647  18705222.3474   18705226.9234
       345.3084        269.0724
  19540028.0024  -33787512.23449 -26023965.99247  19540025.9124   19540031.9054
      2076.1354       1617.7674
  19375539.6644  -32728573.62949 -24899438.37447  19375536.8914   19375542.8674
      2588.5574       2017.0564
  20741353.7564  -23099936.51148 -17657342.39147  20741351.7754   20741358.7004
      3390.5434       2641.9804
 00  7 15  2 26 29.9940000  0  7G22G25G 4G20G 1G16G19
  19693866.9354  -22358130.12248 -17406229.80047  19693864.3314   19693869.6324
      1817.1324       1415.9474
  22086014.2024  -25727139.26948 -19725487.63646  22086012.2564   22086018.6204
     -1983.2514      -1545.3844
  22975040.1614   -8219162.08047  -6378322.07245  22975038.6504   22975044.2434
      2258.8394       1760.1294
  18703297.0854  -41163171.91149 -31786241.61547  18703294.5334   18703299.4504
       327.9554        255.5524
  19528183.8764  -33849757.44049 -26072468.74947  19528181.2904   19528186.9264
      2071.5574       1614.2004
  19360795.4944  -32806055.73249 -24959814.03447  19360792.8024   19360798.6554
      2574.9404       2006.4464
  20722015.2704  -23201562.19048 -17736531.15147  20722013.4154   20722019.8374
      3382.4914       2635.7044
 00  7 15  2 26 59.9940000  0  7G22G25G 4G20G 1G16G19
  19683553.9094  -22412322.77548 -17448457.80847  19683551.4834   19683557.2084
      1798.8714       1401.7164
  22097345.3634  -25667590.97448 -19679086.43046  22097343.9414   22097349.8264
     -1983.3434      -1545.4614
  22962195.0344   -8286663.33447  -6430920.43745  22962194.2174   22962199.1384
      2244.4284       1748.9054
  18701480.5894  -41172718.76649 -31793680.73847  18701478.0964   18701482.8164
       311.7394        242.9144
  19516376.6554  -33911803.91649 -26120816.66147  19516374.1994   19516379.9034
      2068.0944       1611.5034
  19346140.8664  -32883066.54749 -25019822.45547  19346138.1874   19346144.0044
      2562.3884       1996.6654
  20702735.1134  -23302883.93148 -17815483.06647  20702732.8364   20702739.0144
      3375.5024       2630.2624
 00  7 15  2 27 29.9940000  0  7G22G25G 4G20G 1G16G19
  19673334.1294  -22466025.57248 -17490304.12347  19673331.6784   19673337.7954
      1783.0484       1389.3874
  22108666.7974  -25608098.27348 -19632728.55746  22108664.6404   22108671.5284
     -1980.9674      -1543.6084
  22949421.2294   -8353788.72447  -6483225.93345  22949418.7174   22949426.4874
      2232.3874       1739.5234
  18699745.2674  -41181836.41349 -31800785.41047  18699742.8654   18699747.8974
       297.9404        232.1634
  19504577.6754  -33973804.25349 -26169128.61147  19504575.7254   19504581.1404
      2067.0864       1610.7184
  19331546.6384  -32959757.05149 -25079581.28647  19331544.1474   19331550.2174
      2552.1594       1988.6954
  20683482.5154  -23404054.10148 -17894316.88047  20683480.2814   20683486.8984
      3370.9534       2626.7144
 00  7 15  2 27 59.9940000  0  7G22G25G 4G20G 1G16G19
  19663212.8524  -22519213.05948 -17531748.88947  19663210.3624   19663216.4324
      1759.7684       1371.2474
  22119981.8324  -25548638.76248 -19586396.54646  22119979.5374   22119986.2844
     -1985.8564      -1547.4164
  22936722.4884   -8420513.53747  -6535219.27245  22936722.0474   22936729.2954
      2212.8724       1724.3214
  18698096.5114  -41190501.05149 -31807537.08947  18698094.1064   18698099.2824
       276.7814        215.6744
  19492793.2204  -34035734.32749 -26217385.81347  19492790.8044   19492796.1504
      2058.6994       1604.1824
  19317018.2894  -33036101.35449 -25139070.34547  19317016.0964   19317022.2094
      2534.5534       1974.9774
  20664263.5224  -23505048.41548 -17973013.66947  20664261.5534   20664268.1424
      3359.0474       2617.4374
 00  7 15  2 28 29.9940000  0  7G22G25G 4G20G 1G16G19
  19653227.6584  -22571685.19248 -17572636.24046  19653225.3024   19653230.9534
      1735.0294       1351.9704
  22131327.8094  -25489015.49548 -19539936.94246  22131325.9114   22131332.3464
     -1992.1294      -1552.3094
  22924140.9824   -8486638.29047  -6586745.04945  22924139.1184   22924145.9724
      2192.0424       1708.0814
  18696572.0804  -41198514.16649 -31813781.09447  18696569.4274   18696574.4184
       254.2194        198.0944
  19481059.3124  -34097394.98949 -26265433.08747  19481057.2804   19481062.4524
      2048.8444       1596.5024
  19302595.2274  -33111898.68449 -25198133.19747  19302592.6364   19302598.3614
      2515.3984       1960.0514
  20645116.3214  -23605667.87748 -18051418.36147  20645114.1544   20645121.3374
      3345.6854       2607.0254
 00  7 15  2 28 59.9940000  0  7G22G25G 4G20G 1G16G19
  19643371.4394  -22623483.68248 -17612998.67247  19643368.5854   19643374.1494
      1714.7734       1336.1844
  22142695.8694  -25429273.49248 -19493384.80546  22142693.8254   22142701.1514
     -1993.9144      -1553.6984
  22911663.9854   -8552205.18147  -6637836.08945  22911662.3614   22911669.5774
      2175.6794       1695.3304
  18695162.3654  -41205918.89349 -31819551.02647  18695159.8804   18695165.2774
       236.1074        183.9814
  19469368.8234  -34158829.18249 -26313303.88547  19469366.6914   19469372.1514
      2043.4724       1592.3154
  19288267.4334  -33187190.78549 -25256802.36047  19288264.7974   19288271.1634
      2500.7494       1948.6354
  20626032.1304  -23705954.98648 -18129564.06447  20626030.0544   20626037.2234
      3336.8054       2600.1044
 00  7 15  2 29 29.9940000  0  7G22G25G 4G20G 1G16G19
  19633612.7434  -22674762.73148 -17652956.34247  19633610.3884   19633616.2824
      1698.5934       1323.5784
  22154058.0724  -25369569.09748 -19446861.96446  22154055.6834   22154062.8104
     -1991.4604      -1551.7814
  22899263.5574   -8617368.32547  -6688612.52745  22899261.9644   22899269.3944
      2163.3614       1685.7334
  18693839.7544  -41212870.08149 -31824967.55347  18693837.2614   18693842.4684
       222.1734        173.1224
  19457692.1074  -34220191.32749 -26361118.54447  19457689.9214   19457695.3254
      2042.2504       1591.3644
  19274006.4534  -33262129.81949 -25315196.40747  19274004.1004   19274010.3474
      2490.1044       1940.3414
  20606982.1264  -23806064.06348 -18207571.06047  20606980.1814   20606986.7794
      3332.0354       2596.3894
 00  7 15  2 29 59.9940000  0  7G22G25G 4G20G 1G16G19
  19623977.6604  -22725398.67548 -17692412.90147  19623974.7574   19623980.6624
      1678.6504       1308.0384
  22165435.7534  -25309781.32748 -19400274.15746  22165433.2814   22165439.7794
     -1992.7014      -1552.7534
  22886964.1084   -8682003.99747  -6738977.96745  22886962.6404   22886969.3254
      2147.1964       1673.1484
  18692626.9294  -41219245.12749 -31829935.13147  18692624.4484   18692629.4634
       204.4614        159.3224
  19446052.7704  -34281358.32749 -26408781.14447  19446050.5164   19446055.5364
      2037.1864       1587.4184
  19259837.5214  -33336591.85149 -25373218.76647  19259834.9174   19259841.0084
      2475.6534       1929.0804
  20587989.5704  -23905871.70548 -18285343.17247  20587987.4344   20587993.5974
      3323.4454       2589.6954
 00  7 15  2 30 29.9940000  0  7G22G25G 4G20G 1G16G19
  19614459.5404  -22775413.05148 -17731385.12447  19614457.3874   19614463.0954
      1656.8744       1291.0694
  22176823.5054  -25249934.86848 -19353640.60946  22176821.6874   22176828.2254
     -1995.7044      -1555.0914
  22874760.7914   -8746134.65247  -6788949.88645  22874758.3754   22874765.4644
      2129.3324       1659.2184
  18691518.8094  -41225067.33249 -31834471.93147  18691516.4284   18691521.4314
       185.0004        144.1574
  19434445.8454  -34342352.85349 -26456309.34847  19434443.4884   19434448.6314
      2030.3964       1582.1284
  19245754.7364  -33410597.56349 -25430885.54747  19245752.0944   19245758.0964
      2459.3764       1916.3964
  20569049.4694  -24005400.55948 -18362898.04647  20569047.5254   20569054.3564
      3313.0914       2581.6264
 00  7 15  2 30 59.9940000  0  7G22G25G 4G20G 1G16G19
  19605057.8194  -22824819.79448 -17769883.86047  19605055.3204   19605061.4564
      1633.6954       1273.0084
  22188220.3064  -25190046.45548 -19306974.37346  22188218.2654   22188224.9294
     -1999.9474      -1558.4014
  22862651.3354   -8809774.63447  -6838539.45145  22862648.4774   22862655.8834
      2110.1044       1644.2264
  18690513.5094  -41230351.96649 -31838589.84747  18690510.9924   18690515.5724
       164.1944        127.9444
  19422868.7624  -34403189.70749 -26503714.68747  19422866.5204   19422872.3124
      2022.2564       1575.7844
  19231756.0374  -33484160.00249 -25488206.91947  19231753.4084   19231759.7224
      2441.7054       1902.6264
  20550159.8194  -24104665.42048 -18440247.19347  20550157.6814   20550164.8424
      3301.3954       2572.5124
 00  7 15  2 31 29.9940000  0  7G22G25G 4G20G 1G16G19
  19595782.6434  -22873563.46348 -17807865.91247  19595779.9344   19595785.7744
      1613.9264       1257.6034
  22199634.8344  -25130063.07548 -19260234.14846  22199632.6884   22199639.4834
     -2000.7604      -1559.0314
  22850642.7314   -8872868.74847  -6887703.68445  22850641.6804   22850649.6084
      2094.2484       1631.8814
  18689619.8974  -41235044.98749 -31842246.76347  18689617.6264   18689622.6994
       146.8094        114.3974
  19411332.5124  -34463814.18749 -26550954.54447  19411330.2274   19411335.9074
      2017.5294       1572.1004
  19217852.3954  -33557223.36549 -25545139.40547  19217850.0054   19217856.2304
      2427.3694       1891.4564
  20531330.8114  -24203611.39048 -18517347.87547  20531328.8464   20531335.8714
      3293.0764       2566.0324
 00  7 15  2 31 59.9940000  0  7G22G25G 4G20G 1G16G19
  19586630.5604  -22921658.14048 -17845342.25847  19586627.8154   19586633.6214
      1592.5414       1240.9394
  22211064.5334  -25070001.13947 -19213432.68945  22211062.4294   22211068.4564
     -2003.0674      -1560.8334
  22838738.8924   -8935430.82247  -6936453.31445  22838737.4054   22838743.8834
      2076.7274       1618.2334
  18688837.4944  -41239160.99849 -31845454.06047  18688834.8334   18688839.3954
       127.8424         99.6184
  19399833.6554  -34524240.66349 -26598040.12047  19399831.4234   19399836.7344
      2011.2064       1567.1724
  19204041.8244  -33629800.36049 -25601692.90147  19204039.1944   19204045.2544
      2411.3814       1878.9984
  20512560.3964  -24302252.60848 -18594211.08547  20512558.1134   20512565.1494
      3283.2184       2558.3484
 00  7 15  2 32 29.9940000  0  7G22G25G 4G20G 1G16G19
  19577581.6284  -22969208.19048 -17882394.21347  19577579.2144   19577585.1744
      1574.2184       1226.6624
  22222488.5034  -25009967.38547 -19166653.20546  22222486.3714   22222493.0654
     -2002.2594      -1560.1984
  22826914.7484   -8997565.45347  -6984869.85745  22826913.1484   22826920.9774
      2062.3614       1607.0294
  18688143.5644  -41242805.44849 -31848293.90447  18688140.9744   18688146.0094
       111.9634         87.2464
  19388352.2764  -34584573.80949 -26645052.96447  19388350.1964   19388355.7464
      2007.8934       1564.5924
  19190304.4144  -33701994.12849 -25657947.78147  19190301.5834   19190307.0524
      2398.4134       1868.8934
  20493828.0454  -24400693.77948 -18670918.41847  20493825.6464   20493832.2274
      3276.3904       2553.0304
 00  7 15  2 32 59.9940000  0  7G22G25G 4G20G 1G16G19
  19568654.9424  -23016118.39248 -17918947.59547  19568652.3944   19568658.6564
      1547.4094       1205.7714
  22233924.3354  -24949869.98447 -19119824.14146  22233922.4274   22233929.2334
     -2009.8114      -1566.0844
  22815189.2484   -9059178.16047  -7032879.71645  22815187.9784   22815195.3574
      2039.5004       1589.2244
  18687557.7944  -41245884.91949 -31850693.51247  18687555.1554   18687560.0444
        87.6874         68.3284
  19376907.0254  -34644719.46149 -26691919.70447  19376904.7204   19376910.3264
      1996.1864       1555.4704
  19176657.2244  -33773708.86149 -25713829.38447  19176654.5984   19176660.1474
      2376.9754       1852.1874
  20475150.8094  -24498840.75348 -18747396.50847  20475148.8944   20475155.3304
      3261.1104       2541.1234
 00  7 15  2 33 29.9940000  0  7G22G25G 4G20G 1G16G19
  19559869.2204  -23062288.87748 -17954924.57147  19559866.5754   19559872.4394
      1530.5324       1192.6204
  22245391.2894  -24889610.93547 -19072869.10346  22245389.2124   22245395.8164
     -2007.4214      -1564.2244
  22803583.8584   -9120169.36047  -7080405.29345  22803582.4064   22803588.9654
      2026.5084       1579.0864
  18687097.7884  -41248300.80849 -31852576.04347  18687095.4944   18687100.2024
        73.3334         57.1444
  19365516.2694  -34704578.41949 -26738563.05347  19365513.9134   19365519.5624
      1994.4074       1554.0844
  19163119.7604  -33844844.46249 -25769259.71847  19163117.4504   19163123.6244
      2365.3484       1843.1284
  20456548.5674  -24596594.16948 -18823567.93347  20456546.7814   20456553.3114
      3255.7444       2536.9424
 00  7 15  2 33 59.9940000  0  7G22G25G 4G20G 1G16G19
  19551179.8554  -23107952.33848 -17990506.46447  19551177.1164   19551182.6924
      1514.2214       1179.9104
  22256844.3344  -24829426.18648 -19025971.95946  22256842.3184   22256848.9164
     -2004.3414      -1561.8234
  22792051.6944   -9180772.17147  -7127628.24345  22792049.4994   22792056.2034
      2014.1464       1569.4624
  18686719.8214  -41250286.98449 -31854123.73247  18686717.4794   18686722.1784
        59.6634         46.4914
  19354135.8584  -34764383.85849 -26785164.68747  19354133.4834   19354138.8584
      1993.2534       1553.1834
  19149649.8714  -33915631.97549 -25824418.81047  19149647.2144   19149653.3534
      2354.3964       1834.5954
  20437977.4774  -24694187.07548 -18899614.29247  20437975.4254   20437982.1234
      3251.0154       2533.2564
 00  7 15  2 34 29.9940000  0  7G22G25G 4G20G 1G16G19
  19542619.2174  -23152936.76148 -18025559.23847  19542616.5384   19542622.7064
      1489.0634       1160.3084
  22268314.9844  -24769145.45048 -18979000.02746  22268313.3694   22268320.0824
     -2009.9544      -1566.1964
  22780625.8354   -9240814.05247  -7174414.08245  22780624.2194   22780631.6664
      1992.9294       1552.9254
  18686456.5604  -41251672.23949 -31855203.16847  18686454.0074   18686458.5694
        37.1534         28.9524
  19342798.2814  -34823963.75049 -26831590.56747  19342795.9014   19342801.5544
      1983.2644       1545.4004
  19136279.0174  -33985898.45149 -25879171.90147  19136276.3774   19136281.9834
      2334.4914       1819.0844
  20419469.2244  -24791447.48748 -18975401.57247  20419467.3234   20419473.9174
      3237.4604       2522.6954
 00  7 15  2 34 59.9940000  0  7G22G25G 4G20G 1G16G19
  19534176.9654  -23197302.71648 -18060130.08847  19534174.3644   19534180.2184
      1468.4014       1144.2084
  22279792.1674  -24708831.60047 -18932002.28146  22279790.6284   22279797.5554
     -2011.0534      -1567.0514
  22769295.9274   -9300356.06047  -7220810.46445  22769293.3754   22769301.1324
      1976.1684       1539.8644
  18686295.2084  -41252518.08149 -31855862.28447  18686292.9174   18686297.5474
        19.1134         14.8934
  19331491.4714  -34883379.10549 -26877888.24247  19331489.4674   19331494.6084
      1977.6784       1541.0484
  19122995.0444  -34055703.03349 -25933565.06947  19122992.3924   19122998.4964
      2319.0304       1807.0354
  20401012.7874  -24888436.57548 -19050977.44047  20401010.9374   20401017.3164
      3228.3644       2515.6084
 00  7 15  2 35 29.9940000  0  7G22G25G 4G20G 1G16G19
  19525858.9794  -23241015.46348 -18094191.94747  19525856.1084   19525861.9004
      1451.2544       1130.8464
  22291282.2884  -24648452.24947 -18884953.48346  22291280.1874   22291287.1634
     -2008.5964      -1565.1384
  22758066.2834   -9359363.76947  -7266790.45445  22758064.9174   22758072.5504
      1962.9904       1529.6044
  18686243.6994  -41252791.17249 -31856075.09547  18686241.1144   18686245.7184
         4.6694          3.6384
  19320223.3984  -34942595.79149 -26924031.10847  19320221.0764   19320226.2334
      1975.7034       1539.5084
  19109806.1004  -34125010.37949 -25987570.78247  19109803.7434   19109809.9494
      2307.0364       1797.6904
  20382614.6574  -24985120.34548 -19126315.39547  20382612.4704   20382618.9234
      3222.7774       2511.2544
 00  7 15  2 35 59.9940000  0  7G22G25G 4G20G 1G16G19
  19517649.4814  -23284151.25548 -18127804.23247  19517647.2084   19517653.1164
      1426.6984       1111.7134
  22302769.8084  -24588086.49847 -18837915.30145  22302767.3264   22302774.3474
     -2013.4264      -1568.9004
  22746924.2854   -9417913.88247  -7312413.89445  22746922.6104   22746931.5234
      1942.5024       1513.6384
  18686285.4964  -41252569.50049 -31855902.38447  18686283.1384   18686288.0644
       -17.1344        -13.3494
  19308977.8214  -35001690.92849 -26970079.26047  19308975.6244   19308980.8174
      1966.3224       1532.1994
  19096698.4014  -34193896.28349 -26041248.10047  19096695.6424   19096701.6724
      2287.6794       1782.6084
  20364259.7334  -25081575.62148 -19201475.28747  20364257.6524   20364263.8024
      3209.8584       2501.1864
 00  7 15  2 36 29.9940000  0  7G22G25G 4G20G 1G16G19
  19509568.4044  -23326619.76348 -18160896.55247  19509565.9374   19509571.5944
      1403.9434       1093.9814
  22314270.9964  -24527646.23447 -18790819.06645  22314268.9334   22314275.9584
     -2016.3734      -1571.1974
  22735886.4364   -9475916.50247  -7357610.72445  22735884.5864   22735893.7254
      1923.7244       1499.0014
  18686438.7604  -41251763.79849 -31855274.58847  18686436.5304   18686441.3704
       -37.0464        -28.8674
  19297772.3694  -35060574.38749 -27015962.47347  19297770.2694   19297775.8594
      1958.7144       1526.2714
  19083687.1194  -34262269.15749 -26094525.66447  19083684.5504   19083690.3984
      2270.0004       1768.8314
  20345965.6464  -25177712.36948 -19276386.99247  20345963.4884   20345969.4124
      3198.7234       2492.5114
 00  7 15  2 36 59.9940000  0  7G22G25G 4G20G 1G16G19
  19501615.5504  -23368411.59948 -18193461.59447  19501613.2034   19501619.0964
      1377.0764       1073.0464
  22325788.0894  -24467123.85347 -18743658.84546  22325786.5954   22325792.7424
     -2023.3524      -1576.6374
  22724955.7904   -9533361.70547  -7402373.18845  22724953.7244   22724961.4624
      1900.8294       1481.1664
  18686705.3184  -41250365.25849 -31854184.82847  18686702.6934   18686707.3764
       -61.1344        -47.6374
  19286609.5224  -35119236.45749 -27061673.17247  19286607.2654   19286612.8024
      1947.0684       1517.1974
  19070775.6174  -34330117.98349 -26147394.87347  19070773.1664   19070778.7184
      2248.2594       1751.8914
  20327733.7824  -25273520.94248 -19351042.95347  20327731.5714   20327738.3914
      3183.4824       2480.6324
 00  7 15  2 37 29.9940000  0  8G22G25G 4G27G20G 1G16G19
  19493771.2834  -23409636.88248 -18225585.17247  19493768.4794   19493774.2884
      1362.7224       1061.8614
  22337299.5714  -24406631.31747 -18696521.87145  22337297.4894   22337303.8844
     -2017.8284      -1572.3314
  22714109.4124   -9590359.97147  -7446787.37845  22714107.4234   22714116.3704
      1890.4504       1473.0754
  23343494.4344   -5679674.11657  -4117613.63945  23343492.2714   23343503.4294
      3873.2084       3018.0734
  18687062.5194  -41248485.09149 -31852719.78547  18687060.3014   18687065.2074
       -72.6614        -56.6184
  19275467.8944  -35177787.38149 -27107297.26047  19275465.5974   19275470.9914
      1947.9004       1517.8424
  19057943.5744  -34397552.09949 -26199940.93047  19057940.9974   19057946.6224
      2238.8924       1744.5914
  20309542.9024  -25369111.79348 -19425529.25347  20309540.8684   20309547.9384
      3180.7634       2478.5144
 00  7 15  2 37 59.9940000  0  8G22G25G 4G27G20G 1G16G19
  19486057.7824  -23450168.74648 -18257168.42147  19486055.2694   19486060.7954
      1339.5014       1043.7664
  22348828.9494  -24346044.61747 -18649311.50845  22348826.6544   22348833.4214
     -2021.0084      -1574.8134
  22703371.2834   -9646784.87347  -7490754.80945  22703369.7694   22703377.0634
      1871.2874       1458.1474
  23321400.1954   -5795778.51047  -4208084.21945  23321397.4034   23321409.4034
      3867.3124       3013.4774
  18687536.1084  -41245998.22849 -31850781.98747  18687533.7324   18687538.4114
       -92.9034        -72.3924
  19264370.6654  -35236101.04949 -27152736.47347  19264368.8454   19264374.3784
      1939.9074       1511.6154
  19045214.3754  -34464443.72649 -26252064.26247  19045211.8884   19045217.7054
      2220.7734       1730.4714
  20291418.0664  -25464358.75248 -19499747.61447  20291416.0944   20291422.7944
      3169.2394       2469.5364
 00  7 15  2 38 29.9940000  0  8G22G25G 4G27G20G 1G16G19
  19478468.7964  -23490049.31548 -18288244.16847  19478466.3734   19478471.8364
      1322.2384       1030.3154
  22360367.8684  -24285408.44247 -18602062.60845  22360365.6924   22360372.4984
     -2018.1984      -1572.6204
  22692735.8074   -9702678.93247  -7534308.61045  22692734.7454   22692740.3974
      1858.0674       1447.8414
  23299330.6814   -5911751.04447  -4298452.05945  23299328.5554   23299340.8584
      3867.3634       3013.5174
  18688116.9414  -41242947.69249 -31848404.96547  18688114.2514   18688118.9354
      -107.2644        -83.5814
  19253311.1184  -35294220.06549 -27198024.00647  19253308.7364   19253314.9084
      1937.8794       1510.0364
  19032580.5234  -34530834.12749 -26303797.03847  19032578.1114   19032584.0274
      2208.4534       1720.8704
  20273350.6124  -25559304.38648 -19573731.16947  20273348.5314   20273355.1334
      3163.6414       2465.1724
 00  7 15  2 38 59.9940000  0  8G22G25G 4G27G20G 1G16G19
  19471002.1044  -23529288.13848 -18318819.85147  19470999.6694   19471005.1354
      1297.4204       1010.9764
  22371913.8674  -24224734.01747 -18554783.88645  22371911.1194   22371918.5794
     -2022.8874      -1576.2714
  22682197.4014   -9758051.53447  -7577456.10745  22682196.1084   22682202.6284
      1837.2264       1431.6054
  23277284.2444   -6027600.79947  -4388724.26145  23277282.4724   23277294.6974
      3859.8724       3007.6804
  18688802.2244  -41239344.17149 -31845597.04647  18688799.8824   18688804.6814
      -129.1144       -100.6074
  19242286.4164  -35352153.83149 -27243167.19247  19242284.1984   19242290.3004
      1928.2434       1502.5274
  19020040.3224  -34596731.25949 -26355145.44547  19020038.0164   19020043.9944
      2188.5554       1705.3674
  20255338.3654  -25653958.12548 -19647487.27147  20255336.3874   20255342.8534
      3150.4694       2454.9094
 00  7 15  2 39 29.9940000  0  8G22G25G 4G27G20G 1G16G19
  19463648.6554  -23567931.52048 -18348931.55547  19463645.7984   19463651.7324
      1279.3094        996.8654
  22383458.0934  -24164069.74347 -18507513.10745  22383455.9034   22383462.6794
     -2020.7834      -1574.6294
  22671752.2794   -9812948.98047  -7620233.33445  22671749.8244   22671756.5814
      1823.1404       1420.6274
  23255252.9694   -6143373.71147  -4478936.55545  23255250.9664   23255263.0184
      3858.9424       3006.9544
  18689584.2404  -41235234.71449 -31842394.89147  18689581.8684   18689586.9144
      -144.2474       -112.4014
  19231288.9424  -35409948.39749 -27288201.91147  19231286.6944   19231292.1794
      1925.3474       1500.2704
  19007586.1064  -34662180.37749 -26406144.75847  19007583.7834   19007589.4354
      2175.3464       1695.0734
  20237373.1184  -25748366.27548 -19721052.00747  20237371.1664   20237377.5264
      3143.9994       2449.8684
 00  7 15  2 39 59.9940000  0  8G22G25G 4G27G20G 1G16G19
  19456414.5684  -23605944.56648 -18378552.09147  19456412.3154   19456418.1314
      1256.5084        979.0964
  22395006.7564  -24103382.40447 -18460224.37045  22395004.2724   22395011.1444
     -2023.3324      -1576.6214
  22661402.2424   -9867336.53747  -7662613.23045  22661400.6034   22661407.7454
      1804.3384       1405.9824
  23233243.0244   -6259034.90947  -4569061.79445  23233241.8054   23233253.7914
      3853.5194       3002.7314
  18690469.1764  -41230585.52349 -31838772.16947  18690466.6124   18690471.5424
      -163.9554       -127.7574
  19220324.1304  -35467569.19249 -27333101.22847  19220321.9554   19220327.2044
      1917.7654       1494.3634
  18995223.7314  -34727144.97749 -26456766.51747  18995221.3264   18995227.5954
      2157.4014       1681.0904
  20219461.5124  -25842494.32148 -19794398.48747  20219459.3094   20219465.7694
      3132.9044       2441.2214
 00  7 15  2 40 29.9940000  0  8G22G25G 4G27G20G 1G16G19
  19449307.2244  -23643296.93748 -18407657.80647  19449304.3664   19449310.3634
      1237.3484        964.1674
  22406564.3284  -24042644.22647 -18412896.01445  22406562.3034   22406569.3954
     -2022.0724      -1575.6424
  22651155.2324   -9921184.52047  -7704572.66745  22651153.2924   22651160.9004
      1789.2044       1394.1824
  23211260.2784   -6374554.41647  -4659076.64945  23211258.5554   23211271.2674
      3851.6734       3001.3024
  18691461.7344  -41225367.72949 -31834706.37247  18691459.4284   18691464.5064
      -180.0644       -140.3104
  19209397.9264  -35524986.16949 -27377841.72147  19209395.9264   19209401.1234
      1913.8514       1491.3124
  18982959.1534  -34791594.64449 -26506987.02747  18982956.8694   18982962.9604
      2143.0254       1669.8904
  20201608.4244  -25936312.58748 -19867503.55847  20201606.0814   20201612.7004
      3125.4614       2435.4234
 00  7 15  2 40 59.9940000  0  8G22G25G 4G27G20G 1G16G19
  19442311.5694  -23680055.47148 -18436300.80547  19442308.9584   19442315.0914
      1213.0994        945.2714
  22418118.3184  -23981923.67747 -18365581.36045  22418117.0764   22418124.1644
     -2025.9164      -1578.6354
  22640997.1684   -9974559.91147  -7746163.87245  22640995.9504   22641003.8974
      1768.9674       1378.4144
  23189292.4594   -6489999.18047  -4749033.27245  23189289.9954   23189302.5404
      3844.7004       2995.8604
  18692550.3444  -41219649.53049 -31830250.65047  18692547.9544   18692552.7204
      -201.2074       -156.7844
  19198497.9424  -35582266.20849 -27422475.50747  19198495.6704   19198501.4594
      1904.8494       1484.2974
  18970780.2684  -34855594.60549 -26556857.12747  18970777.9184   18970784.2724
      2123.5684       1654.7284
  20183801.3674  -26029888.07348 -19940419.45447  20183799.3844   20183805.4864
      3112.8914       2425.6274
 00  7 15  2 41 29.9940000  0  8G22G25G 4G27G20G 1G16G19
  19435447.8244  -23716122.95048 -18464405.31547  19435445.7854   19435451.6304
      1186.5764        924.6054
  22429688.6174  -23921125.33047 -18318206.08645  22429686.6594   22429693.0424
     -2032.0074      -1583.3784
  22630949.9924  -10027365.26847  -7787310.88745  22630948.3914   22630954.9014
      1746.5454       1360.9434
  23167356.1284   -6605271.13047  -4838855.24845  23167354.0814   23167365.9124
      3835.3984       2988.6104
  18693751.7854  -41213334.24849 -31825329.67147  18693749.3564   18693754.5654
      -224.5734       -174.9924
  19187642.2724  -35639311.65249 -27466926.49247  19187639.9894   19187645.8084
      1893.5064       1475.4594
  18958706.1024  -34919046.21849 -26606299.93547  18958703.7004   18958710.0744
      2101.7964       1637.7624
  20166059.3784  -26123123.34048 -20013070.27147  20166057.1724   20166062.9944
      3098.0534       2414.0664
 00  7 15  2 41 59.9940000  0  8G22G25G 4G27G20G 1G16G19
  19428716.5644  -23751500.01948 -18491971.84047  19428713.8724   19428719.5894
      1171.0284        912.4894
  22441272.4284  -23860251.56347 -18270772.01645  22441270.7454   22441277.0544
     -2027.0394      -1579.5104
  22621010.6944  -10079601.10147  -7828014.13345  22621008.7724   22621015.6694
      1734.9824       1351.9374
  23145451.8574   -6720370.49047  -4928542.75145  23145450.5464   23145463.2764
      3837.0984       2989.9294
  18695066.9024  -41206423.51049 -31819944.69847  18695064.5394   18695069.2864
      -236.9564       -184.6424
  19176831.3234  -35696122.93649 -27511195.02247  19176829.2154   19176834.8084
      1893.1534       1475.1844
  18946736.1114  -34981948.73549 -26655314.87947  18946733.5924   18946740.2164
      2090.9404       1629.3044
  20148382.0484  -26216018.81748 -20085456.30447  20148379.8534   20148386.1544
      3094.1664       2411.0374
 00  7 15  2 42 29.9940000  0  8G22G25G 4G27G20G 1G16G19
  19422089.3394  -23786325.85248 -18519108.83447  19422086.5524   19422092.3754
      1147.3824        894.0624
  22452844.1814  -23799443.41647 -18223389.10345  22452842.3034   22452849.1734
     -2030.0214      -1581.8364
  22611151.0844  -10131406.79447  -7868382.21445  22611149.4324   22611157.1874
      1715.3844       1336.6674
  23123556.1994   -6835436.36147  -5018204.13345  23123554.0734   23123566.3194
      3830.6944       2984.9514
  18696468.3034  -41199057.70849 -31814205.13147  18696466.1104   18696470.9864
      -257.3174       -200.5064
  19166038.6464  -35752839.42149 -27555389.68347  19166036.3434   19166041.8664
      1884.7564       1468.6414
  18934844.5594  -35044440.47249 -26704009.73547  18934841.9714   18934848.6304
      2071.9684       1614.5214
  20130741.9364  -26308713.99248 -20157686.25947  20130740.0424   20130746.5464
      3082.2704       2401.7674
 00  7 15  2 42 59.9940000  0  8G22G25G 4G27G20G 1G16G19
  19415599.8964  -23820428.38948 -18545682.22147  19415597.2834   19415602.7764
      1132.4904        882.4614
  22464435.0424  -23738531.25147 -18175925.14345  22464433.3534   22464440.0444
     -2024.3074      -1577.3804
  22601407.3054  -10182610.95847  -7908281.56345  22601405.5854   22601412.9674
      1704.5994       1328.2614
  23101698.6754   -6950296.62247  -5107705.32345  23101697.0574   23101707.9804
      3833.0174       2986.7534
  18697989.5904  -41191066.07549 -31807977.91147  18697987.0064   18697991.9864
      -268.9784       -209.5914
  19155296.0414  -35809289.19749 -27599376.51747  19155294.1994   19155299.8154
      1885.0394       1468.8614
  18923063.8784  -35106348.25549 -26752249.55847  18923061.4074   18923067.6674
      2061.6814       1606.5044
  20113173.5074  -26401037.38248 -20229626.51247  20113171.6484   20113178.2394
      3079.1034       2399.3004
 00  7 15  2 43 29.9940000  0  8G22G25G 4G27G20G 1G16G19
  19409218.3074  -23853963.43648 -18571813.40747  19409215.6964   19409221.3634
      1104.5914        860.7194
  22476016.4304  -23677672.38147 -18128502.69645  22476014.5744   22476021.8164
     -2031.4434      -1582.9414
  22591748.1094  -10233369.46847  -7947833.64245  22591746.5904   22591755.1014
      1680.7394       1309.6614
  23079851.6304   -7065107.08147  -5197167.70745  23079849.0374   23079859.9244
      3822.4164       2978.4964
  18699599.2064  -41182605.76149 -31801385.48647  18699596.8254   18699602.0114
      -293.5804       -228.7624
  19144575.9234  -35865628.21149 -27643277.03547  19144573.5814   19144579.1114
      1872.3704       1458.9894
  18911364.9994  -35167826.62749 -26800154.77347  18911362.3854   18911368.8714
      2038.3644       1588.3374
  20095646.4404  -26493144.94448 -20301398.58347  20095644.3914   20095650.7854
      3062.8864       2386.6634
 00  7 15  2 43 59.9940000  0  8G22G25G 4G27G20G 1G16G19
  19402963.1164  -23886835.10748 -18597427.68347  19402960.3554   19402966.0604
      1079.9984        841.5564
  22487605.4964  -23616772.19947 -18081048.07345  22487603.3564   22487610.4614
     -2035.2454      -1585.9014
  22582192.1574  -10283586.26647  -7986963.60845  22582190.2944   22582198.0944
      1660.2264       1293.6844
  23058030.1044   -7179771.19447  -5286516.05745  23058028.7784   23058040.7964
      3815.1104       2972.8014
  18701316.9044  -41173581.40149 -31794353.53947  18701314.4274   18701319.1324
      -314.7974       -245.2964
  19133894.6184  -35921759.74849 -27687015.88547  19133892.3174   19133897.6074
      1863.0024       1451.6894
  18899765.8234  -35228778.28049 -26847649.56147  18899763.3544   18899769.9354
      2018.3144       1572.7124
  20078178.2464  -26584940.50448 -20372927.54047  20078176.1964   20078182.3604
      3050.0404       2376.6534
 00  7 15  2 44 29.9940000  0  8G22G25G 4G27G20G 1G16G19
  19396844.6784  -23918985.60048 -18622480.00447  19396842.3214   19396848.0744
      1062.1864        827.6764
  22499212.7894  -23555774.63647 -18033517.58445  22499211.3404   22499218.1244
     -2032.2994      -1583.6074
  22572750.6504  -10333203.16647  -8025626.12045  22572748.5704   22572755.8234
      1646.4014       1282.9084
  23036249.3814   -7294230.44947  -5375704.80245  23036247.5024   23036259.1884
      3814.4754       2972.3104
  18703152.3834  -41163935.97349 -31786837.64147  18703149.8054   18703154.6454
      -329.2974       -256.5944
  19123263.6784  -35977625.80049 -27730547.86747  19123261.3654   19123266.8854
      1860.3594       1449.6304
  18888278.5474  -35289143.89749 -26894687.69747  18888276.2834   18888282.2664
      2004.9554       1562.3044
  20060780.6384  -26676365.83948 -20444168.02047  20060778.4674   20060784.5344
      3043.9004       2371.8684
 00  7 15  2 44 59.9940000  0  8G22G25G 4G27G20G 1G16G19
  19390835.8374  -23950564.41348 -18647086.86247  19390832.9224   19390838.5834
      1041.3794        811.4634
  22510811.4964  -23494831.08647 -17986029.16245  22510808.6154   22510815.2414
     -2032.2134      -1583.5344
  22563394.0764  -10382370.05347  -8063937.98445  22563392.6604   22563400.1324
      1629.6574       1269.8594
  23014479.3634   -7408634.48547  -5464850.55945  23014477.2534   23014488.6534
      3810.8844       2969.5104
  18705076.9674  -41153820.24249 -31778955.27647  18705074.5414   18705079.6734
      -346.6644       -270.1274
  19112654.3564  -36033375.85949 -27773989.46947  19112652.2514   19112657.9944
      1854.7414       1445.2534
  18876875.1754  -35349071.44349 -26941384.47947  18876872.5794   18876878.6474
      1988.6474       1549.5954
  20043424.3854  -26767570.95048 -20515236.88947  20043422.4164   20043428.6934
      3034.8374       2364.8064
 00  7 15  2 45 29.9940000  0  8G22G25G 4G27G20G 1G16G19
  19384946.5904  -23981511.18048 -18671201.21647  19384944.0134   19384949.5494
      1024.3774        798.2154
  22522409.5424  -23433882.94647 -17938537.18145  22522406.6394   22522413.7754
     -2028.2824      -1580.4734
  22554135.5084  -10431027.18347  -8101852.61645  22554134.4964   22554141.1184
      1616.7414       1259.8044
  22992731.3094   -7522922.71547  -5553906.06045  22992728.9774   22992740.0624
      3811.0774       2969.6604
  18707102.8034  -41143175.30049 -31770660.53947  18707100.4364   18707105.5164
      -360.2714       -280.7314
  19102078.7404  -36088949.25649 -27817293.40947  19102076.7704   19102082.6064
      1852.8714       1443.7954
  18865566.2324  -35408500.40349 -26987692.75447  18865563.6374   18865569.8024
      1976.0334       1539.7664
  20026121.8844  -26858495.56148 -20586087.19147  20026120.0104   20026126.2014
      3029.4834       2360.6344
 00  7 15  2 45 59.9940000  0  8G22G25G 4G27G20G 1G16G19
  19379189.4364  -24011762.91348 -18694773.98147  19379186.8424   19379192.8964
       997.5884        777.3414
  22534019.8924  -23372868.75947 -17890993.72045  22534017.2974   22534024.3814
     -2034.0284      -1584.9604
  22544985.9134  -10479111.50747  -8139320.91045  22544984.0554   22544991.1374
      1594.0434       1242.1104
  22971016.4074   -7637031.71747  -5642821.92145  22971013.9174   22971025.2884
      3801.3904       2962.1164
  18709241.5034  -41131939.18049 -31761905.14547  18709238.6844   18709243.6144
      -383.5774       -298.8894
  19091549.4834  -36144282.87449 -27860410.51147  19091547.3754   19091552.9064
      1841.2724       1434.7574
  18854364.1854  -35467366.03149 -27033562.06847  18854361.7714   18854367.9104
      1953.5654       1522.2584
  20008885.0054  -26949076.55248 -20656669.72247  20008883.0224   20008888.9684
      3014.4224       2348.8994
 00  7 15  2 46 29.9940000  0  8G22G25G 4G27G20G 1G16G19
  19373545.4624  -24041424.68648 -18717887.03647  19373542.9224   19373548.4614
       979.0614        762.9044
  22545622.8724  -23311894.80947 -17843481.60245  22545620.3414   22545627.1324
     -2031.5504      -1583.0204
  22535924.0604  -10526727.65947  -8176424.40445  22535922.0004   22535930.0444
      1579.5144       1230.7944
  22949316.5034   -7751065.73847  -5731679.36445  22949314.1734   22949325.0224
      3800.1304       2961.1334
  18711471.4984  -41120217.54549 -31752771.42647  18711469.3114   18711474.4274
      -398.5644       -310.5684
  19081045.8614  -36199480.96549 -27903422.00347  19081043.6934   19081049.1444
      1837.8944       1432.1264
  18843250.2694  -35525771.19149 -27079072.57447  18843247.8234   18843253.6064
      1939.4134       1511.2314
  19991693.6174  -27039418.47948 -20727065.97847  19991691.6414   19991697.5354
      3007.6324       2343.6094
 00  7 15  2 46 59.9940000  0  8G22G25G 4G27G20G 1G16G19
  19368039.5774  -24070360.53248 -18740434.43147  19368036.7234   19368042.0084
       957.6394        746.2114
  22557243.1874  -23250826.28347 -17795895.77245  22557240.9994   22557248.5534
     -2031.8914      -1583.2904
  22526978.1324  -10573739.68847  -8213057.14145  22526976.3834   22526984.3124
      1562.2414       1217.3264
  22927657.4134   -7864888.19747  -5820371.94845  22927654.9524   22927664.1214
      3795.8324       2957.7894
  18713820.4084  -41107875.02149 -31743153.89947  18713817.9704   18713822.8644
      -416.4584       -324.5114
  19070594.1894  -36254406.88549 -27946221.41147  19070591.8234   19070597.0584
      1831.5914       1427.2144
  18832249.7604  -35583579.34849 -27124117.88247  18832247.4394   18832253.1974
      1922.2454       1497.8534
  19974573.2894  -27129385.09848 -20797169.78947  19974571.4484   19974577.6634
      2997.9014       2336.0254
 00  7 15  2 47 29.9940000  0  8G22G25G 4G27G20G 1G16G19
  19362633.4534  -24098767.99048 -18762570.09847  19362631.0124   19362636.4074
       934.2474        727.9844
  22568843.0614  -23189862.80947 -17748391.81945  22568842.0134   22568848.9604
     -2034.1124      -1585.0184
  22518109.7224  -10620345.50147  -8249373.34545  22518107.3734   22518115.2604
      1542.8724       1202.2364
  22905999.0904   -7978696.56947  -5909053.56445  22905996.7034   22906007.9634
      3789.5964       2952.9214
  18716249.5274  -41095110.67749 -31733207.68647  18716247.0614   18716251.7414
      -436.3284       -339.9944
  19060155.9754  -36309258.21149 -27988962.69747  19060153.7944   19060158.9844
      1823.3284       1420.7764
  18821325.7884  -35640986.41049 -27168850.65147  18821323.3694   18821328.8114
      1903.0644       1482.9064
  19957487.4074  -27219174.38848 -20867135.42747  19957485.2634   19957490.7894
      2986.1864       2326.8974
 00  7 15  2 47 59.9940000  0  8G22G25G 4G27G20G 1G16G19
  19357349.0714  -24126538.02848 -18784209.08347  19357346.5034   19357351.8064
       915.7264        713.5534
  22580444.4294  -23128896.76247 -17700885.86845  22580443.6334   22580450.8734
     -2031.4824      -1582.9714
  22509337.9194  -10666436.24447  -8285288.20545  22509336.4874   22509344.3884
      1528.4094       1190.9664
  22884364.8674   -8092381.54247  -5997639.04245  22884363.7234   22884374.2054
      3788.2114       2951.8484
  18718779.2164  -41081816.57549 -31722848.67347  18718776.7764   18718781.7304
      -451.2354       -351.6124
  19049753.0014  -36363925.75349 -28031560.78047  19049750.7354   19049756.2094
      1819.9154       1418.1144
  18810498.9084  -35697882.23949 -27213185.05947  18810496.2864   18810501.7974
      1888.7144       1471.7254
  19940455.4714  -27308677.25048 -20936877.87047  19940453.3314   19940459.1084
      2979.3744       2321.5884
 00  7 15  2 48 29.9940000  0  8G22G25G 4G27G20G 1G16G19
  19352190.2334  -24153646.93248 -18805332.89647  19352187.6014   19352193.0004
       891.3294        694.5414
  22592051.0414  -23067905.85147 -17653360.54645  22592049.7444   22592056.5614
     -2034.6304      -1585.4214
  22500670.1314  -10711988.35947  -8320783.33545  22500668.3934   22500676.2774
      1508.1104       1175.1504
  22862759.9594   -8205918.78047  -6086109.40445  22862757.9984   22862768.9684
      3780.8794       2946.1334
  18721414.0334  -41067970.13649 -31712059.26747  18721411.5664   18721416.6534
      -471.9914       -367.7844
  19039389.7384  -36418384.97949 -28073996.53147  19039387.6064   19039393.1084
      1810.5884       1410.8484
  18799774.0334  -35754241.93649 -27257101.70047  18799771.5294   18799777.1234
      1868.4764       1455.9554
  19923482.6934  -27397869.95248 -21006378.63147  19923480.7164   19923485.8874
      2966.6934       2311.7094
 00  7 15  2 48 59.9940000  0  8G22G25G 4G27G20G 1G16G19
  19347174.3404  -24180005.50548 -18825872.02947  19347171.6134   19347177.3154
       868.3754        676.6554
  22603679.0034  -23006802.23847 -17605747.41545  22603677.8924   22603684.3024
     -2036.3324      -1586.7474
  22492121.4984  -10756912.14647  -8355788.88045  22492119.5044   22492126.4784
      1489.2804       1160.4724
  22841199.8744   -8319218.24947  -6174394.50145  22841197.8024   22841208.1854
      3774.9954       2941.5494
  18724170.8564  -41053482.54649 -31700770.27047  18724168.4274   18724173.2334
      -491.2864       -382.8184
  19029083.1894  -36472545.81649 -28116199.77247  19029081.0384   19029086.6174
      1802.6864       1404.6904
  18789168.3394  -35809974.13049 -27300529.37647  18789165.9074   18789171.4754
      1849.5714       1441.2234
  19906585.9484  -27486662.73548 -21075567.78147  19906583.9364   19906589.0394
      2955.3964       2302.9054
 00  7 15  2 49 29.9940000  0  8G22G25G 4G27G20G 1G16G19
  19342270.9764  -24205770.24948 -18845948.44047  19342268.8554   19342274.3234
       849.9484        662.2954
  22615298.2034  -22945743.07147 -17558168.90745  22615296.9954   22615303.6974
     -2033.4814      -1584.5254
  22483662.6684  -10801364.16547  -8390426.80145  22483661.6974   22483667.5914
      1474.8654       1149.2484
  22819655.4734   -8432435.60547  -6262615.63545  22819653.6544   22819663.2514
      3773.6184       2940.4754
  18727019.9664  -41038511.17549 -31689104.29547  18727017.6694   18727022.3734
      -506.0574       -394.3304
  19018803.9414  -36526564.30549 -28158292.08947  19018801.8384   19018806.9864
      1799.2904       1402.0444
  18778652.3934  -35865234.03049 -27343589.02947  18778650.0664   18778655.6714
      1835.1664       1429.9994
  19889735.4854  -27575211.75848 -21144566.97647  19889733.3594   19889739.0924
      2948.5774       2297.5914
 00  7 15  2 49 59.9940000  0  8G22G25G 4G27G20G 1G16G19
  19337509.6154  -24230794.15448 -18865447.57547  19337506.8204   19337512.7774
       822.2294        640.6994
  22626937.3444  -22884582.89047 -17510511.66145  22626935.2914   22626942.1564
     -2039.8104      -1589.4624
  22475321.6464  -10845197.59047  -8424582.69945  22475319.3454   22475326.2104
      1451.2934       1130.8764
  22798154.9834   -8545423.55047  -6350658.01445  22798152.2774   22798162.5504
      3763.0124       2932.2104
  18729988.9164  -41022910.42949 -31676947.90147  18729986.4184   18729991.0384
      -529.9694       -412.9614
  19008579.7704  -36580293.06249 -28200158.63847  19008577.6644   19008582.7194
      1786.6714       1392.2094
  18768254.9254  -35919873.63149 -27386165.33547  18768252.5124   18768258.3424
      1811.5144       1411.5694
  19872959.6154  -27663370.18548 -21213261.81147  19872957.4964   19872963.0504
      2932.6344       2285.1694
 00  7 15  2 50 29.9940000  0  8G22G25G 4G27G20G 1G16G19
  19332866.0184  -24255196.33548 -18884462.24747  19332863.4404   19332868.8954
       800.8334        624.0264
  22638571.8484  -22823442.66947 -17462869.98645  22638570.0224   22638577.0194
     -2039.7924      -1589.4504
  22467075.7834  -10888531.69047  -8458349.53345  22467073.6854   22467082.0244
      1433.9104       1117.3354
  22776674.5884   -8658300.77947  -6438614.12645  22776672.0684   22776682.2734
      3758.5514       2928.7344
  18733054.3664  -41006800.48549 -31664394.72747  18733051.8524   18733056.5324
      -547.6114       -426.7084
  18998388.2194  -36633850.69549 -28241891.84347  18998386.0324   18998391.2944
      1780.2494       1387.2064
  18757953.2894  -35974010.58749 -27428349.96447  18757950.8304   18757956.7234
      1794.0424       1397.9554
  19856235.4514  -27751256.85248 -21281744.89647  19856233.2634   19856238.6464
      2922.8694       2277.5594
 00  7 15  2 50 59.9940000  0  8G22G25G 4G27G20G 1G16G19
  19328347.5774  -24278941.74148 -18902965.14747  19328344.8064   19328350.1514
       783.1074        610.2134
  22650207.9284  -22762288.36347 -17415217.34745  22650206.7844   22650213.6224
     -2036.1134      -1586.5794
  22458931.9094  -10931331.69247  -8491700.17545  22458930.2104   22458936.5554
      1420.2814       1106.7174
  22755221.6654   -8771031.68147  -6526456.21445  22755219.4594   22755230.5274
      3757.8114       2928.1604
  18736223.0984  -40990147.14649 -31651418.13147  18736220.7714   18736225.6894
      -561.5624       -437.5794
  18988235.8574  -36687201.48049 -28283463.87347  18988233.6864   18988239.1184
      1777.5024       1385.0654
  18747754.1334  -36027608.36649 -27470114.46147  18747751.4614   18747757.1404
      1780.1884       1387.1614
  19839569.2304  -27838836.78348 -21349988.96847  19839567.2054   19839573.1054
      2916.7934       2272.8244
 00  7 15  2 51 29.9940000  0  8G22G25G 4G27G20G 1G16G19
  19323946.5514  -24302066.24148 -18920984.22847  19323944.1714   19323950.0914
       763.0824        594.6094
  22661841.7674  -22701156.33047 -17367582.07745  22661840.2714   22661847.2864
     -2034.7174      -1585.4874
  22450880.0934  -10973632.68247  -8524661.97045  22450878.5764   22450886.5664
      1404.2794       1094.2444
  22733790.3374   -8883650.75547  -6614211.16945  22733788.5014   22733800.3354
      3754.7304       2925.7574
  18739488.6564  -40972986.70749 -31638046.39347  18739486.2944   18739491.0034
      -577.8074       -450.2384
  18978115.8034  -36740379.77349 -28324901.49147  18978113.5714   18978119.7014
      1772.3844       1381.0784
  18737650.8864  -36080700.81249 -27511485.18947  18737648.3394   18737654.0984
      1763.9694       1374.5214
  19822955.1534  -27926144.62648 -21418021.02147  19822953.2004   19822958.8954
      2908.3724       2266.2634
 00  7 15  2 51 59.9930000  0  8G22G25G 4G27G20G 1G16G19
  19319685.0384  -24324461.66448 -18938435.19747  19319682.4344   19319688.3124
       738.1204        575.1574
  22673490.9614  -22639942.34747 -17319882.93445  22673488.7324   22673496.0504
     -2038.1624      -1588.1714
  22442946.6694  -11015325.95147  -8557150.24345  22442944.8244   22442952.4864
      1383.3554       1077.9334
  22712402.1784   -8996046.40147  -6701792.02345  22712400.1814   22712411.2454
      3746.6564       2919.4694
  18742871.1664  -40955213.35649 -31624197.05847  18742868.6544   18742873.4444
      -598.9574       -466.7184
  18968049.5174  -36793276.09149 -28366119.38447  18968047.6354   18968053.8064
      1762.3204       1373.2354
  18727664.8414  -36133177.61149 -27552376.19147  18727662.2494   18727668.0574
      1742.7924       1358.0204
  19806413.3964  -28013070.10548 -21485755.12047  19806411.3934   19806417.5124
      2895.0284       2255.8644
 00  7 15  2 52 29.9930000  0  8G22G25G 4G27G20G 1G16G19
  19315518.5104  -24346355.94048 -18955495.66447  19315515.9284   19315521.7464
       715.8704        557.8204
  22685112.5624  -22578870.30247 -17272294.37345  22685110.5194   22685118.0334
     -2038.8924      -1588.7384
  22435084.9584  -11056641.15147  -8589343.91845  22435083.4204   22435090.1944
      1365.2894       1063.8604
  22691012.1234   -9108452.33947  -6789380.89245  22691010.1394   22691020.1804
      3741.4664       2915.4244
  18746326.6324  -40937053.64949 -31610046.67247  18746324.2164   18746329.1474
      -617.2684       -480.9874
  18957994.2584  -36846120.02249 -28407296.45547  18957992.0324   18957997.8564
      1755.0514       1367.5714
  18717752.5124  -36185267.61049 -27592965.79547  18717749.9384   18717755.7614
      1724.3294       1343.6324
  19789900.2834  -28099845.40048 -21553372.19747  19789898.3014   19789904.5144
      2884.4324       2247.6094
 00  7 15  2 52 59.9930000  0  8G22G25G 4G27G20G 1G16G19
  19311488.4424  -24367536.16048 -18971999.72347  19311485.8054   19311491.4994
       695.2024        541.7154
  22696746.4384  -22517731.42547 -17224653.74845  22696745.3634   22696752.4044
     -2037.9124      -1587.9794
  22427335.1394  -11097364.61347  -8621076.50845  22427333.9204   22427341.0504
      1348.7034       1050.9354
  22669662.4294   -9220651.95747  -6876808.98645  22669659.8954   22669668.7064
      3737.7284       2912.5084
  18749895.8744  -40918296.87249 -31595431.03547  18749893.5254   18749898.4964
      -634.0124       -494.0334
  18947989.0324  -36898696.72349 -28448265.30147  18947986.9754   18947992.8774
      1749.2534       1363.0534
  18707954.9474  -36236755.12749 -27633085.93047  18707952.3044   18707958.1044
      1707.3544       1330.4074
  19773457.0044  -28186255.25648 -21620704.52147  19773455.2354   19773461.1044
      2875.3894       2240.5614
 00  7 15  2 53 29.9930000  0  8G22G25G 4G27G20G 1G16G19
  19307577.3734  -24388088.13048 -18988014.23347  19307574.7724   19307580.5834
       679.4344        529.4304
  22708377.2294  -22456612.03547 -17177028.31945  22708375.7154   22708382.5224
     -2032.0594      -1583.4204
  22419682.6314  -11137582.27947  -8652414.97345  22419681.0044   22419687.4524
      1337.0034       1041.8184
  22648334.1984   -9332729.97747  -6964142.34845  22648331.7354   22648340.9214
      3738.8894       2913.4164
  18753562.3404  -40899029.64749 -31580417.64447  18753560.0514   18753564.6624
      -645.8414       -503.2524
  18938019.2264  -36951091.03449 -28489092.02447  18938016.8444   18938022.2514
      1748.3504       1362.3504
  18698254.8294  -36287724.46049 -27672802.28647  18698252.5954   18698258.9354
      1695.1934       1320.9304
  19757067.5524  -28272385.24448 -21687818.75247  19757065.4704   19757071.4144
      2871.2094       2237.3034
 00  7 15  2 53 59.9930000  0  8G22G25G 4G27G20G 1G16G19
  19303795.5884  -24407959.28448 -19003498.24347  19303793.3424   19303799.0794
       651.8444        507.9304
  22720014.3904  -22395460.22147 -17129377.61245  22720013.0214   22720019.7034
     -2038.0474      -1588.0824
  22412134.7554  -11177240.98047  -8683317.86245  22412133.8564   22412141.4474
      1313.4364       1023.4594
  22627039.5044   -9444632.58947  -7051339.03945  22627037.4304   22627046.2514
      3727.9954       2904.9274
  18757335.9464  -40879199.82349 -31564965.86147  18757333.6284   18757338.4434
      -669.4804       -521.6724
  18928093.3834  -37003249.21049 -28529734.74747  18928091.2414   18928096.8744
      1735.5514       1352.3774
  18688665.3684  -36338121.09149 -27712072.37847  18688662.7304   18688668.8154
      1671.2054       1302.2364
  19740740.4604  -28358181.69548 -21754673.09247  19740738.6214   19740744.8774
      2855.1724       2224.8094
 00  7 15  2 54 29.9930000  0  8G22G25G 4G27G20G 1G16G19
  19300136.7284  -24427192.01748 -19018484.78147  19300133.8574   19300139.2614
       628.1414        489.4594
  22731650.0004  -22334319.69247 -17081735.69445  22731647.0294   22731653.1454
     -2040.0844      -1589.6774
  22404688.2474  -11216383.14147  -8713818.27045  22404686.4234   22404692.6854
      1293.8484       1008.1934
  22605770.4564   -9556401.49847  -7138431.54545  22605768.1624   22605777.9854
      3721.2074       2899.6374
  18761208.1164  -40858850.86349 -31549109.56047  18761205.7144   18761210.7364
      -689.2314       -537.0624
  18918204.7754  -37055212.74749 -28570225.80347  18918202.8544   18918208.4354
      1726.6224       1345.4204
  18679176.1384  -36387986.06149 -27750928.19547  18679173.7334   18679179.7794
      1651.0354       1286.5204
  19724469.1934  -28443686.60748 -21821300.26347  19724467.5234   19724474.0494
      2843.0174       2215.3374
 00  7 15  2 54 59.9930000  0  8G22G25G 4G27G20G 1G16G19
  19296595.3234  -24445798.52348 -19032983.35047  19296592.9624   19296598.5424
       613.7574        478.2524
  22743279.8844  -22273203.52347 -17034112.73245  22743277.6164   22743284.0844
     -2032.7694      -1583.9744
  22397334.6864  -11255021.22247  -8743925.87945  22397332.7254   22397340.3324
      1283.4944       1000.1274
  22584524.6494   -9668048.45247  -7225429.01945  22584522.3104   22584531.7824
      3723.5434       2901.4584
  18765176.6694  -40837996.17949 -31532859.19047  18765174.2104   18765179.0284
      -699.5214       -545.0814
  18908351.9354  -37106993.34349 -28610574.30447  18908349.5594   18908355.1504
      1726.9944       1345.7094
  18669786.1424  -36437330.39349 -27789378.31647  18669783.7594   18669790.1454
      1640.1994       1278.0784
  19708252.1714  -28528912.30948 -21887709.86347  19708249.9924   19708256.4134
      2840.2174       2213.1554
 00  7 15  2 55 29.9930000  0  8G22G25G 4G27G20G 1G16G19
  19293170.2614  -24463796.88848 -19047008.04547  19293167.7584   19293173.1774
       584.9034        455.7694
  22754901.4744  -22212130.76647 -16986523.61145  22754899.5814   22754905.3604
     -2039.8684      -1589.5014
  22390074.2014  -11293173.52447  -8773654.96145  22390072.1864   22390080.6444
      1258.7484        980.8454
  22563297.6884   -9779590.90447  -7312345.08545  22563296.4394   22563305.8314
      3711.4524       2892.0364
  18769237.9304  -40816654.81649 -31516229.58947  18769235.6304   18769240.0354
      -724.3414       -564.4204
  18898530.4234  -37158608.15949 -28650793.62847  18898527.8194   18898532.9194
      1712.8784       1334.7094
  18660492.5204  -36486171.10749 -27827436.00947  18660489.7064   18660495.8974
      1614.7744       1258.2644
  19692083.5524  -28613876.23249 -21953915.47247  19692081.5334   19692088.0594
      2822.9114       2199.6684
 00  7 15  2 55 59.9930000  0  8G22G25G 4G27G20G 1G16G19
  19289872.1754  -24481129.45648 -19060513.93947  19289869.6444   19289874.8434
       570.4014        444.4674
  22766526.0464  -22151044.42147 -16938923.90745  22766522.8494   22766530.6964
     -2032.6564      -1583.8894
  22382918.0524  -11330781.99647  -8802960.29145  22382916.0064   22382923.2334
      1248.2604        972.6724
  22542104.2524   -9890969.91547  -7399133.77245  22542102.2744   22542111.4094
      3713.6924       2893.7824
  18773402.4854  -40794769.60849 -31499176.20547  18773400.3154   18773405.0034
      -734.7644       -572.5424
  18888750.4024  -37209998.05149 -28690837.69147  18888748.3794   18888753.7094
      1713.0264       1334.8254
  18651305.7584  -36534447.78949 -27865054.19847  18651303.2024   18651308.7564
      1603.5934       1249.5524
  19675976.6524  -28698519.87349 -22019871.51647  19675974.5534   19675980.8954
      2819.8694       2197.3004
 00  7 15  2 56 29.9930000  0  8G22G25G 4G27G20G 1G16G19
  19286691.4434  -24497845.89648 -19073539.72547  19286688.6044   19286694.0854
       547.5904        426.6934
  22778142.8834  -22089994.35247 -16891352.48945  22778140.8424   22778148.2114
     -2033.7284      -1584.7194
  22375855.0714  -11367895.66347  -8831880.05145  22375854.0504   22375861.0154
      1229.5154        958.0624
  22520930.9574  -10002233.82847  -7485832.78946  22520928.8604   22520938.7574
      3707.5494       2888.9914
  18777661.4054  -40772390.63449 -31481738.07247  18777659.1214   18777663.8384
      -753.5194       -587.1574
  18879005.4824  -37261211.30049 -28730744.10747  18879003.1394   18879008.1684
      1704.8604       1328.4624
  18642216.7294  -36582208.71149 -27902270.50047  18642214.3464   18642220.2874
      1584.0994       1234.3644
  19659920.9744  -28782892.19849 -22085616.15247  19659918.9544   19659925.1124
      2808.5674       2188.4924
