     2.10           OBSERVATION DATA    G (GPS)             RINEX VERSION / TYPE
teqc  2000Feb29     CORS/NGS/NOAA       20000717 00:44:34UTCPGM / RUN BY / DATE
HP-UX 10.20|PA-RISC|cc A.10.32.03|=+|=|                     COMMENT
BIT 2 OF LLI FLAGS DATA COLLECTED UNDER A/S CONDITION       COMMENT
ppt1                                                        MARKER NAME
xxx                                                         MARKER NUMBER
CORS/NGS/NOAA       U.S. Coast Guard                        OBSERVER / AGENCY
05402               ASHTECH   Z-XII3    RD00                REC # / TYPE / VERS
11092               ASH700829.3                             ANT # / TYPE
 -2725252.3748 -4295978.5284  3833958.9631                  APPROX POSITION XYZ 
        0.0000        0.0000        0.0000                  ANTENNA: DELTA H/E/N
     1     1                                                WAVELENGTH FACT L1/2
     7    C1    L1    L2    P1    P2    D1    D2            # / TYPES OF OBSERV
    30.0000                                                 INTERVAL
 SNR is mapped to RINEX snr flag value [1-9]                COMMENT
  L1: 1 -> 1;  90 -> 5; 210 -> 9                            COMMENT
  L2: 1 -> 1; 150 -> 5; 250 -> 9                            COMMENT
teqc windowed: delta = 86400.000 sec                        COMMENT
  2000     7    16     0     6    0.0000000     GPS         TIME OF FIRST OBS
                                                            END OF HEADER
 00  7 16  0  6  0.0000000  0  6G15G20G11G25G 1G21
  23474785.2264  -31115348.02547 -23682737.21145  23474783.5284   23474796.8784
     -2858.9294      -2227.7374
  22600536.4834  -22919532.26848 -17577421.14546  22600533.8464   22600538.7504
      3634.1344       2831.7934
  21014918.3164  -35523221.87649 -27350859.77847  21014916.3474   21014921.4014
       275.4364        214.6254
  20945919.9364  -30539449.87249 -23767753.78247  20945918.1914   20945924.1824
       981.0094        764.4204
  24106965.7864  -11544993.00448  -8680659.32146  24106964.0864   24106973.4334
      3507.2684       2732.9304
  23687205.9184  -36149952.99947 -27818338.88045  23687204.4794   23687221.8404
     -1709.7584      -1332.2714
 00  7 16  0  6 30.0000000  0  7G29G15G20G11G25G 1G21
  23779781.5844  -28571121.77648 -21915697.06646  23779779.7424   23779789.2364
     -1665.6014      -1297.8684
  23491120.5494  -31029504.82047 -23615846.45145  23491118.1534   23491132.4284
     -2863.6764      -2231.4314
  22579802.7094  -23028490.81848 -17662323.88546  22579800.0654   22579804.5184
      3630.0334       2828.5964
  21013402.2194  -35531191.10749 -27357069.58847  21013400.0014   21013405.0484
       256.0604        199.5284
  20940371.9294  -30568605.56549 -23790472.44947  20940369.9624   20940375.9644
       962.9684        750.3634
  24086960.5794  -11650123.92548  -8762579.25146  24086958.4074   24086968.0504
      3501.7104       2728.5974
  23696991.1834  -36098531.38147 -27778270.29345  23696989.4374   23697007.4924
     -1718.0974      -1338.7674
 00  7 16  0  7  0.0000000  0  7G29G15G20G11G25G 1G21
  23789276.6814  -28521230.56447 -21876821.00746  23789274.1064   23789283.5594
     -1667.0974      -1299.0284
  23507465.5274  -30943611.53947 -23548916.70145  23507463.4934   23507477.1374
     -2869.1864      -2235.7214
  22559073.7724  -23137416.10248 -17747200.71646  22559071.7144   22559076.4234
      3625.0044       2824.6784
  21011979.0634  -35538669.99249 -27362897.32247  21011976.8564   21011981.7774
       235.8574        183.7864
  20934909.3914  -30597311.34649 -23812840.56447  20934907.3484   20934913.4424
       944.1134        735.6714
  24066968.8744  -11755178.44648  -8844439.67946  24066966.7754   24066976.7094
      3495.3124       2723.6114
  23706808.7084  -36046951.61647 -27738078.46745  23706805.4404   23706822.8804
     -1727.2074      -1345.8684
 00  7 16  0  7 30.0000000  0  7G29G15G20G11G25G 1G21
  23798780.9114  -28471281.80647 -21837900.22946  23798778.8684   23798789.3304
     -1669.8184      -1301.1384
  23523844.9144  -30857542.59047 -23481850.03745  23523842.3464   23523856.3574
     -2875.7204      -2240.8144
  22538377.9094  -23246177.88648 -17831950.13146  22538375.0384   22538380.0974
      3618.7644       2819.8154
  21010673.2444  -35545531.00949 -27368243.59047  21010671.1454   21010676.1744
       214.5064        167.1484
  20929556.3614  -30625439.30749 -23834758.43047  20929554.8584   20929560.9684
       924.1034        720.0794
  24047017.0464  -11860028.00348  -8926140.38546  24047014.8814   24047023.6204
      3487.6864       2717.6694
  23716676.5224  -35995085.84547 -27697663.79245  23716674.3054   23716692.2904
     -1737.4504      -1353.8444
 00  7 16  0  8  0.0000000  0  7G29G15G20G11G25G 1G21
  23808315.0354  -28421180.51347 -21798860.54646  23808313.2394   23808322.9274
     -1667.2454      -1299.1544
  23540275.2794  -30771205.52547 -23414574.44145  23540272.4204   23540284.8444
     -2877.0404      -2241.8444
  22517730.2884  -23354679.56448 -17916496.87146  22517728.0234   22517732.9004
      3617.6974       2818.9844
  21009502.9704  -35551679.73949 -27373034.81447  21009500.9694   21009506.3244
       198.3744        154.5774
  20924332.1494  -30652894.52249 -23856152.05547  20924330.4554   20924336.3704
       909.2974        708.5414
  24027121.5304  -11964577.25748  -9007607.08646  24027119.5474   24027128.5644
      3485.2754       2715.7894
  23726618.7744  -35942838.89347 -27656952.06345  23726617.6484   23726634.5104
     -1742.6544      -1357.9044
 00  7 16  0  8 30.0000000  0  7G29G15G20G11G25G 1G21
  23817824.5974  -28371209.52147 -21759922.13946  23817822.6694   23817832.1444
     -1667.3524      -1299.2334
  23556700.1564  -30684885.40147 -23347312.03945  23556698.0874   23556711.5594
     -2880.8784      -2244.8344
  22497079.5224  -23463202.07948 -18001059.85546  22497077.0324   22497081.7334
      3613.8424       2815.9824
  21008415.1974  -35557399.22549 -27377491.55947  21008413.1154   21008417.8564
       179.5834        139.9354
  20919181.6274  -30679959.89049 -23877241.90547  20919179.7774   20919185.8834
       891.7634        694.8784
  24007229.9504  -12069108.43748  -9089059.69546  24007227.4254   24007236.3984
      3480.2004       2711.8374
  23736581.1094  -35890493.57847 -27616163.69145  23736578.8334   23736596.2634
     -1750.3954      -1363.9374
 00  7 16  0  9  0.0000000  0  7G29G15G20G11G25G 1G21
  23827354.9924  -28321130.10248 -21720899.29146  23827352.5404   23827362.0694
     -1669.1824      -1300.6524
  23573168.2074  -30598345.14947 -23279878.10845  23573165.1984   23573179.6074
     -2886.3154      -2249.0724
  22476470.1694  -23571504.10648 -18085451.02846  22476467.9564   22476472.6664
      3608.3374       2811.6884
  21007453.6574  -35562450.94149 -27381427.97047  21007451.6024   21007456.5174
       159.1874        124.0434
  20914150.9124  -30706395.69749 -23897841.17147  20914149.0464   20914155.1364
       872.6884        680.0154
  23987386.9544  -12173381.63248  -9170311.27546  23987384.4524   23987393.3714
      3473.4334       2706.5634
  23746606.8074  -35837811.28947 -27575112.74645  23746604.2734   23746622.0184
     -1759.7024      -1371.1944
 00  7 16  0  9 30.0000000  0  7G29G15G20G11G25G 1G21
  23836880.6164  -28271071.04148 -21681892.49946  23836878.4394   23836887.8924
     -1672.6524      -1303.3604
  23589653.8634  -30511715.42347 -23212374.47145  23589651.7824   23589664.5664
     -2893.4044      -2254.5984
  22455879.2054  -23679712.03448 -18169768.90346  22455876.5764   22455880.9874
      3601.0174       2805.9864
  21006594.7784  -35566963.83149 -27384944.52347  21006592.6854   21006597.6374
       137.1264        106.8534
  20909215.5214  -30732330.88349 -23918050.34647  20909213.7324   20909219.9244
       851.8714        663.7944
  23967569.4224  -12277524.58348  -9251461.37646  23967567.0274   23967575.9064
      3464.9384       2699.9434
  23756669.8874  -35784920.54747 -27533899.34945  23756668.3694   23756686.5534
     -1770.8444      -1379.8684
 00  7 16  0 10  0.0000000  0  7G29G15G20G11G25G 1G21
  23846404.8844  -28221017.80948 -21642890.12446  23846403.1204   23846412.8234
     -1662.7484      -1295.6444
  23606158.5654  -30424984.25147 -23144791.78345  23606156.3534   23606170.1074
     -2887.1444      -2249.7234
  22435309.0754  -23787809.35848 -18254000.59046  22435306.5774   22435310.6164
      3606.9964       2810.6474
  21005841.7724  -35570923.65749 -27388030.12247  21005839.5464   21005844.4464
       128.3354        100.0024
  20904378.4474  -30757750.95349 -23937858.10347  20904376.4774   20904382.5504
       844.3514        657.9324
  23947777.8334  -12381522.45148  -9332498.43646  23947775.9994   23947786.0884
      3469.8004       2703.7314
  23766778.3294  -35731806.68247 -27492512.08345  23766775.9894   23766794.1764
     -1768.5574      -1378.0944
 00  7 16  0 10 30.0000000  0  7G29G15G20G11G25G 1G21
  23855916.4904  -28171034.73248 -21603942.37746  23855914.3434   23855924.3354
     -1666.5634      -1298.6234
  23622668.6434  -30338218.02147 -23077181.78745  23622666.2994   23622681.5504
     -2894.4674      -2255.4234
  22414748.0084  -23895858.27948 -18338194.56946  22414745.5894   22414749.8364
      3599.1404       2804.5264
  21005180.8694  -35574395.32849 -27390735.33647  21005178.7334   21005183.6054
       105.9394         82.5504
  20899626.6254  -30782720.13649 -23957314.49247  20899625.0444   20899630.8184
       823.1424        641.4064
  23928003.3864  -12485438.62348  -9413471.82346  23928001.2514   23928011.6534
      3460.8584       2696.7644
  23776916.4914  -35678533.91747 -27451001.05045  23776914.6334   23776931.9964
     -1780.0524      -1387.0394
 00  7 16  0 11  0.0000000  0  7G29G15G20G11G25G 1G21
  23865436.0344  -28121010.33448 -21564962.38146  23865433.9744   23865443.8054
     -1664.6614      -1297.1384
  23639207.5714  -30251307.24247 -23009459.14145  23639205.3964   23639220.5104
     -2895.9294      -2256.5634
  22394217.9374  -24003744.98748 -18422262.14846  22394215.2684   22394219.6124
      3597.0244       2802.8764
  21004634.1754  -35577267.84949 -27392973.67147  21004632.0904   21004637.1924
        89.2674         69.5594
  20894982.2584  -30807126.92049 -23976332.66447  20894980.4444   20894986.2974
       807.7214        629.3904
  23908265.7904  -12589161.07948  -9494294.27246  23908263.7344   23908273.6054
      3457.7014       2694.3044
  23787105.6134  -35624991.19647 -27409279.68845  23787102.3994   23787119.6894
     -1785.7294      -1391.4724
 00  7 16  0 11 30.0000000  0  7G29G15G20G11G25G 1G21
  23874969.0554  -28070914.07047 -21525926.56946  23874967.3684   23874976.9554
     -1671.2674      -1302.2734
  23655778.5694  -30164222.94047 -22941601.27445  23655776.9044   23655792.1134
     -2905.8574      -2264.2964
  22373724.8194  -24111436.38448 -18506177.53446  22373722.1824   22373726.2554
      3586.2454       2794.4784
  21004207.4524  -35579510.23449 -27394720.98347  21004205.4114   21004210.6564
        64.0454         49.9054
  20890450.7824  -30830940.10849 -23994888.28347  20890449.0674   20890454.7444
       783.7294        610.6944
  23888570.8274  -12692657.91348  -9574940.91246  23888568.5964   23888577.6594
      3445.9414       2685.1424
  23797350.5054  -35571147.19147 -27367323.52145  23797349.0814   23797366.8124
     -1799.9944      -1402.5854
 00  7 16  0 12  0.0000000  0  7G29G15G20G11G25G 1G21
  23884499.5714  -28020830.07647 -21486900.41946  23884498.2704   23884508.1934
     -1671.2584      -1302.2694
  23672366.6204  -30077052.00047 -22873675.90045  23672364.3644   23672379.8434
     -2909.1094      -2266.8384
  22353252.9844  -24219014.50448 -18590004.65546  22353250.4744   22353255.2584
      3582.0134       2791.1794
  21003884.2524  -35581207.66549 -27396043.64947  21003882.1324   21003887.5914
        45.4634         35.4264
  20886015.9094  -30854244.36249 -24013047.33047  20886014.1404   20886019.7894
       766.3564        597.1574
  23868903.1874  -12796012.89548  -9655477.02646  23868900.7814   23868910.1954
      3440.8084       2681.1414
  23807639.9694  -35517086.17447 -27325198.22045  23807637.0034   23807654.1434
     -1807.6324      -1408.5474
 00  7 16  0 12 30.0000000  0  7G29G15G20G11G25G 1G21
  23894048.7134  -27970649.16547 -21447798.42746  23894046.9314   23894056.8914
     -1671.1044      -1302.1604
  23688990.4084  -29989687.78747 -22805599.91445  23688988.7154   23689004.2784
     -2912.2364      -2269.2704
  22332823.9284  -24326368.75048 -18673657.32646  22332821.7774   22332826.4304
      3577.8584       2787.9424
  21003685.5514  -35582252.19249 -27396857.55247  21003683.4674   21003688.7244
        27.0744         21.0964
  20881698.8294  -30876931.48849 -24030725.49447  20881696.8754   20881702.5074
       749.1204        583.7254
  23849283.2064  -12899116.88948  -9735817.58146  23849280.9084   23849289.6574
      3435.7724       2677.2214
  23817988.0164  -35462700.07147 -27282819.57545  23817984.9634   23818004.3494
     -1815.1844      -1414.4244
 00  7 16  0 13  0.0000000  0  7G29G15G20G11G25G 1G21
  23903576.6524  -27920586.63547 -21408788.54846  23903574.0824   23903583.8404
     -1669.8734      -1301.2064
  23705610.4534  -29902347.33947 -22737542.42845  23705608.8474   23705625.1864
     -2913.9984      -2270.6514
  22312397.8744  -24433712.05648 -18757301.45546  22312395.2874   22312399.9664
      3574.8464       2785.5944
  21003570.0494  -35582859.42349 -27397330.70247  21003567.8964   21003573.2834
         9.8454          7.6724
  20877458.1534  -30899216.10049 -24048089.99247  20877456.3174   20877462.1224
       733.0504        571.2044
  23829669.2174  -13002184.07748  -9816129.46446  23829667.4164   23829676.5904
      3431.8904       2674.1924
  23828358.8504  -35408203.44847 -27240354.82445  23828356.1784   23828374.8864
     -1821.4414      -1419.2964
 00  7 16  0 13 30.0000000  0  7G29G15G20G11G25G 1G21
  23913113.9574  -27870463.70647 -21369731.54445  23913111.6224   23913121.7894
     -1675.2594      -1305.4064
  23722260.4984  -29814853.89247 -22669365.71645  23722258.9884   23722274.3854
     -2922.4384      -2277.2294
  22292007.6664  -24540863.31448 -18840795.92946  22292005.2134   22292010.0104
      3564.9774       2777.9044
  21003571.5434  -35582850.66349 -27397323.86547  21003569.4154   21003574.9314
       -14.0754        -10.9694
  20873327.5004  -30920919.08049 -24065001.27447  20873325.8534   20873331.6904
       710.2484        553.4354
  23810098.3214  -13105034.72948  -9896272.60746  23810095.7544   23810104.1984
      3421.2624       2665.9084
  23838783.4964  -35353417.51847 -27197664.64545  23838781.6484   23838800.0094
     -1834.4504      -1429.4394
 00  7 16  0 14  0.0000000  0  7G29G15G20G11G25G 1G21
  23922635.4084  -27820427.46847 -21330742.07245  23922633.0464   23922643.2214
     -1665.7204      -1297.9744
  23738911.8274  -29727356.75947 -22601186.13845  23738909.1904   23738924.6734
     -2915.9214      -2272.1404
  22271625.7344  -24647967.17348 -18924253.47246  22271623.5384   22271628.4344
      3570.0194       2781.8324
  21003662.2234  -35582373.64449 -27396952.15347  21003660.3094   21003665.5264
       -23.0194        -17.9374
  20869280.3614  -30942188.07049 -24081574.37947  20869278.6014   20869284.3074
       702.4424        547.3534
  23790539.1754  -13207815.40348  -9976361.23546  23790536.9464   23790545.2044
      3425.5474       2669.2524
  23849236.2744  -35298489.56947 -27154863.77445  23849235.0264   23849252.7434
     -1832.5924      -1427.9884
 00  7 16  0 14 30.0000000  0  7G29G15G20G11G25G 1G21
  23932168.2234  -27770332.73147 -21291706.95745  23932165.9814   23932175.2074
     -1672.0734      -1302.9204
  23755589.0454  -29639713.04947 -22532892.34845  23755587.6294   23755602.8274
     -2925.1964      -2279.3694
  22251281.8324  -24754876.45848 -19007559.39246  22251279.4404   22251284.3024
      3559.0794       2773.3084
  21003870.0104  -35581283.99349 -27396103.06047  21003867.7394   21003873.1584
       -47.8724        -37.3034
  20865343.2524  -30962877.76249 -24097696.11347  20865341.4284   20865347.4124
       678.7134        528.8644
  23771021.4594  -13310380.30248 -10056281.72946  23771019.1944   23771027.3114
      3413.9364       2660.2014
  23859744.6974  -35243274.86847 -27111839.44745  23859742.7644   23859760.1884
     -1846.6034      -1438.9034
 00  7 16  0 15  0.0000000  0  7G29G15G20G11G25G 1G21
  23941698.6264  -27720249.52347 -21252680.89345  23941696.8304   23941706.2644
     -1671.0504      -1302.1254
  23772281.4774  -29551994.43547 -22464540.18345  23772279.5254   23772294.9444
     -2926.9444      -2280.7274
  22230961.8404  -24861658.63848 -19090766.26946  22230959.6044   22230964.0294
      3555.4974       2770.5174
  21004180.4374  -35579651.74949 -27394831.16847  21004178.3444   21004184.0424
       -65.2544        -50.8484
  20861503.2984  -30983057.82049 -24113420.76447  20861501.4314   20861507.2344
       662.4004        516.1544
  23751531.8214  -13412798.19648 -10136087.67046  23751529.6474   23751538.2504
      3409.6824       2656.8884
  23870292.4024  -35187842.73947 -27068645.68145  23870289.6914   23870308.0764
     -1853.1464      -1444.0054
 00  7 16  0 15 30.0000000  0  7G29G15G20G11G25G 1G21
  23951249.9324  -27670056.34747 -21213569.17945  23951247.4274   23951257.4694
     -1677.0664      -1306.8074
  23789012.0894  -29464081.79947 -22396036.82745  23789009.1584   23789022.5264
     -2935.7404      -2287.5864
  22210690.0164  -24968190.06448 -19173777.75746  22210687.5694   22210691.7054
      3544.7364       2762.1334
  21004617.2824  -35577356.45949 -27393042.61447  21004615.1424   21004620.5774
       -89.7134        -69.9074
  20857782.8344  -31002607.75549 -24128654.42647  20857780.9994   20857787.0474
       639.0614        497.9684
  23732094.1074  -13514947.37448 -10215684.22046  23732091.6444   23732099.7954
      3398.3924       2648.0874
  23880904.7914  -35132072.13547 -27025188.20345  23880902.1414   23880921.9954
     -1866.8344      -1454.6774
 00  7 16  0 16  0.0000000  0  7G29G15G20G11G25G 1G21
  23960807.1244  -27619831.45047 -21174432.69945  23960805.1664   23960814.8514
     -1678.7424      -1308.1224
  23805761.7004  -29376055.76847 -22327445.08945  23805760.5264   23805773.6764
     -2940.1044      -2290.9914
  22190450.8514  -25074546.98648 -19256653.25346  22190448.5374   22190452.6474
      3538.3034       2757.1174
  21005164.7414  -35574477.35649 -27390799.13447  21005162.5674   21005168.1984
      -109.7124        -85.4894
  20854167.4824  -31021605.89349 -24143458.11347  20854165.6204   20854171.2194
       620.1144        483.2044
  23712691.5084  -13616905.76648 -10295132.09246  23712689.0894   23712697.0964
      3391.4064       2642.6454
  23891566.5834  -35076041.71047 -26981528.29145  23891565.2784   23891584.4224
     -1876.0484      -1461.8434
 00  7 16  0 16 30.0000000  0  7G29G15G20G11G25G 1G21
  23970348.8324  -27569679.45847 -21135352.97245  23970347.7244   23970358.3684
     -1669.5704      -1300.9714
  23822513.8764  -29288022.81447 -22258847.97945  23822511.5614   23822526.5484
     -2933.5624      -2285.8884
  22170225.6004  -25180831.90748 -19339472.63446  22170223.0574   22170227.1304
      3542.5374       2760.4194
  21005803.9254  -35571119.38349 -27388182.50447  21005801.9234   21005807.5824
      -118.9814        -92.7134
  20850637.3784  -31040156.99649 -24157913.46547  20850635.5864   20850640.9964
       611.8794        476.7874
  23693305.7244  -13718777.22248 -10374512.24946  23693303.5324   23693310.8364
      3395.1974       2645.6044
  23902257.2644  -35019855.80547 -26937747.22645  23902255.8174   23902275.7874
     -1874.4644      -1460.6074
 00  7 16  0 17  0.0000000  0  7G29G15G20G11G25G 1G21
  23979899.3554  -27519494.67047 -21096247.71545  23979898.2614   23979907.2274
     -1674.6464      -1304.9314
  23839287.4054  -29199879.57547 -22190164.90445  23839284.2984   23839299.5064
     -2941.1724      -2291.8264
  22150034.5164  -25286936.73848 -19422151.68646  22150031.8964   22150036.0634
      3532.5554       2752.6394
  21006554.2554  -35567177.78149 -27385111.09947  21006552.0394   21006557.8284
      -142.3804       -110.9464
  20847212.2004  -31058155.53949 -24171938.23147  20847210.4134   20847216.1714
       589.4854        459.3364
  23673956.8164  -13820455.29748 -10453741.73046  23673954.5414   23673962.4774
      3384.8194       2637.5154
  23913001.2344  -34963409.39747 -26893763.12645  23912998.6434   23913017.8894
     -1887.1334      -1470.4934
 00  7 16  0 17 30.0000000  0  7G29G15G20G11G25G 1G21
  23989440.0084  -27469359.92047 -21057181.50045  23989437.9984   23989447.2754
     -1670.0414      -1301.3394
  23856064.9704  -29111710.79447 -22121461.95045  23856062.4974   23856077.5254
     -2939.0724      -2290.1844
  22129862.5214  -25392941.97248 -19504753.12146  22129859.9284   22129864.1094
      3532.1444       2752.3184
  21007399.4214  -35562735.70249 -27381649.71847  21007397.1194   21007402.8244
      -156.1104       -121.6444
  20843876.5514  -31075684.35449 -24185596.97047  20843874.7934   20843880.5724
       576.7824        449.4384
  23654629.4204  -13922021.80148 -10532884.27446  23654627.2944   23654635.5284
      3383.9854       2636.8634
  23923777.8124  -34906785.15347 -26849640.45345  23923775.5704   23923791.8194
     -1890.1304      -1472.8234
 00  7 16  0 18  0.0000000  0  7G29G15G20G11G25G 1G21
  23998997.1704  -27419133.54347 -21018043.88745  23998995.1984   23999004.9294
     -1678.1874      -1307.6864
  23872874.2554  -29023377.34647 -22052630.69045  23872872.1484   23872886.2874
     -2949.6474      -2298.4164
  22109736.1854  -25498704.04948 -19587165.09046  22109733.8904   22109738.0414
      3518.8964       2741.9964
  21008366.3654  -35557652.74249 -27377688.93747  21008364.3384   21008369.8284
      -182.5584       -142.2534
  20840657.0734  -31092602.13249 -24198779.58947  20840655.2234   20840661.0504
       551.3394        429.6144
  23635349.7814  -14023334.93748 -10611829.35946  23635347.4704   23635356.0164
      3370.4794       2626.3404
  23934613.5384  -34849841.55247 -26805268.91245  23934611.8444   23934628.7134
     -1905.8974      -1485.1024
 00  7 16  0 18 30.0000000  0  7G29G15G20G11G25G 1G21
  24008558.4904  -27368891.18247 -20978893.80745  24008556.2434   24008565.3354
     -1675.0264      -1305.2244
  23889700.8784  -28934957.00347 -21983731.72145  23889698.2294   23889712.4224
     -2948.8014      -2297.7694
  22089642.9714  -25604296.32948 -19669444.74746  22089640.4374   22089645.0834
      3516.8534       2740.4034
  21009440.5764  -35552005.15649 -27373288.19147  21009438.8274   21009444.3704
      -197.6514       -154.0154
  20837539.1564  -31108985.02549 -24211545.43447  20837537.5574   20837543.3854
       537.2124        418.6054
  23616104.0014  -14124469.77148 -10690635.49646  23616101.7284   23616110.0584
      3368.2214       2624.5774
  23945495.4644  -34792654.65347 -26760707.84245  23945492.7384   23945511.1334
     -1910.2814      -1488.5294
 00  7 16  0 19  0.0000000  0  7G29G15G20G11G25G 1G21
  24018127.1674  -27318606.02347 -20939710.32345  24018125.1884   24018135.0614
     -1675.1684      -1305.3364
  23906547.3424  -28846425.62447 -21914746.20945  23906545.1694   23906560.4034
     -2951.1544      -2299.6034
  22069587.1984  -25709689.85348 -19751569.51846  22069584.3934   22069589.5124
      3511.4724       2736.2114
  21010628.0114  -35545767.69749 -27368427.80547  21010625.9624   21010631.4704
      -216.0684       -168.3644
  20834528.8744  -31124806.76649 -24223874.01947  20834527.1044   20834532.7024
       519.7554        405.0024
  23596898.1294  -14225399.13948 -10769281.55246  23596895.8804   23596903.7294
      3362.6264       2620.2244
  23956428.8504  -34735198.02047 -26715936.63045  23956425.2524   23956444.9604
     -1917.9544      -1494.5004
 00  7 16  0 19 30.0000000  0  7G29G15G20G11G25G 1G21
  24027671.4804  -27268454.72747 -20900631.22745  24027668.5434   24027677.8394
     -1675.5664      -1305.6434
  23923381.1044  -28757961.20147 -21845812.89245  23923378.8564   23923393.3844
     -2953.7574      -2301.6274
  22049535.4124  -25815058.83548 -19833675.17646  22049533.1844   22049537.8434
      3505.7694       2731.7654
  21011893.3614  -35539117.27149 -27363245.63847  21011891.4324   21011896.7674
      -234.6944       -182.8794
  20831591.1934  -31140244.20649 -24235903.14747  20831589.4394   20831595.1274
       502.0534        391.2094
  23577697.6624  -14326298.65648 -10847904.34646  23577695.5924   23577703.0504
      3356.7214       2615.6214
  23967381.2464  -34677648.39347 -26671092.90845  23967378.6324   23967395.1484
     -1925.9844      -1500.7684
 00  7 16  0 20  0.0000000  0  7G29G15G20G11G25G 1G21
  24037226.0564  -27218239.75647 -20861502.42345  24037223.6064   24037233.2234
     -1666.8714      -1298.8684
  23940239.3214  -28669368.71447 -21776779.78845  23940237.5574   23940252.4154
     -2947.2174      -2296.5264
  22029527.1734  -25920203.86148 -19915606.31246  22029524.6124   22029529.5624
      3509.0964       2734.3594
  21013275.1724  -35531857.55249 -27357588.69247  21013273.0894   21013278.0824
      -244.1774       -190.2694
  20828764.2714  -31155100.16249 -24247479.16347  20828762.3494   20828768.0124
       493.4864        384.5324
  23558539.4674  -14426970.68648 -10926349.86046  23558537.3284   23558545.7834
      3359.9484       2618.1364
  23978385.5244  -34619808.41947 -26626022.88045  23978383.9404   23978402.2254
     -1924.7714      -1499.8114
 00  7 16  0 20 30.0000000  0  7G29G15G20G11G25G 1G21
  24046769.0084  -27168090.36447 -20822424.84545  24046767.4634   24046776.2744
     -1676.8084      -1306.6074
  23957097.9684  -28580779.54547 -21707749.25645  23957095.2964   23957110.0484
     -2959.1214      -2305.8124
  22009537.7824  -26025251.56448 -19997461.60446  22009535.2684   22009539.4934
      3493.6934       2722.3574
  21014747.9284  -35524118.38349 -27351558.14647  21014745.8804   21014750.9524
      -272.2034       -212.1074
  20826022.9394  -31169504.21749 -24258703.03347  20826021.2664   20826026.8074
       466.3844        363.4134
  23539400.5514  -14527543.68648 -11004718.19346  23539398.4204   23539407.3664
      3344.5734       2606.1534
  23989423.6694  -34561807.62947 -26580827.55445  23989421.5544   23989440.7924
     -1942.3034      -1513.4684
 00  7 16  0 21  0.0000000  0  7G29G15G20G11G25G 1G21
  24056318.4524  -27117906.78447 -20783320.62145  24056316.3404   24056326.0074
     -1669.5414      -1300.9554
  23973973.0344  -28492096.18647 -21638645.32945  23973971.2974   23973986.4064
     -2953.8594      -2301.7044
  21989585.3144  -26130100.23548 -20079161.81046  21989582.8734   21989587.1734
      3495.4444       2723.7194
  21016330.9134  -35515801.35649 -27345077.31647  21016328.5754   21016333.7424
      -283.0784       -220.5834
  20823386.8494  -31183357.60849 -24269497.80547  20823385.0604   20823390.6464
       456.4204        355.6494
  23520300.5264  -14627917.44548 -11082931.27746  23520298.3294   23520306.2044
      3346.3044       2607.5034
  24000511.1134  -34503546.34747 -26535429.29445  24000509.6044   24000528.0074
     -1942.6124      -1513.7074
 00  7 16  0 21 30.0000000  0  7G29G15G20G11G25G 1G21
  24065866.5104  -27067729.95247 -20744221.74545  24065864.9434   24065873.8984
     -1672.2604      -1303.0614
  23990858.0804  -28403361.58247 -21569501.48045  23990856.5764   23990872.1674
     -2958.4414      -2305.2804
  21969663.4134  -26234788.43348 -20160736.96646  21969661.4174   21969665.6724
      3487.0994       2717.2184
  21018015.2404  -35506948.18049 -27338178.70247  21018013.1664   21018018.5824
      -303.8374       -236.7574
  20820847.3684  -31196701.35049 -24279895.42947  20820845.7754   20820851.1764
       436.5254        340.1464
  23501229.6964  -14728132.28148 -11161020.54046  23501227.5344   23501236.0224
      3338.0324       2601.0564
  24011640.3644  -34445066.01847 -26489860.34845  24011637.3304   24011656.0754
     -1952.8464      -1521.7024
 00  7 16  0 22  0.0000000  0  8G29G15G20G11G25G 1G16G21
  24075408.2444  -27017582.30747 -20705145.43845  24075407.1684   24075416.4034
     -1669.8404      -1301.1764
  24007748.9844  -28314601.02347 -21500337.42745  24007746.5724   24007763.2114
     -2957.7904      -2304.7664
  21949768.9394  -26339336.75748 -20242203.12346  21949766.4704   21949770.6344
      3483.8864       2714.7124
  21019797.4524  -35497582.85449 -27330881.01847  21019795.3554   21019800.6394
      -319.4314       -248.9084
  20818400.5094  -31209559.09549 -24289914.35747  20818398.8254   20818404.5164
       421.8134        328.6824
  23482184.8774  -14828210.55848 -11239003.39246  23482182.8684   23482191.2804
      3335.0094       2598.6974
  24600942.3774   -6438957.67857  -4430497.57645  24600938.9934   24600946.1664
      4064.3894       3167.0564
  24022805.0164  -34386389.55347 -26444138.55845  24022804.0324   24022822.7214
     -1957.7834      -1525.5454
 00  7 16  0 22 30.0000000  0  8G29G15G20G11G25G 1G16G21
  24084948.1914  -26967449.74647 -20666080.91745  24084947.0874   24084956.0214
     -1672.2294      -1303.0384
  24024646.5874  -28225802.38047 -21431143.69945  24024644.3644   24024660.9964
     -2961.9714      -2308.0384
  21929903.9164  -26443728.77248 -20323547.47846  21929901.1384   21929905.2434
      3475.6744       2708.3134
  21021679.4284  -35487692.11549 -27323173.92747  21021677.2634   21021682.6124
      -339.9154       -264.8694
  20816049.2874  -31221916.70749 -24299543.57947  20816047.3904   20816052.7054
       402.1614        313.3714
  23463169.5784  -14928137.50048 -11316868.29646  23463167.5764   23463175.2694
      3326.9064       2592.3884
  24577745.8624   -6560857.19147  -4525484.12745  24577743.0954   24577749.4304
      4062.3474       3165.4674
  24034009.8374  -34327503.33547 -26398253.28745  24034008.1314   24034028.1644
     -1967.8224      -1533.3514
 00  7 16  0 23  0.0000000  0  8G29G15G20G11G25G 1G16G21
  24094503.5824  -26917239.51747 -20626955.91845  24094501.8884   24094510.1494
     -1670.4704      -1301.6734
  24041567.0804  -28136874.68947 -21361849.39745  24041566.0214   24041581.7404
     -2961.8554      -2307.9334
  21910086.0734  -26547869.02048 -20404695.63646  21910083.6644   21910087.5494
      3471.6714       2705.1944
  21023678.8244  -35477183.84649 -27314985.64047  21023676.8884   21023682.2344
      -356.0014       -277.4054
  20813810.6444  -31233681.10649 -24308710.55947  20813808.7114   20813813.9704
       386.8514        301.4394
  23444200.7064  -15027819.63748 -11394542.46046  23444198.6574   23444206.0124
      3323.2524       2589.5404
  24554560.7094   -6682692.09547  -4620420.33745  24554557.9994   24554563.9304
      4064.6304       3167.2374
  24045274.5114  -34268314.28047 -26352132.01045  24045271.6384   24045291.5854
     -1973.4274      -1537.7344
 00  7 16  0 23 30.0000000  0  8G29G15G20G11G25G 1G16G21
  24104035.1744  -26867148.31447 -20587923.72645  24104033.1944   24104042.5734
     -1673.0854      -1303.7044
  24058477.7884  -28048017.24847 -21292609.86245  24058475.6064   24058490.4914
     -2966.0414      -2311.2104
  21890280.0004  -26651952.49348 -20485799.55046  21890277.2454   21890281.1654
      3463.1554       2698.5574
  21025758.9634  -35466256.30549 -27306470.64447  21025756.6954   21025761.5674
      -376.5894       -293.4474
  20811646.9464  -31245050.43049 -24317569.67747  20811645.0374   20811650.6084
       367.0934        286.0434
  23425241.1264  -15127453.52948 -11472179.00546  23425238.6174   23425246.5014
      3314.9714       2583.0854
  24531350.5544   -6804658.31347  -4715458.87645  24531348.4524   24531355.5474
      4062.3834       3165.4954
  24056557.9934  -34209019.88247 -26305928.66045  24056555.4674   24056575.7724
     -1983.5484      -1545.6174
 00  7 16  0 24  0.0000000  0  7G29G20G11G25G 1G16G21
  24113574.8624  -26817018.14847 -20548861.06245  24113573.0984   24113582.2284
     -1673.2824      -1303.8564
  21870514.6584  -26755818.98748 -20566734.40847  21870512.2324   21870516.2794
      3456.9404       2693.7184
  21027948.0044  -35454752.46449 -27297506.58847  21027945.5994   21027950.5894
      -394.6984       -307.5584
  20809588.4324  -31255867.60149 -24325998.54447  20809586.5394   20809592.0154
       349.7284        272.5134
  23406320.4634  -15226880.73348 -11549654.50346  23406318.1914   23406325.7194
      3309.1554       2578.5534
  24508146.4954   -6926596.13147  -4810475.28545  24508144.0334   24508150.6124
      4062.4294       3165.5234
  24067891.5204  -34149462.50947 -26259520.38945  24067889.1694   24067907.9044
     -1991.2674      -1551.6244
 00  7 16  0 24 30.0000000  0  7G29G20G11G25G 1G16G21
  24123124.3404  -26766836.29847 -20509758.26245  24123121.9354   24123131.1324
     -1673.6194      -1304.1254
  21850793.3894  -26859453.62748 -20647488.62147  21850790.9654   21850795.7424
      3450.6324       2688.8014
  21030248.3274  -35442661.17149 -27288084.77547  21030246.2594   21030251.4934
      -412.7984       -321.6614
  20807637.4764  -31266120.23849 -24333987.51047  20807635.4454   20807640.7524
       332.4304        259.0324
  23387441.9394  -15326087.97748 -11626958.61846  23387439.6484   23387446.4894
      3303.2684       2573.9704
  24484950.1374   -7048491.41147  -4905458.55345  24484948.1134   24484955.2964
      4062.4474       3165.5414
  24079276.0854  -34089629.92047 -26212897.71245  24079274.4054   24079294.3624
     -1999.0114      -1557.6674
 00  7 16  0 24 59.9990000  0  7G29G20G11G25G 1G16G21
  24132676.8944  -26716636.30647 -20470641.20145  24132674.9084   24132683.5264
     -1673.4564      -1304.0014
  21831111.7364  -26962882.56148 -20728082.54147  21831108.9904   21831113.9594
      3444.6074       2684.1084
  21032655.1954  -35430015.91749 -27278231.30947  21032652.9814   21032657.8494
      -430.5594       -335.5034
  20805787.1064  -31275840.57449 -24341561.70847  20805785.3294   20805791.0164
       315.3954        245.7594
  23368600.8464  -15425103.55148 -11704113.38546  23368598.2654   23368605.0374
      3297.7034       2569.6324
  24461757.4544   -7170370.65247  -5000429.33045  24461754.9234   24461762.7024
      4062.8244       3165.8314
  24090708.6764  -34029556.55247 -26166087.41845  24090706.8514   24090727.2654
     -2006.2484      -1563.3064
 00  7 16  0 25 29.9990000  0  7G29G20G11G25G 1G16G21
  24142221.5154  -26666474.74447 -20431554.11945  24142219.6794   24142228.5194
     -1671.8524      -1302.7464
  21811456.2744  -27066170.11048 -20808566.27747  21811453.9314   21811458.9574
      3440.0144       2680.5274
  21035155.4274  -35416876.54449 -27267992.80547  21035153.3644   21035158.0874
      -446.7154       -348.0904
  20804026.7804  -31285089.75249 -24348768.78647  20804025.1194   20804030.8844
       299.9724        233.7424
  23349781.3874  -15523993.36048 -11781170.15646  23349779.1184   23349786.6634
      3293.6814       2566.4964
  24438555.4004   -7292300.18747  -5095439.29745  24438553.3594   24438560.1294
      4064.6064       3167.2234
  24102175.4364  -33969298.34147 -26119133.07145  24102172.3924   24102192.7044
     -2012.1144      -1567.8934
 00  7 16  0 25 59.9990000  0  8G29G15G20G11G25G 1G16G21
  24151754.1294  -26616380.11047 -20392519.29145  24151752.4224   24151761.2644
     -1667.8054      -1299.5964
  24143206.8314     262771.71646    185658.39745  24143202.6374   24143218.4954
     -2967.4984      -2312.3384
  21791823.9464  -27169337.70648 -20888956.53347  21791821.5994   21791826.7344
      3437.8164       2678.8164
  21037743.8654  -35403271.76449 -27257391.65047  21037741.7594   21037746.8654
      -460.3574       -358.7214
  20802351.6554  -31293895.27749 -24355630.15947  20802349.8244   20802355.1574
       287.0644        223.6834
  23330982.6654  -15622780.54648 -11858146.96146  23330980.4944   23330988.4764
      3292.0664       2565.2394
  24415338.6424   -7414301.10747  -5190504.90545  24415336.9384   24415343.4824
      4068.8274       3170.5134
  24113670.3864  -33908884.62346 -26072057.56245  24113669.0664   24113687.2334
     -2015.4584      -1570.4934
 00  7 16  0 26 29.9990000  0  7G29G20G11G25G 1G16G21
  24161295.3864  -26566244.22147 -20353452.21045  24161292.9024   24161302.6004
     -1672.6214      -1303.3404
  21772236.4444  -27272274.74348 -20969167.14847  21772233.7914   21772238.4424
      3426.6564       2670.1224
  21040442.1134  -35389094.70949 -27246344.56447  21040439.8454   21040444.5404
      -482.8524       -376.2494
  20800781.0244  -31302149.51749 -24362061.93547  20800779.1184   20800784.3184
       265.2374        206.6734
  23312224.6224  -15721356.26948 -11934959.01346  23312222.4894   23312229.2874
      3281.5954       2557.0784
  24392131.1344   -7536264.04247  -5285540.88345  24392127.9554   24392134.7644
      4064.0874       3166.8234
  24125218.2424  -33848207.68046 -26024776.93745  24125215.5314   24125235.7054
     -2027.5774      -1579.9284
 00  7 16  0 26 59.9990000  0  7G29G20G11G25G 1G16G21
  24170843.3664  -26516069.68947 -20314355.03345  24170841.1684   24170850.3784
     -1674.8824      -1305.1024
  21752691.6834  -27374981.98748 -21049198.71647  21752688.9364   21752693.8174
      3417.9284       2663.3174
  21043247.7854  -35374349.32649 -27234854.61747  21043245.7034   21043250.4654
      -502.7934       -391.7894
  20799314.3064  -31309855.35249 -24368066.35847  20799312.4014   20799317.8784
       245.9734        191.6634
  23293505.6544  -15819723.20848 -12011608.36346  23293503.4674   23293510.0404
      3273.6574       2550.8964
  24368927.1944   -7658190.10547  -5380548.14745  24368925.7544   24368933.2244
      4061.7384       3164.9944
  24136814.3254  -33787270.92247 -25977293.86945  24136812.5414   24136831.8944
     -2037.2874      -1587.4944
 00  7 16  0 27 29.9990000  0  7G29G20G11G25G 1G16G21
  24180368.9314  -26466012.71047 -20275349.48745  24180366.7434   24180375.5194
     -1671.7704      -1302.6864
  21733161.7134  -27477613.36148 -21129171.16947  21733159.1134   21733163.2054
      3414.5844       2660.7144
  21046131.7424  -35359193.28549 -27223044.67547  21046129.7194   21046135.0634
      -517.2174       -403.0294
  20797922.3404  -31317170.21449 -24373766.13647  20797920.4224   20797925.8064
       232.1754        180.9114
  23274796.9424  -15918037.23948 -12088216.47646  23274794.7024   23274802.2914
      3271.0684       2548.8804
  24345704.5204   -7780234.07247  -5475647.27345  24345702.1754   24345708.8274
      4064.9504       3167.4864
  24148429.7224  -33726230.97746 -25929730.43145  24148427.8594   24148449.2854
     -2041.4844      -1590.7534
 00  7 16  0 27 59.9990000  0  7G29G20G11G25G 1G16G21
  24189906.5564  -26415888.55747 -20236291.43845  24189903.6964   24189913.4494
     -1669.1194      -1300.6224
  21713680.9764  -27579981.79948 -21208938.73547  21713678.7164   21713683.1354
      3410.6104       2657.6174
  21049128.7884  -35343443.53249 -27210772.10447  21049126.6574   21049131.9804
      -532.1794       -414.6854
  20796638.8994  -31323910.51549 -24379018.21647  20796637.4114   20796642.8924
       217.8444        169.7454
  23256133.3194  -16016113.40048 -12164639.24846  23256130.8864   23256137.9934
      3267.9514       2546.4474
  24322492.6744   -7902209.65147  -5570693.14745  24322490.0534   24322497.7734
      4067.4684       3169.4594
  24160100.6104  -33664903.94146 -25881943.26245  24160096.8824   24160117.3184
     -2046.2934      -1594.5094
 00  7 16  0 28 29.9990000  0  7G29G20G11G25G 1G16G21
  24199448.6294  -26365741.25947 -20197215.44045  24199447.2684   24199456.3804
     -1668.9464      -1300.4824
  21694243.1374  -27682129.13348 -21288534.01747  21694240.5834   21694244.9374
      3404.2004       2652.6214
  21052230.2154  -35327144.97349 -27198071.88847  21052228.1194   21052233.3614
      -549.4394       -428.1364
  20795457.1424  -31330120.58549 -24383857.09847  20795455.4474   20795461.0014
       201.1654        156.7494
  23237506.7984  -16113994.79348 -12240910.25746  23237504.5334   23237511.5324
      3262.4924       2542.1954
  24299286.4384   -8024159.21947  -5665718.75445  24299283.9844   24299290.4844
      4067.5304       3169.5044
  24171815.7744  -33603333.58046 -25833966.44545  24171814.7014   24171834.4584
     -2053.3874      -1600.0484
 00  7 16  0 28 59.9990000  0  7G29G20G11G25G 1G16G21
  24208992.5614  -26315592.51447 -20158138.36445  24208990.3024   24208998.5004
     -1672.3854      -1303.1634
  21674843.6144  -27784074.53048 -21367971.94047  21674841.3054   21674845.0754
      3394.0414       2644.7074
  21055431.9724  -35310320.74949 -27184962.06647  21055429.6714   21055434.9534
      -570.3314       -444.4154
  20794373.1884  -31335822.63049 -24388300.12647  20794370.9094   20794376.0474
       180.8724        140.9344
  23218913.1314  -16211702.82448 -12317046.18346  23218910.9254   23218918.3754
      3253.2934       2535.0264
  24276083.0694   -8146103.18747  -5760740.00045  24276080.1064   24276086.1734
      4063.9904       3166.7464
  24183575.7494  -33541542.32347 -25785817.47445  24183573.1314   24183592.1234
     -2064.1154      -1608.4094
 00  7 16  0 29 29.9990000  0  8G29G15G20G11G25G 1G16G21
  24218529.5714  -26265469.54247 -20119081.35145  24218528.2234   24218536.7214
     -1670.9644      -1302.0544
  24262068.7014     434852.86146    110725.27245  24262064.7024   24262080.4284
     -2977.2344      -2319.9144
  21655477.2724  -27885843.31348 -21447272.25547  21655474.8334   21655479.0594
      3388.7214       2640.5604
  21058727.8574  -35292999.63549 -27171465.06347  21058725.5604   21058731.0334
      -586.2884       -456.8494
  20793379.0584  -31341045.31849 -24392369.61347  20793377.0864   20793382.1404
       165.4884        128.9484
  23200347.9934  -16309264.53548 -12393068.10246  23200345.6944   23200353.0964
      3249.0074       2531.6884
  24252872.8544   -8268066.94047  -5855776.66645  24252870.7724   24252877.4164
      4065.1494       3167.6504
  24195370.7584  -33479557.91147 -25737518.00945  24195368.7364   24195388.3904
     -2070.0064      -1612.9874
 00  7 16  0 29 59.9990000  0  8G29G15G20G11G25G 1G16G21
  24228048.2254  -26215450.22047 -20080105.13445  24228046.3934   24228055.0704
     -1670.5224      -1301.7084
  24279046.9624     524069.42746    180244.64745  24279044.3784   24279058.9894
     -2977.4734      -2320.0964
  21636130.9794  -27987510.98448 -21526493.78247  21636128.5444   21636132.2884
      3382.1984       2635.4784
  21062103.1974  -35275260.97449 -27157642.69847  21062101.0934   21062106.9394
      -603.2444       -470.0624
  20792460.5854  -31345867.33449 -24396126.90847  20792458.8714   20792464.0614
       149.0924        116.1714
  23181795.6144  -16406757.38648 -12469036.36346  23181793.2144   23181800.6864
      3243.6274       2527.4954
  24229645.3544   -8390126.99147  -5950888.35745  24229642.8794   24229649.7134
      4065.2274       3167.7124
  24207188.3624  -33417459.05447 -25689129.38945  24207186.8784   24207206.4434
     -2076.8074      -1618.2794
 00  7 16  0 30 29.9990000  0  8G29G15G20G11G25G 1G16G21
  24237570.0904  -26165412.10047 -20041114.19245  24237567.5594   24237576.4294
     -1672.8004      -1303.4894
  24296030.0574     613321.75346    249791.83044  24296027.2314   24296043.1604
     -2980.1624      -2322.1974
  21616826.8884  -28088953.35248 -21605539.75147  21616824.2354   21616828.7574
      3373.1034       2628.3904
  21065580.7164  -35256984.08049 -27143400.92647  21065578.8764   21065584.7504
      -622.7284       -485.2444
  20791642.6794  -31350167.57549 -24399477.61847  20791640.4814   20791645.5224
       130.1354        101.3994
  23163279.4164  -16504058.98748 -12544855.60446  23163277.2544   23163284.4644
      3235.6634       2521.2914
  24206423.1414   -8512159.78647  -6045978.80145  24206420.9254   24206426.5654
      4062.7354       3165.7744
  24219050.2784  -33355124.22147 -25640556.90345  24219047.4384   24219066.5514
     -2086.2664      -1625.6634
 00  7 16  0 30 59.9990000  0  7G29G15G20G11G25G 1G16
  24247095.2504  -26115352.93647 -20002106.84045  24247094.1824   24247103.0394
     -1667.4494      -1299.3114
  24313019.9574     702610.30946    319367.21844  24313020.3724   24313032.2354
     -2975.2334      -2318.3484
  21597566.8874  -28190165.60648 -21684406.41047  21597564.5234   21597568.6064
      3371.5284       2627.1644
  21069161.6824  -35238168.04349 -27128739.04547  21069159.4724   21069164.9454
      -634.5744       -494.4744
  20790923.5254  -31353944.33949 -24402420.43247  20790921.7524   20790926.8244
       118.8224         92.5864
  23144800.7144  -16601166.22948 -12620523.40646  23144798.2114   23144805.5214
      3235.2774       2520.9894
  24183207.8434   -8634161.49747  -6141045.03445  24183205.6844   24183210.3754
      4067.7504       3169.6724
 00  7 16  0 31 29.9990000  0  7G29G15G20G11G25G 1G16
  24256619.2054  -26065302.82047 -19963106.68345  24256617.5404   24256626.5884
     -1672.1184      -1302.9594
  24330012.7774     791902.74046    388945.63544  24330011.2364   24330025.8934
     -2980.4324      -2322.4154
  21578345.3974  -28291175.63148 -21763115.49147  21578342.8804   21578347.3814
      3359.6204       2617.8854
  21072838.8794  -35218844.40849 -27113681.63747  21072836.7584   21072842.0094
      -656.5674       -511.6124
  20790298.9194  -31357228.37649 -24404979.29647  20790296.8874   20790301.6784
        97.3014         75.8154
  23126352.4694  -16698108.99348 -12696063.05246  23126350.1654   23126358.1554
      3224.7314       2512.7724
  24159991.8974   -8756159.98347  -6236108.74045  24159989.4614   24159995.2474
      4062.5934       3165.6594
 00  7 16  0 31 59.9990000  0  7G29G15G20G11G25G 1G16
  24266140.4494  -26015264.71447 -19924115.85445  24266139.5504   24266148.7004
     -1667.9184      -1299.6874
  24347004.9794     881193.76446    458522.96644  24347002.6644   24347017.3874
     -2976.5254      -2319.3654
  21559162.5664  -28391984.28048 -21841667.64747  21559159.8654   21559164.3094
      3356.8144       2615.6964
  21076611.8374  -35199017.91049 -27098232.38447  21076609.7284   21076614.6884
      -669.4094       -521.6194
  20789766.0834  -31360024.03049 -24407157.64247  20789764.4294   20789769.3804
        84.9634         66.2004
  23107935.6334  -16794890.29548 -12771476.87946  23107933.4244   23107941.2034
      3223.2094       2511.5864
  24136776.5374   -8878157.34747  -6331171.58445  24136773.8764   24136779.7634
      4066.4454       3168.6584
 00  7 16  0 32 29.9990000  0  7G29G15G20G11G25G 1G16
  24275669.8724  -25965196.43447 -19885101.37345  24275667.3814   24275675.5334
     -1666.0664      -1298.2464
  24364004.1454     970523.43646    528130.38844  24364001.5904   24364014.8904
     -2974.9614      -2318.1464
  21540026.3894  -28492546.96048 -21920028.14047  21540023.6584   21540027.7564
      3351.2584       2611.3694
  21080488.1764  -35178647.97249 -27082359.66947  21080486.1044   21080491.0384
      -684.7584       -533.5784
  20789335.3504  -31362290.18249 -24408923.40147  20789333.5274   20789338.2284
        70.0254         54.5624
  23089557.4384  -16891467.39848 -12846731.59746  23089555.1664   23089562.3124
      3219.1524       2508.4234
  24113569.1814   -9000109.47847  -6426199.18845  24113566.8024   24113571.5674
      4067.6574       3169.5934
 00  7 16  0 32 59.9990000  0  7G29G15G20G11G25G 1G16
  24285170.6234  -25915268.27947 -19846196.16045  24285168.8484   24285177.4784
     -1666.4504      -1298.5314
  24380977.4684    1059719.11346    597633.37544  24380975.6254   24380988.5574
     -2975.3804      -2318.4834
  21520903.9604  -28593031.95048 -21998328.08247  21520901.5234   21520906.1264
      3343.7234       2605.4954
  21084434.8404  -35157906.46049 -27066197.41447  21084432.9754   21084438.2204
      -702.0444       -547.0494
  20788972.3074  -31364197.66549 -24410409.67547  20788970.4444   20788975.2634
        53.1644         41.4254
  23071185.7294  -16988010.17748 -12921959.58146  23071183.3854   23071190.4384
      3213.0374       2503.6594
  24090339.6784   -9122185.78347  -6521323.53545  24090337.1704   24090342.8284
      4066.7894       3168.9284
 00  7 16  0 33 29.9990000  0  7G29G15G20G11G25G 1G16
  24294688.6134  -25865251.34247 -19807221.77145  24294686.0144   24294694.8604
     -1670.9674      -1302.0554
  24397968.1924    1149007.30046    667208.45244  24397965.9984   24397980.6574
     -2980.0294      -2322.1024
  21501840.9054  -28693207.88148 -22076387.21047  21501838.6934   21501842.8504
      3331.7984       2596.2054
  21088496.2944  -35136566.17749 -27049568.59147  21088494.1984   21088498.9794
      -723.5684       -563.8204
  20788720.8674  -31365519.22149 -24411439.40647  20788718.9294   20788723.8754
        32.0904         25.0024
  23052864.3424  -17084289.65248 -12996982.39646  23052862.1274   23052869.3654
      3202.7244       2495.6244
  24067130.1724   -9244154.93047  -6616364.36545  24067126.8524   24067132.4774
      4061.6294       3164.9054
 00  7 16  0 33 59.9990000  0  7G29G15G20G11G25G 1G16
  24304203.2024  -25815244.05447 -19768254.99745  24304201.5714   24304210.8124
     -1664.5934      -1297.0914
  24414957.0434    1238287.11546    736777.03044  24414955.4264   24414970.9904
     -2973.6574      -2317.1364
  21482818.4754  -28793171.15048 -22154280.64347  21482816.1114   21482820.1384
      3330.7084       2595.3564
  21092651.9274  -35114727.16949 -27032551.14547  21092649.6404   21092654.3034
      -734.1054       -572.0324
  20788561.9284  -31366353.85549 -24412089.70347  20788560.1094   20788564.9534
        21.9224         17.0794
  23034574.0834  -17180404.03948 -13071876.57246  23034571.8804   23034579.1814
      3203.2594       2496.0424
  24043920.5544   -9366114.68547  -6711397.91745  24043918.5304   24043925.2534
      4067.3834       3169.3964
 00  7 16  0 34 29.9990000  0  7G29G15G20G11G25G 1G16
  24313704.6244  -25765315.02247 -19729349.08345  24313702.7764   24313711.6594
     -1665.6974      -1297.9514
  24431932.1884    1327487.69446    806283.86844  24431930.8554   24431943.8614
     -2974.7864      -2317.9994
  21463824.2404  -28892988.12148 -22232060.05147  21463821.6064   21463825.5614
      3322.0394       2588.5994
  21096888.7484  -35092459.92449 -27015200.00147  21096886.8104   21096891.6054
      -752.1104       -586.0624
  20788482.2134  -31366771.67249 -24412415.20847  20788480.5404   20788485.4394
         4.2834          3.3344
  23016302.4734  -17276421.77348 -13146695.41446  23016300.3874   23016307.5224
      3196.2344       2490.5654
  24020701.9324   -9488131.38747  -6806475.80245  24020699.0034   24020705.5584
      4065.4354       3167.8694
 00  7 16  0 34 59.9990000  0  7G29G15G20G11G25G 1G16
  24323215.4254  -25715341.76547 -19690408.76645  24323212.8224   24323220.8414
     -1670.5514      -1301.7344
  24448912.7964    1416729.44246    875822.74044  24448911.4584   24448922.9064
     -2979.3844      -2321.5984
  21444881.3844  -28992534.08648 -22309628.29247  21444878.5644   21444882.7674
      3309.6234       2578.9254
  21101230.7774  -35069643.38649 -26997420.84347  21101228.6064   21101233.5434
      -773.7214       -602.9004
  20788505.1404  -31366650.83749 -24412320.97547  20788503.3164   20788508.1654
       -17.0384        -13.2794
  22998073.1034  -17372219.90148 -13221343.12846  22998070.8274   22998076.8574
      3185.5624       2482.2474
  23997496.3774   -9610081.72847  -6901501.97645  23997492.8694   23997499.9634
      4059.8634       3163.5294
 00  7 16  0 35 29.9990000  0  6G29G20G11G25G 1G16
  24332725.1954  -25665363.78747 -19651464.75045  24332723.1114   24332731.9154
     -1664.3894      -1296.9334
  21425982.6454  -29091846.26548 -22387014.34947  21425980.0844   21425984.1164
      3308.1184       2577.7514
  21105669.0694  -35046318.95149 -26979245.91747  21105666.8584   21105671.9814
      -784.3144       -611.1544
  20788623.2214  -31366031.96249 -24411838.65047  20788621.1504   20788625.8514
       -27.2534        -21.2394
  22979877.5814  -17467837.85148 -13295850.46346  22979875.0814   22979880.9314
      3185.9104       2482.5234
  23974294.9964   -9732002.96747  -6996505.48845  23974292.0134   23974298.9154
      4065.1724       3167.6664
 00  7 16  0 35 59.9990000  0  6G29G20G11G25G 1G16
  24342231.7374  -25615404.15747 -19612535.05345  24342229.5864   24342238.2224
     -1662.7314      -1295.6384
  21407124.1734  -29190945.51848 -22464234.47847  21407122.0094   21407126.4384
      3302.0374       2573.0134
  21110199.6234  -35022511.64049 -26960694.73747  21110197.4274   21110202.3824
      -799.3544       -622.8744
  20788830.2554  -31364939.49149 -24410987.31447  20788828.7224   20788833.7294
       -41.9904        -32.7204
  22961711.3344  -17563298.25048 -13370235.02646  22961709.1424   22961715.6684
      3181.7104       2479.2474
  23951095.3324   -9853917.08147  -7091503.47545  23951093.2414   23951098.7444
      4065.9724       3168.2884
 00  7 16  0 36 29.9990000  0  6G29G20G11G25G 1G16
  24351726.2664  -25565507.95947 -19573654.81845  24351724.1674   24351732.9414
     -1663.2884      -1296.0814
  21388298.7124  -29289875.05748 -22541322.40147  21388296.0274   21388300.7044
      3293.7354       2566.5474
  21114813.0964  -34998268.42549 -26941803.88847  21114810.9254   21114815.2824
      -816.4474       -636.1934
  20789119.6894  -31363419.66849 -24409803.01147  20789117.9424   20789123.1064
       -58.8124        -45.8294
  22943567.4844  -17658646.05848 -13444531.83746  22943565.0474   22943571.7534
      3175.3864       2474.3204
  23927889.3914   -9975867.45947  -7186529.71845  23927886.1734   23927892.3404
      4064.5594       3167.1884
 00  7 16  0 36 59.9990000  0  6G29G20G11G25G 1G16
  24361227.3514  -25515581.26247 -19534750.75745  24361225.7834   24361233.9064
     -1660.5324      -1293.9244
  21369523.2404  -29388538.74548 -22618203.20247  21369520.9864   21369525.3024
      3288.5384       2562.4974
  21119526.8594  -34973497.05449 -26922501.49147  21119524.6454   21119528.9224
      -830.3244       -647.0064
  20789507.9004  -31361380.24149 -24408213.80647  20789506.1244   20789510.9804
       -72.4024        -56.4194
  22925461.9064  -17753787.51648 -13518667.87946  22925459.8724   22925466.4844
      3172.1364       2471.7894
  23904694.7454  -10097758.95947  -7281510.08145  23904692.0244   23904697.0224
      4066.2724       3168.5274
 00  7 16  0 37 29.9990000  0  6G29G20G11G25G 1G16
  24370703.5184  -25465786.91147 -19495949.75345  24370701.2364   24370708.5214
     -1661.6594      -1294.8034
  21350768.5584  -29487097.13548 -22695001.94047  21350766.0004   21350770.4824
      3279.4654       2555.4284
  21124309.5534  -34948361.74949 -26902915.52147  21124307.4704   21124312.1814
      -847.9424       -660.7354
  20789963.6794  -31358985.22549 -24406347.53947  20789961.6814   20789966.7134
       -89.7804        -69.9594
  22907365.0364  -17848885.07148 -13592769.72046  22907363.0324   22907369.4914
      3165.1334       2466.3324
  23881479.2094  -10219752.55647  -7376570.01845  23881476.9704   23881482.4754
      4064.1144       3166.8434
 00  7 16  0 37 59.9990000  0  6G29G20G11G25G 1G16
  24380180.7454  -25415975.16047 -19457135.19745  24380179.7774   24380187.6374
     -1657.5254      -1291.5814
  21332062.9194  -29585398.10948 -22771600.12947  21332060.3214   21332064.4654
      3275.5594       2552.3864
  21129189.9934  -34922715.13749 -26882931.12947  21129187.9464   21129192.5854
      -860.2574       -670.3304
  20790515.4844  -31356085.56449 -24404088.03547  20790513.6844   20790518.4264
      -101.8694        -79.3804
  22889305.6224  -17943788.62948 -13666720.38546  22889303.5744   22889310.0824
      3163.4074       2464.9864
  23858273.2544  -10341697.03447  -7471591.63645  23858270.9654   23858277.5894
      4067.1434       3169.2014
 00  7 16  0 38 29.9990000  0  6G29G20G11G25G 1G16
  24389654.7654  -25366191.15747 -19418342.31245  24389653.1964   24389661.2624
     -1662.3874      -1295.3714
  21313397.3654  -29683484.33748 -22848030.96747  21313395.0734   21313399.1554
      3262.5534       2542.2494
  21134159.2894  -34896604.18349 -26862584.91347  21134156.8014   21134161.3914
      -881.4764       -686.8654
  20791154.3714  -31352727.65749 -24401471.47047  20791152.6554   20791157.5564
      -122.8964        -95.7634
  22871274.2164  -18038543.08448 -13740554.87246  22871272.4824   22871279.1774
      3152.6284       2456.5874
  23835070.2704  -10463635.67747  -7566608.72345  23835067.4904   23835073.5944
      4061.1464       3164.5244
 00  7 16  0 38 59.9990000  0  6G29G20G11G25G 1G16
  24399128.7764  -25316403.06147 -19379546.19545  24399126.8394   24399135.0514
     -1660.5194      -1293.9174
  21294780.0444  -29781322.33548 -22924268.34347  21294777.1184   21294781.1334
      3256.2544       2537.3424
  21139221.5824  -34869999.27449 -26841853.81047  21139219.3894   21139224.3204
      -895.9374       -698.1334
  20791886.6224  -31348881.10349 -24398474.13447  20791884.8414   20791889.5504
      -137.1834       -106.8974
  22853277.7774  -18133116.85248 -13814248.56546  22853275.5344   22853281.8444
      3148.6014       2453.4514
  23811873.7414  -10585535.48247  -7661595.55045  23811870.6704   23811876.1344
      4061.8874       3165.1054
 00  7 16  0 39 29.9990000  0  5G20G11G25G 1G16
  21276219.2544  -29878855.78648 -23000268.42147  21276216.7044   21276220.9884
      3247.4004       2530.4414
  21144388.3734  -34842848.18849 -26820697.11047  21144386.2644   21144390.9374
      -912.7344       -711.2224
  20792721.6844  -31344493.16149 -24395054.95547  20792719.7104   20792724.3184
      -153.8584       -119.8894
  22835325.3254  -18227455.76248 -13887759.27446  22835322.9814   22835329.5174
      3142.1414       2448.4194
  23788694.1014  -10707340.96847  -7756508.87745  23788691.2204   23788697.1834
      4060.0014       3163.6414
 00  7 16  0 39 59.9990000  0  5G20G11G25G 1G16
  21257690.0274  -29976226.05248 -23076141.38247  21257687.8174   21257692.3074
      3244.0614       2527.8444
  21149631.5734  -34815296.34549 -26799228.13947  21149629.2854   21149633.7844
      -923.9504       -719.9614
  20793632.2124  -31339708.57249 -24391326.70547  20793630.3814   20793634.6984
      -164.9354       -128.5214
  22817390.1744  -18321702.99648 -13961198.54846  22817388.1544   22817395.5334
      3141.2024       2447.6864
  23765505.9954  -10829193.75447  -7851459.03245  23765503.8674   23765509.1994
      4063.7134       3166.5264
 00  7 16  0 40 29.9990000  0  5G20G11G25G 1G16
  21239201.2944  -30073387.75248 -23151851.87947  21239198.7874   21239203.3074
      3237.9154       2523.0544
  21154958.5574  -34787302.90349 -26777415.06047  21154956.3224   21154960.5684
      -937.7714       -730.7314
  20794626.4864  -31334486.01649 -24387257.17547  20794624.2484   20794628.3534
      -178.6654       -139.2184
  22799481.2564  -18415815.66648 -14034532.96546  22799479.2164   22799486.2274
      3137.5384       2444.8304
  23742317.0604  -10951049.80947  -7946411.72145  23742315.1264   23742320.9614
      4064.6464       3167.2514
 00  7 16  0 40 59.9990000  0  5G20G11G25G 1G16
  21220749.8054  -30170352.41348 -23227408.83747  21220747.5004   21220751.5144
      3230.4594       2517.2434
  21160366.5944  -34758883.11349 -26755269.76747  21160364.3794   21160368.8064
      -952.8394       -742.4724
  20795700.2434  -31328840.04049 -24382857.70647  20795698.2774   20795703.0034
      -193.6344       -150.8844
  22781596.0894  -18509806.82748 -14107772.70546  22781593.7744   22781600.0094
      3132.6684       2441.0354
  23719126.4984  -11072920.51047  -8041375.83745  23719123.9514   23719129.3504
      4064.2194       3166.9254
 00  7 16  0 41 29.9990000  0  5G20G11G25G 1G16
  21202348.8704  -30267052.52048 -23302759.68947  21202346.1934   21202349.7374
      3219.5914       2508.7764
  21165868.1184  -34729973.88349 -26732743.09247  21165865.7834   21165870.4614
      -971.1164       -756.7144
  20796867.3494  -31322706.47449 -24378078.28847  20796865.3334   20796870.2914
      -211.8594       -165.0854
  22763745.2834  -18603611.19648 -14180866.89246  22763743.1664   22763749.5154
      3124.4004       2434.5944
  23695944.0264  -11194739.48247  -8136299.67645  23695941.9554   23695947.8774
      4060.4484       3163.9914
 00  7 16  0 41 59.9990000  0  5G20G11G25G 1G16
  21183987.8284  -30363540.33148 -23377945.07347  21183985.0394   21183988.7164
      3209.1334       2500.6264
  21171451.3614  -34700632.23449 -26709879.47047  21171449.1264   21171453.9064
      -988.8324       -770.5194
  20798116.2594  -31316142.01249 -24372963.13147  20798114.3804   20798119.2654
      -229.5364       -178.8584
  22745919.5644  -18697283.26748 -14253857.99946  22745917.3694   22745923.5364
      3116.6164       2428.5274
  23672763.1764  -11316559.15447  -8231224.00745  23672760.8104   23672767.2134
      4057.0634       3161.3394
 00  7 16  0 42 29.9990000  0  5G20G11G25G 1G16
  21165685.8934  -30459717.88048 -23452888.72647  21165683.1964   21165686.9464
      3205.8654       2498.0794
  21177135.2424  -34670763.92149 -26686605.46247  21177132.9724   21177137.6574
      -999.2514       -778.6374
  20799465.5054  -31309051.82449 -24367438.30247  20799463.7844   20799468.5414
      -239.9294       -186.9584
  22728137.7214  -18790727.07248 -14326671.23746  22728135.3974   22728141.5424
      3116.1324       2428.1504
  23649600.0094  -11438282.48747  -8326073.28245  23649598.1814   23649603.9824
      4060.9454       3164.3714
 00  7 16  0 42 59.9990000  0  5G20G11G25G 1G16
  21147435.5804  -30555620.45248 -23527618.04647  21147433.1294   21147437.4274
      3196.6994       2490.9364
  21182911.3084  -34640408.81549 -26662952.13947  21182909.1814   21182914.0934
     -1015.3934       -791.2154
  20800907.7454  -31301475.02849 -24361534.30247  20800905.8784   20800910.5854
      -256.1084       -199.5654
  22710393.0564  -18883980.06348 -14399335.80746  22710390.3324   22710396.1304
      3109.8154       2423.2304
  23626448.5704  -11559945.30147  -8420875.41845  23626446.3444   23626452.3484
      4058.9764       3162.8394
 00  7 16  0 43 29.9990000  0  5G20G11G25G 1G16
  21129226.8504  -30651309.18748 -23602180.77747  21129224.5804   21129228.5494
      3188.5044       2484.5494
  21188768.2694  -34609632.20049 -26638970.37147  21188765.9014   21188770.6494
     -1030.4444       -802.9434
  20802430.1314  -31293476.06349 -24355301.34447  20802428.0154   20802432.5194
      -271.1504       -211.2874
  22692671.0304  -18977105.48448 -14471900.96946  22692668.8414   22692675.2254
      3104.5284       2419.1104
  23603296.5894  -11681609.54547  -8515678.69245  23603293.6754   23603299.4534
      4057.9244       3162.0184
 00  7 16  0 43 59.9990000  0  5G20G11G25G 1G16
  21111057.7014  -30746790.18048 -23676581.64647  21111055.1604   21111059.6234
      3180.2814       2478.1444
  21194702.8754  -34578444.32749 -26614668.14447  21194700.6054   21194705.6494
     -1045.3824       -814.5834
  20804030.5754  -31285065.02649 -24348747.28547  20804028.5264   20804033.0264
      -286.1524       -222.9754
  22674972.5284  -19070111.30648 -14544372.93646  22674970.6214   22674976.6554
      3099.2744       2415.0154
  23580142.1084  -11803281.58647  -8610488.03945  23580139.6204   23580145.3724
      4056.9244       3161.2304
 00  7 16  0 44 29.9990000  0  5G20G11G25G 1G16
  21092944.2594  -30841976.21749 -23750752.65547  21092941.9684   21092946.0624
      3166.5104       2467.4134
  21200731.6324  -34546762.61949 -26589981.11347  21200729.6624   21200734.5344
     -1065.7014       -830.4164
  20805725.1734  -31276158.07149 -24341806.82147  20805723.2664   20805728.2044
      -306.5474       -238.8674
  22657313.7524  -19162912.41648 -14616685.39746  22657311.2954   22657316.9624
      3088.5394       2406.6514
  23557004.5334  -11924874.80847  -8705235.96845  23557002.0144   23557007.2634
      4050.3714       3156.1334
 00  7 16  0 44 59.9990000  0  5G20G11G25G 1G16
  21074866.5454  -30936975.96949 -23824778.50847  21074864.2264   21074868.0954
      3161.5454       2463.5434
  21206833.2974  -34514700.01849 -26564997.29147  21206830.8864   21206835.7064
     -1077.1024       -839.3004
  20807492.5734  -31266867.90149 -24334567.74747  20807491.2004   20807496.0884
      -318.0274       -247.8144
  22639671.6514  -19255619.69248 -14688924.74146  22639669.1384   22639675.3574
      3086.7244       2405.2374
  23533860.8154  -12046498.75247  -8800007.85245  23533858.8174   23533863.1184
      4052.6604       3157.9174
 00  7 16  0 45 29.9990000  0  6G22G20G11G25G 1G16
  23583396.5634    -661832.20847   -195393.07145  23583392.0444   23583405.3434
      4160.2684       3241.7514
  21056842.2664  -31031694.49548 -23898585.22547  21056839.7964   21056843.6224
      3152.9224       2456.8224
  21213024.2124  -34482165.90449 -26539646.04747  21213022.1194   21213026.6834
     -1091.9654       -850.8814
  20809351.4874  -31257102.79449 -24326958.60247  20809349.5464   20809354.3144
      -333.0364       -259.5074
  22622065.5914  -19348140.27148 -14761018.60846  22622063.3094   22622069.3974
      3081.2704       2400.9864
  23510729.0234  -12168058.61947  -8894729.78545  23510726.4554   23510731.3114
      4051.2514       3156.8214
 00  7 16  0 45 59.9990000  0  6G22G20G11G25G 1G16
  23559661.8564    -786544.59147   -292570.94045  23559658.6274   23559673.5994
      4160.7944       3242.1594
  21038880.3504  -31126084.98448 -23972136.31047  21038877.9464   21038881.8104
      3146.7294       2451.9994
  21219313.0374  -34449117.92949 -26513894.40047  21219310.8274   21219315.3564
     -1104.2744       -860.4744
  20811308.2254  -31246819.81349 -24318945.92247  20811306.4164   20811311.2004
      -345.4964       -269.2174
  22604503.5124  -19440429.43148 -14832932.15346  22604501.3484   22604507.0404
      3078.3394       2398.7034
  23487617.7184  -12289508.63847  -8989366.13345  23487615.1644   23487620.8674
      4052.3954       3157.7104
 00  7 16  0 46 29.9990000  0  6G22G20G11G25G 1G16
  23535914.5464    -911339.31447   -389812.99445  23535912.0014   23535925.1404
      4158.6554       3240.4934
  21020941.1874  -31220358.57049 -24045596.30347  21020938.4664   21020942.2424
      3138.0094       2445.2034
  21225658.6394  -34415771.79349 -26487910.40447  21225656.3154   21225661.2234
     -1119.0034       -871.9504
  20813322.7764  -31236234.04149 -24310697.31147  20813320.9104   20813325.6054
      -360.3574       -280.7964
  22586944.7784  -19532700.83948 -14904831.85746  22586942.5544   22586948.5784
      3072.9654       2394.5144
  23464485.9834  -12411060.41447  -9084081.77745  23464483.5894   23464490.0214
      4050.9114       3156.5574
 00  7 16  0 46 59.9990000  0  6G22G20G11G25G 1G16
  23512192.7714   -1035996.23447   -486947.70945  23512190.2304   23512202.0854
      4153.1734       3236.2214
  21003064.9314  -31314295.94049 -24118794.31147  21003062.6214   21003066.9284
      3125.9324       2435.7934
  21232101.2434  -34381912.49349 -26461526.55447  21232099.1584   21232104.7584
     -1136.8724       -885.8734
  20815435.9114  -31225129.72449 -24302044.65547  20815433.9344   20815438.8944
      -378.4414       -294.8864
  22569431.4404  -19624737.15348 -14976548.37146  22569428.7224   22569434.8664
      3064.2564       2387.7294
  23441378.6134  -12532495.00047  -9178706.10045  23441375.3984   23441381.5554
      4046.1714       3152.8604
 00  7 16  0 47 29.9990000  0  6G22G20G11G25G 1G16
  23488480.4904   -1160600.97047   -584041.75545  23488479.0534   23488490.8094
      4151.1984       3234.6834
  20985237.2934  -31407984.32649 -24191798.31347  20985234.4974   20985238.5094
      3117.3764       2429.1274
  21238624.7874  -34347631.58549 -26434814.17747  21238622.6684   21238627.8694
     -1151.0934       -896.9544
  20817630.1154  -31213597.66449 -24293058.67947  20817628.2424   20817633.3594
      -392.8874       -306.1464
  22551944.8394  -19716627.63548 -15048151.25946  22551942.2944   22551948.1534
      3059.2014       2383.7894
  23418275.2094  -12653900.12247  -9273307.46145  23418272.6134   23418279.2944
      4044.9854       3151.9354
 00  7 16  0 47 59.9990000  0  6G22G20G11G25G 1G16
  23464787.9844   -1285109.30647   -681060.70045  23464785.1394   23464796.9084
      4153.8344       3236.7374
  20967464.0904  -31501380.88749 -24264574.95047  20967461.6394   20967465.6804
      3113.4934       2426.1034
  21245235.8694  -34312890.78749 -26407743.44647  21245233.7254   21245238.6824
     -1160.5414       -904.3164
  20819913.4244  -31201599.05849 -24283709.14547  20819911.6184   20819916.4454
      -402.5314       -313.6604
  22534493.5214  -19808331.53548 -15119608.76346  22534491.3494   22534497.0564
      3058.8474       2383.5144
  23395185.6684  -12775233.65847  -9367853.04045  23395183.9334   23395190.0644
      4048.4394       3154.6274
 00  7 16  0 48 29.9990000  0  6G22G20G11G25G 1G16
  23441094.5194   -1409614.44647   -778077.16945  23441091.8784   23441104.4254
      4149.0854       3233.0324
  20949729.0674  -31594579.80049 -24337197.51947  20949726.6814   20949730.5004
      3102.3754       2417.4364
  21251915.4634  -34277789.17449 -26380391.56247  21251913.3914   21251918.4464
     -1176.9894       -917.1334
  20822267.3334  -31189232.04449 -24274072.52247  20822265.2104   20822269.9214
      -419.2834       -326.7154
  22517060.4384  -19899945.45048 -15190996.16346  22517058.0604   22517063.6514
      3051.3474       2377.6724
  23372093.7594  -12896590.37047  -9462416.68145  23372090.9644   23372096.5684
      4044.6794       3151.6974
 00  7 16  0 48 59.9990000  0  6G22G20G11G25G 1G16
  23417425.6444   -1533991.21447   -874993.63145  23417423.3644   23417434.7234
      4146.1964       3230.7894
  20932055.3034  -31687456.84349 -24409569.24947  20932052.7034   20932056.7714
      3093.0914       2410.2004
  21258686.9324  -34242206.57349 -26352664.87547  21258684.6964   21258689.3584
     -1191.4864       -928.4314
  20824713.0454  -31176375.70049 -24264054.60047  20824711.4604   20824716.7034
      -434.0634       -338.2314
  22499667.0594  -19991347.03648 -15262218.09846  22499664.8394   22499670.5194
      3045.7624       2373.3194
  23349019.4344  -13017846.55847  -9556901.98845  23349016.6944   23349022.5754
      4042.8494       3150.2664
 00  7 16  0 49 29.9990000  0  6G22G20G11G25G 1G16
  23393771.6434   -1658291.65147   -971850.61945  23393769.4964   23393781.2544
      4147.2204       3231.5884
  20914432.2614  -31780064.97549 -24481731.40247  20914429.8264   20914434.2404
      3087.6084       2405.9274
  21265538.6524  -34206200.63649 -26324608.32147  21265536.4284   21265541.1994
     -1202.0974       -936.6994
  20827242.3474  -31163087.16249 -24253699.90747  20827240.2044   20827245.5144
      -444.9574       -346.7204
  22482304.4634  -20082591.45748 -15333317.57746  22482301.7894   22482306.8204
      3044.0164       2371.9584
  23325952.9714  -13139055.37447  -9651350.36145  23325950.5694   23325957.5794
      4044.6554       3151.6784
 00  7 16  0 49 59.9990000  0  6G22G20G11G25G 1G16
  23370113.1294   -1782625.09447  -1068733.35145  23370109.1964   23370120.4754
      4145.6204       3230.3414
  20896839.8434  -31872514.86149 -24553770.29247  20896837.4384   20896841.5674
      3079.7504       2399.8044
  21272448.9914  -34169886.57949 -26296311.65547  21272446.8494   21272451.4474
     -1214.8634       -946.6474
  20829831.1324  -31149480.65649 -24243097.42547  20829829.3754   20829834.2124
      -458.0714       -356.9384
  22464948.9794  -20173791.53448 -15404382.50046  22464946.5664   22464952.3134
      3039.9684       2368.8034
  23302874.8694  -13260328.67747  -9745848.97245  23302872.8914   23302879.3984
      4044.1804       3151.3104
 00  7 16  0 50 29.9990000  0  6G22G20G11G25G 1G16
  23346460.5264   -1906916.32447  -1165583.21645  23346458.0904   23346467.9244
      4138.4284       3224.7344
  20879291.0854  -31964732.87949 -24625628.42547  20879288.6504   20879292.9774
      3066.2374       2389.2744
  21279431.2734  -34133195.50149 -26267721.22147  21279429.0254   21279433.5474
     -1233.0884       -960.8484
  20832494.1644  -31135486.92949 -24232193.22247  20832492.2244   20832497.2504
      -476.6874       -371.4454
  22447615.8674  -20264875.83148 -15475357.21146  22447613.4104   22447619.3434
      3030.4024       2361.3494
  23279799.8794  -13381592.83147  -9840340.47446  23279797.5794   23279803.8254
      4038.1824       3146.6344
 00  7 16  0 50 59.9990000  0  6G22G20G11G25G 1G16
  23322825.4644   -2031115.99647  -1262361.73545  23322823.3754   23322833.7584
      4136.4304       3223.1714
  20861795.8104  -32056670.98049 -24697268.53647  20861793.5214   20861798.4074
      3058.0074       2382.8664
  21286493.4374  -34096083.59549 -26238802.87547  21286491.0504   21286495.5374
     -1246.0104       -970.9154
  20835239.0044  -31121061.25249 -24220952.41047  20835237.2684   20835242.5224
      -489.9584       -381.7874
  22430314.0004  -20355798.29148 -15546205.80946  22430311.5974   22430317.8814
      3026.1454       2358.0324
  23256734.0044  -13502799.97447  -9934787.51845  23256732.1944   23256738.5744
      4037.3744       3146.0024
 00  7 16  0 51 29.9990000  0  6G22G20G11G25G 1G16
  23299220.6944   -2155160.73147  -1359019.56345  23299218.2854   23299228.3734
      4131.9804       3219.7104
  20844365.5844  -32148266.39349 -24768641.62347  20844363.2334   20844367.9834
      3047.3384       2374.5494
  21293646.6164  -34058492.90349 -26209511.44247  21293644.3104   21293649.0074
     -1261.1354       -982.7024
  20838077.7204  -31106145.07449 -24209329.37647  20838075.9104   20838080.7064
      -505.4714       -393.8744
  22413053.8274  -20446498.58148 -15616881.28346  22413051.8544   22413058.3814
      3019.5234       2352.8724
  23233692.4394  -13623888.71547 -10029142.31845  23233689.7254   23233695.8474
      4034.1504       3143.4914
 00  7 16  0 51 59.9990000  0  6G22G20G11G25G 1G16
  23275634.7524   -2279104.39447  -1455598.64945  23275631.7504   23275641.8754
      4133.9634       3221.2504
  20826990.6794  -32239574.06349 -24839790.46347  20826988.1984   20826992.7124
      3043.0384       2371.1994
  21300879.5264  -34020482.71249 -26179893.12847  21300877.3814   21300882.4194
     -1269.7204       -989.3924
  20840998.5544  -31090796.87849 -24197369.69147  20840996.6324   20841001.2854
      -514.4994       -400.9104
  22395826.0254  -20537033.50148 -15687427.89746  22395823.8264   22395830.3164
      3019.3834       2352.7654
  23210662.2724  -13744913.85347 -10123447.54046  23210659.3424   23210666.0254
      4037.3854       3146.0104
 00  7 16  0 52 29.9980000  0  6G22G20G11G25G 1G16
  23252076.0964   -2402900.82747  -1552063.00845  23252073.7554   23252083.4324
      4126.0804       3215.1114
  20809678.8004  -32330550.42449 -24910681.10847  20809676.0884   20809680.3624
      3028.9604       2360.2284
  21308198.9504  -33982018.61449 -26149921.13147  21308196.8014   21308201.9134
     -1287.9714      -1003.6134
  20844007.9284  -31074980.17249 -24185044.92847  20844006.1934   20844011.2724
      -533.2324       -415.5074
  22378636.8814  -20627361.94648 -15757813.62346  22378634.5694   22378640.9684
      3009.4754       2345.0444
  23187652.5404  -13865831.73247 -10217669.17046  23187649.7324   23187655.5824
      4030.8234       3140.8984
 00  7 16  0 52 59.9980000  0  6G22G20G11G25G 1G16
  23228532.3754   -2526625.51547  -1648471.51245  23228529.6574   23228538.2634
      4124.7074       3214.0424
  20792414.9444  -32421270.31049 -24981371.96747  20792412.4934   20792417.0744
      3021.4994       2354.4134
  21315591.5034  -33943171.43649 -26119650.62647  21315589.3344   21315594.1804
     -1299.4284      -1012.5414
  20847093.3764  -31058767.22349 -24172411.42847  20847091.5494   20847096.4684
      -545.1314       -424.7794
  22361472.8754  -20717560.93448 -15828098.47346  22361470.4854   22361476.7334
      3006.2974       2342.5664
  23164647.4094  -13986719.24947 -10311867.14946  23164645.0134   23164652.1344
      4030.9064       3140.9654
 00  7 16  0 53 29.9980000  0  6G22G20G11G25G 1G16
  23205009.7534   -2650238.24447  -1744792.77345  23205005.6714   23205016.8684
      4117.0314       3208.0644
  20775207.3734  -32511695.40449 -25051832.99347  20775205.2134   20775209.8864
      3007.8134       2343.7464
  21323062.1664  -33903911.92349 -26089058.81347  21323060.0454   21323064.8254
     -1316.9774      -1026.2154
  20850259.9874  -31042127.43049 -24159445.28347  20850258.0144   20850262.8974
      -563.1994       -438.8584
  22344340.0954  -20807594.49848 -15898254.41146  22344337.5594   22344343.1924
      2996.9164       2335.2584
  23141656.6814  -14107537.94848 -10406011.50546  23141654.1044   23141660.6734
      4024.6904       3136.1194
 00  7 16  0 53 59.9980000  0  6G22G20G11G25G 1G16
  23181500.3384   -2773770.73947  -1841051.51745  23181498.3544   23181509.4594
      4113.4324       3205.2724
  20758049.9584  -32601858.37249 -25122089.76347  20758047.6344   20758052.4004
      2998.1414       2336.2104
  21330604.4164  -33864277.15449 -26058174.59847  21330602.0924   21330607.2714
     -1330.2984      -1036.5964
  20853500.6594  -31025096.62449 -24146174.42347  20853498.6894   20853503.6964
      -577.0664       -449.6644
  22327231.7834  -20897497.33848 -15968308.49646  22327229.4484   22327235.0494
      2991.7314       2331.2154
  23118672.5824  -14228320.81347 -10500127.94546  23118670.3344   23118675.6764
      4022.5734       3134.4704
 00  7 16  0 54 29.9980000  0  6G22G20G11G25G 1G16
  23158022.3664   -2897151.81147  -1937192.31145  23158019.4284   23158030.3604
      4112.1744       3204.2834
  20740955.7844  -32691689.14349 -25192087.67247  20740953.4404   20740958.2074
      2990.8844       2330.5544
  21338230.3974  -33824202.11649 -26026947.31847  21338228.1604   21338233.5454
     -1341.0754      -1044.9944
  20856828.2764  -31007609.26949 -24132547.83247  20856826.3514   20856831.3054
      -588.4014       -458.4974
  22310161.3514  -20987201.58448 -16038207.81546  22310158.8114   22310165.0754
      2988.9184       2329.0254
  23095708.5704  -14348998.40847 -10594162.38246  23095705.8044   23095711.2974
      4022.9034       3134.7254
 00  7 16  0 54 59.9980000  0  6G22G20G11G25G 1G16
  23134556.2734   -3020463.90247  -2033279.35045  23134553.7324   23134564.2824
      4107.3564       3200.5264
  20723908.5364  -32781271.97749 -25261892.42947  20723906.2254   20723911.3444
      2980.1314       2322.1794
  21345923.6334  -33783775.23049 -25995445.85847  21345921.4214   21345926.5424
     -1355.2474      -1056.0364
  20860225.9024  -30989753.44449 -24118634.12047  20860224.1244   20860228.9114
      -603.1154       -469.9614
  22293112.6424  -21076793.47148 -16108019.59046  22293109.9284   22293115.8514
      2982.7224       2324.2004
  23072748.1284  -14469655.01747 -10688180.46545  23072745.2894   23072750.8784
      4019.7474       3132.2664
 00  7 16  0 55 29.9980000  0  6G22G20G11G25G 1G16
  23111113.4294   -3143649.84747  -2129268.10645  23111110.6844   23111121.3314
      4106.1874       3199.6224
  20706919.7084  -32870551.05849 -25331460.53247  20706917.1224   20706921.6554
      2973.0154       2316.6354
  21353693.5624  -33742945.42449 -25963630.44847  21353691.0944   21353696.1944
     -1365.5634      -1064.0744
  20863704.2334  -30971476.78549 -24104392.51147  20863702.1324   20863706.6874
      -614.0724       -478.4994
  22276094.4294  -21166219.50048 -16177702.13446  22276092.5824   22276097.9924
      2980.2684       2322.2854
  23049802.1744  -14590235.26547 -10782139.03845  23049799.8944   23049804.6634
      4020.2384       3132.6514
 00  7 16  0 55 59.9980000  0  6G22G20G11G25G 1G16
  23087694.7564   -3266723.60547  -2225169.44345  23087691.7914   23087702.6694
      4099.6564       3194.5244
  20689985.1884  -32959541.01049 -25400803.32247  20689982.7814   20689986.9144
      2960.6594       2307.0064
  21361535.5244  -33701732.60649 -25931516.59447  21361533.4834   21361538.8874
     -1380.9964      -1076.1024
  20867258.0674  -30952798.28149 -24089837.76547  20867256.3974   20867261.0124
      -630.1504       -491.0284
  22259106.3164  -21255496.77948 -16247268.75146  22259104.0774   22259109.6004
      2972.5814       2316.2954
  23026868.3664  -14710754.72748 -10876050.25346  23026866.0054   23026870.8664
      4015.4084       3128.8914
 00  7 16  0 56 29.9980000  0  6G22G20G11G25G 1G16
  23064312.7734   -3389599.42447  -2320916.56545  23064309.9234   23064319.4654
      4101.1954       3195.7244
  20673121.9294  -33048157.21149 -25469854.82547  20673119.4834   20673124.0114
      2956.3254       2303.6274
  21369466.3424  -33660056.54549 -25899041.75347  21369464.0084   21369469.7524
     -1388.2024      -1081.7144
  20870904.5794  -30933637.36549 -24074907.11047  20870902.6164   20870907.2154
      -637.9894       -497.1364
  22242162.0584  -21344542.65948 -16316655.06146  22242159.3204   22242164.7744
      2973.0634       2316.6704
  23003961.7384  -14831128.69048 -10969848.10646  23003959.5484   23003964.8554
      4018.7224       3131.4694
 00  7 16  0 56 59.9980000  0  6G22G20G11G25G 1G16
  23040927.7994   -3512487.59747  -2416673.33645  23040924.2204   23040933.8304
      4094.5014       3190.5074
  20656289.7894  -33136611.23649 -25538780.05447  20656287.4434   20656291.9834
      2943.8204       2293.8864
  21377444.3864  -33618133.20749 -25866374.25347  21377442.1444   21377447.5014
     -1403.4764      -1093.6174
  20874601.0724  -30914209.52449 -24059768.46547  20874599.2394   20874604.1874
      -653.9474       -509.5714
  22225219.5434  -21433570.74548 -16386027.51246  22225217.3874   22225223.2524
      2965.4114       2310.7074
  22981043.1474  -14951569.26948 -11063697.87346  22981040.2154   22981045.5384
      4013.8564       3127.6804
 00  7 16  0 57 29.9980000  0  6G22G20G11G25G 1G16
  23017570.1424   -3635225.38847  -2512312.89745  23017566.6984   23017577.1774
      4089.9644       3186.9724
  20639519.0804  -33224741.59349 -25607452.98947  20639516.7354   20639521.0044
      2933.5674       2285.8934
  21385498.7574  -33575806.32049 -25833392.26047  21385496.5624   21385502.1344
     -1416.3074      -1103.6164
  20878378.8814  -30894357.59849 -24044299.38647  20878377.1184   20878381.8064
      -667.4724       -520.1104
  22208312.2554  -21522422.19048 -16455262.32346  22208309.8334   22208315.5454
      2960.0754       2306.5494
  22958142.1194  -15071915.71648 -11157474.29346  22958139.4794   22958144.7884
      4011.2974       3125.6854
 00  7 16  0 57 59.9980000  0  6G22G20G11G25G 1G16
  22994255.5694   -3757745.69147  -2607783.01145  22994252.9164   22994261.9584
      4082.3544       3181.0404
  20622822.5804  -33312482.67549 -25675822.57647  20622820.1004   20622824.7464
      2920.2784       2275.5394
  21393641.6364  -33533015.03449 -25800048.41747  21393639.3944   21393644.9264
     -1432.0534      -1115.8864
  20882249.1834  -30874019.48449 -24028451.45947  20882247.3324   20882251.7964
      -683.9394       -532.9404
  22191449.9644  -21611033.28848 -16524309.84546  22191447.5924   22191453.2914
      2951.7424       2300.0554
  22935271.0684  -15192102.95048 -11251126.65246  22935268.3594   22935273.5814
      4005.6134       3121.2534
 00  7 16  0 58 29.9980000  0  6G22G20G11G25G 1G16
  22970951.5954   -3880209.80747  -2703209.35445  22970948.3704   22970957.5534
      4078.2374       3177.8434
  20606169.1314  -33399997.04549 -25744015.56147  20606166.7064   20606171.3624
      2910.3964       2267.8404
  21401841.4114  -33489926.46649 -25766472.92147  21401838.9844   21401844.2904
     -1444.1654      -1125.3224
  20886180.0774  -30853361.96849 -24012354.66647  20886178.2194   20886182.7824
      -696.8044       -542.9654
  22174602.0814  -21699568.65748 -16593298.37146  22174599.8324   22174605.3284
      2946.9874       2296.3534
  22912399.1864  -15312293.30948 -11344781.44146  22912396.9184   22912402.2714
      4003.4864       3119.5994
 00  7 16  0 58 59.9980000  0  6G22G20G11G25G 1G16
  22947678.7444   -4002506.02747  -2798504.87745  22947676.3544   22947685.1154
      4073.3934       3174.0664
  20589580.0154  -33487173.79349 -25811945.48947  20589577.4094   20589581.8704
      2899.9714       2259.7184
  21410117.2454  -33446434.47748 -25732583.07547  21410115.1884   21410120.4884
     -1456.7244      -1135.1094
  20890192.1844  -30832278.19249 -23995925.73847  20890190.2464   20890194.6074
      -710.1504       -553.3644
  22157789.4834  -21787919.61948 -16662143.21146  22157786.8444   22157792.6314
      2941.7104       2292.2404
  22889548.0914  -15432376.51948 -11438352.75446  22889545.5694   22889551.0784
      4000.7104       3117.4384
 00  7 16  0 59 29.9980000  0  6G22G20G11G25G 1G16
  22924435.8284   -4124646.91047  -2893679.37745  22924433.5174   22924443.2654
      4066.0924       3168.3814
  20573052.1464  -33574026.56549 -25879622.96347  20573049.8694   20573053.9924
      2887.0704       2249.6604
  21418466.8954  -33402557.73448 -25698393.42647  21418464.7114   21418469.7714
     -1471.5854      -1146.6894
  20894282.1814  -30810785.64349 -23979178.30147  20894280.2654   20894284.7344
      -725.7884       -565.5504
  22141008.2714  -21876102.35948 -16730856.95846  22141006.0274   22141011.7194
      2934.0144       2286.2424
  22866715.3074  -15552366.76548 -11531851.63646  22866712.3804   22866717.7214
      3995.5204       3113.3934
 00  7 16  0 59 59.9980000  0  6G22G20G11G25G 1G16
  22901220.8964   -4246641.04247  -2988739.51245  22901218.4374   22901227.8994
      4064.4124       3167.0664
  20556584.4964  -33660565.51149 -25947055.84447  20556582.1274   20556586.8874
      2879.8484       2244.0374
  21426887.2554  -33358311.12248 -25663915.56047  21426884.9004   21426889.5974
     -1480.5964      -1153.7104
  20898447.3144  -30788898.61649 -23962123.50047  20898445.2834   20898449.9334
      -735.6524       -573.2354
  22124257.2924  -21964129.34148 -16799449.32846  22124255.0824   22124260.9114
      2932.0814       2284.7384
  22843896.8914  -15672274.51048 -11625286.24146  22843894.9424   22843900.5184
      3995.9744       3113.7484
 00  7 16  1  0 29.9980000  0  6G22G20G11G25G 1G16
  22878031.7534   -4368494.67147  -3083690.15345  22878029.5244   22878040.2094
      4065.1084       3167.6194
  20540175.2864  -33746798.50349 -26014250.32847  20540172.5724   20540176.7894
      2874.9984       2240.2554
  21435375.3124  -33313707.31048 -25629159.34847  21435372.8864   21435377.7304
     -1487.0544      -1158.7444
  20902684.9994  -30766628.79949 -23944770.42647  20902683.1304   20902687.8354
      -742.9864       -578.9494
  22107534.1104  -22052010.41348 -16867928.02046  22107531.8564   22107537.5634
      2932.6694       2285.1954
  22821093.8484  -15792107.94448 -11718662.92446  22821090.9764   22821096.7014
      3998.8714       3116.0014
 00  7 16  1  0 59.9980000  0  6G22G20G11G25G 1G16
  22854867.2284   -4490227.03847  -3178546.30145  22854864.9654   22854873.5154
      4056.8424       3161.1634
  20523819.2744  -33832745.66749 -26081222.08447  20523817.0134   20523821.7294
      2861.3114       2229.5944
  21443925.5464  -33268771.08748 -25594144.11547  21443923.4224   21443928.6734
     -1502.2214      -1170.5624
  20906990.7854  -30744000.63649 -23927138.12647  20906988.9834   20906993.9274
      -759.0084       -591.4334
  22090834.3874  -22139767.78848 -16936310.31146  22090832.0934   22090837.7164
      2924.3844       2278.7384
  22798300.1634  -15911887.35248 -11811997.52846  22798298.0024   22798302.6904
      3992.9444       3111.3854
 00  7 16  1  1 29.9980000  0  6G22G20G11G25G 1G16
  22831737.7294   -4611773.81247  -3273257.83545  22831735.6574   22831744.4384
      4051.8974       3157.3164
  20507530.4414  -33918343.57049 -26147921.74147  20507528.0174   20507532.9884
      2850.9164       2221.4914
  21452551.0644  -33223444.12048 -25558824.41347  21452548.9094   21452553.9204
     -1513.9174      -1179.6764
  20911376.0604  -30720954.75749 -23909180.34647  20911374.4704   20911379.3714
      -771.6344       -601.2724
  22074169.8074  -22227340.35748 -17004548.60446  22074167.6344   22074173.1574
      2919.5084       2274.9404
  22775529.1254  -16031549.77048 -11905240.98146  22775526.4444   22775531.5784
      3990.2894       3109.3134
 00  7 16  1  1 59.9980000  0  6G22G20G11G25G 1G16
  22808637.9144   -4733166.73447  -3367849.47445  22808634.8544   22808644.9354
      4040.0644       3148.0984
  20491302.4254  -34003625.49649 -26214375.18047  20491299.8024   20491304.5994
      2833.7574       2208.1234
  21461244.1254  -33177764.21848 -25523229.69947  21461241.9364   21461246.4784
     -1532.2244      -1193.9394
  20915834.4284  -30697528.42849 -23890926.11447  20915832.6944   20915837.2554
      -790.8634       -616.2564
  22057533.4944  -22314763.57948 -17072670.52646  22057531.2434   22057537.3924
      2907.9484       2265.9314
  22752773.6034  -16151128.82248 -11998419.44246  22752771.1074   22752777.3824
      3980.8844       3101.9894
 00  7 16  1  2 29.9980000  0  6G22G20G11G25G 1G16
  22785584.1104   -4854309.66347  -3462246.29845  22785581.4644   22785591.8884
      4034.6994       3143.9094
  20475151.6454  -34088496.58349 -26280508.44947  20475149.2454   20475153.9524
      2823.0004       2199.7394
  21470020.8494  -33131641.65648 -25487290.05547  21470018.6104   21470023.3734
     -1543.9744      -1203.0954
  20920382.4244  -30673630.66249 -23872304.55047  20920380.3754   20920384.8744
      -803.5854       -626.1694
  22040944.2634  -22401945.08648 -17140604.09146  22040941.7514   22040947.3254
      2902.8504       2261.9594
  22730052.4024  -16270530.09348 -12091459.36046  22730049.8174   22730056.0334
      3977.8844       3099.6494
 00  7 16  1  2 59.9980000  0  6G22G20G11G25G 1G16
  22762543.6314   -4975387.26347  -3556592.23545  22762540.9834   22762550.7644
      4031.3494       3141.3044
  20459044.0734  -34173142.99349 -26346466.68447  20459041.6884   20459045.9854
      2814.3454       2192.9974
  21478845.2354  -33085267.24948 -25451154.14847  21478843.2364   21478847.8854
     -1553.4124      -1210.4524
  20924983.2004  -30649451.78849 -23853463.95847  20924981.2474   20924986.0384
      -814.0464       -634.3184
  22024364.1774  -22489072.92048 -17208495.84246  22024361.7274   22024367.6194
      2899.9514       2259.7014
  22707329.4434  -16389940.02148 -12184506.05546  22707326.8364   22707332.8014
      3977.0254       3098.9804
 00  7 16  1  3 29.9980000  0  6G22G20G11G25G 1G16
  22739545.1064   -5096240.14847  -3650763.07545  22739542.8194   22739552.2654
      4028.5604       3139.1264
  20443009.5284  -34257406.25549 -26412126.41347  20443007.0984   20443010.9814
      2806.3284       2186.7504
  21487747.3444  -33038487.36548 -25414702.29047  21487745.1344   21487749.9764
     -1562.1204      -1217.2374
  20929666.9064  -30624837.18949 -23834283.83447  20929665.2894   20929669.9374
      -823.7534       -641.8844
  22007823.7714  -22575990.80648 -17276223.99846  22007821.7824   22007827.3834
      2897.7384       2257.9764
  22684634.2234  -16509200.37848 -12277436.17946  22684632.2374   22684638.5754
      3976.7964       3098.8044
 00  7 16  1  3 59.9980000  0  6G22G20G11G25G 1G16
  22716572.0724   -5216969.32447  -3744837.49045  22716568.9464   22716579.0574
      4023.4984       3135.1784
  20427028.5204  -34341388.31349 -26477567.01047  20427026.0154   20427029.5874
      2796.0124       2178.7124
  21496706.1964  -32991408.74548 -25378017.66547  21496704.0434   21496709.1814
     -1572.9214      -1225.6514
  20934414.1984  -30599893.52049 -23814847.27647  20934412.1764   20934416.8824
      -835.5854       -651.1044
  21991303.9474  -22662802.95648 -17343869.75946  21991301.7874   21991307.3724
      2893.3194       2254.5314
  22661949.6534  -16628413.52148 -12370329.52446  22661947.1254   22661952.9204
      3974.3134       3096.8694
 00  7 16  1  4 29.9980000  0  6G22G20G11G25G 1G16
  22693628.6784   -5337542.64247  -3838790.45545  22693625.3024   22693634.5704
      4014.0134       3127.7924
  20411106.2824  -34425058.58949 -26542764.66447  20411103.9384   20411107.5564
      2781.3904       2167.3164
  21505726.9324  -32944006.14248 -25341080.59547  21505724.4674   21505729.4864
     -1587.8854      -1237.3144
  20939228.1794  -30574594.06549 -23795133.43147  20939226.4214   20939231.3454
      -851.5994       -663.5834
  21974809.6204  -22749481.11448 -17411411.10146  21974807.2154   21974812.9444
      2884.6454       2247.7724
  22639278.2554  -16747548.68048 -12463162.09346  22639275.8644   22639282.0164
      3967.4924       3091.5514
 00  7 16  1  4 59.9980000  0  6G22G20G11G25G 1G16
  22670726.8954   -5457886.70447  -3932564.78745  22670724.6164   22670733.4704
      4008.7214       3123.6664
  20395257.7284  -34508345.14449 -26607663.32347  20395255.0914   20395258.9184
      2771.0064       2159.2274
  21514821.2974  -32896212.41048 -25303838.75147  21514819.2344   21514824.0594
     -1598.4264      -1245.5254
  20944123.0114  -30548870.88749 -23775089.42247  20944121.3344   20944126.0814
      -863.2394       -672.6534
  21958353.7584  -22835955.50748 -17478793.69046  21958351.6864   21958357.0134
      2880.3214       2244.4044
  22616637.5104  -16866534.87748 -12555878.58146  22616634.5204   22616639.6234
      3964.9634       3089.5834
 00  7 16  1  5 29.9980000  0  6G22G20G11G25G 1G16
  22647860.9314   -5578048.04347  -4026196.74745  22647858.1104   22647867.0874
      4007.9494       3123.0664
  20379472.0964  -34591295.60749 -26672300.03547  20379469.8664   20379473.9704
      2765.0794       2154.6074
  21523980.0114  -32848079.93048 -25266332.93947  21523978.1844   21523983.4654
     -1604.3914      -1250.1724
  20949088.9324  -30522775.71549 -23754755.52647  20949087.0364   20949091.6894
      -870.3334       -678.1834
  21941927.6084  -22922276.27148 -17546056.57146  21941925.3734   21941930.8774
      2880.4664       2244.5184
  22594013.9274  -16985419.99748 -12648516.31346  22594011.0994   22594016.3524
      3966.8104       3091.0224
 00  7 16  1  5 59.9980000  0  6G22G20G11G25G 1G16
  22625021.9954   -5698061.44847  -4119713.42845  22625019.4234   22625028.6574
      3998.2134       3115.4754
  20363745.0954  -34673945.80249 -26736702.77947  20363742.3384   20363746.3894
      2750.2644       2143.0634
  21533196.4004  -32799649.46648 -25228594.95447  21533194.2204   21533199.6144
     -1619.0184      -1261.5724
  20954117.9294  -30496348.58649 -23734162.94447  20954116.1564   20954120.8894
      -886.1314       -690.4924
  21925523.3764  -23008481.18348 -17613229.17246  21925521.2924   21925526.5994
      2871.8614       2237.8124
  22571402.9324  -17104239.82848 -12741103.15646  22571400.3874   22571406.1854
      3959.8774       3085.6134
 00  7 16  1  6 29.9980000  0  6G22G20G11G25G 1G16
  22602227.8354   -5817847.20047  -4213052.70745  22602225.3854   22602233.9064
      3988.9164       3108.2304
  20348088.9184  -34756217.23749 -26800810.41347  20348086.5194   20348090.3744
      2735.9104       2131.8784
  21542482.9884  -32750847.42148 -25190567.41347  21542480.8644   21542486.2474
     -1633.0514      -1272.5064
  20959224.0304  -30469514.78649 -23713253.45847  20959222.3254   20959227.2184
      -901.3314       -702.3364
  21909156.2764  -23094493.72048 -17680251.88746  21909153.9484   21909158.4254
      2863.7714       2231.5084
  22548819.4684  -17222916.07348 -12833578.12046  22548817.0624   22548822.4644
      3953.3404       3080.5244
 00  7 16  1  6 59.9980000  0  6G22G20G11G25G 1G16
  22579477.9764   -5937401.81847  -4306211.88445  22579475.1294   22579483.1554
      3981.5974       3102.5354
  20332505.5534  -34838107.89749 -26864621.32947  20332503.2454   20332507.2564
      2723.7054       2122.3674
  21551839.4214  -32701676.98748 -25152252.84946  21551837.3524   21551843.0374
     -1644.8054      -1281.6654
  20964407.7094  -30442276.72749 -23692028.97547  20964405.4854   20964410.5084
      -914.2864       -712.4314
  21892824.4694  -23180314.22448 -17747124.96646  21892822.1684   21892827.2914
      2857.8924       2226.9294
  22526263.8804  -17341447.17548 -12925939.98246  22526261.3134   22526266.8264
      3948.9994       3077.1424
 00  7 16  1  7 29.9980000  0  6G22G20G11G25G 1G16
  22556755.8414   -6056802.05647  -4399250.78645  22556753.6594   22556762.6214
      3974.3914       3096.9224
  20316980.1394  -34919696.20449 -26928196.64647  20316977.4184   20316981.3394
      2711.5774       2112.9184
  21561250.3434  -32652220.90348 -25113715.66446  21561248.4964   21561254.1654
     -1656.2444      -1290.5784
  20969652.0964  -30414716.85649 -23670553.73247  20969650.3034   20969654.8834
      -926.9434       -722.2944
  21876513.8914  -23266023.29848 -17813911.22146  21876512.1114   21876517.1344
      2852.1754       2222.4754
  22503720.9764  -17459911.54148 -13018249.84146  22503718.3434   22503723.7734
      3944.7234       3073.8104
 00  7 16  1  7 59.9980000  0  6G22G20G11G25G 1G16
  22534073.4284   -6175998.92247  -4492131.22745  22534070.3444   22534079.6244
      3969.8264       3093.3594
  20301520.4674  -35000934.16049 -26991498.94847  20301518.1294   20301521.9284
      2702.1714       2105.5854
  21570724.5544  -32602436.41848 -25074922.59346  21570722.4304   21570727.6964
     -1664.8614      -1297.2924
  20974966.0724  -30386791.33349 -23648793.55747  20974964.1034   20974968.7244
      -936.8164       -729.9864
  21860234.3274  -23351575.17748 -17880574.98246  21860232.3774   21860237.1174
      2849.2164       2220.1664
  22481198.9284  -17578261.56648 -13110470.60746  22481197.0124   22481202.4604
      3943.1324       3072.5684
 00  7 16  1  8 29.9980000  0  6G22G20G11G25G 1G16
  22511429.5944   -6294983.65247  -4584846.38545  22511428.0284   22511437.0024
      3961.5214       3086.8974
  20286129.6784  -35081813.89249 -27054522.10047  20286127.3424   20286131.4464
      2688.9784       2095.3074
  21580261.5084  -32552320.73348 -25035871.44446  21580259.3264   21580264.2964
     -1677.0734      -1306.8104
  20980349.8424  -30358496.50749 -23626745.60447  20980348.2184   20980353.0584
      -950.3104       -740.5024
  21843985.7134  -23436964.34148 -17947111.95346  21843983.4374   21843988.1264
      2842.5664       2214.9854
  22458701.5814  -17696489.66848 -13202596.39446  22458699.0344   22458704.4024
      3937.8654       3068.4654
 00  7 16  1  8 59.9980000  0  6G22G20G11G25G 1G16
  22488832.6894   -6413741.44347  -4677384.71245  22488829.4904   22488836.7734
      3963.0964       3088.1284
  20270809.7844  -35162321.86949 -27117255.58647  20270807.1944   20270811.1324
      2685.7844       2092.8164
  21589863.0544  -32501865.04748 -24996555.36346  21589861.0384   21589865.4994
     -1679.1254      -1308.4084
  20985806.0104  -30329822.66249 -23604402.35347  20985804.5294   20985809.7324
      -953.6914       -743.1354
  21827769.7544  -23522179.30748 -18013513.20446  21827767.6024   21827772.3824
      2846.0204       2217.6784
  22436228.5764  -17814582.39848 -13294616.67546  22436226.4364   22436232.7424
      3942.5534       3072.1194
 00  7 16  1  9 29.9980000  0  6G22G20G11G25G 1G16
  22466243.7794   -6532444.49347  -4769880.38345  22466240.5694   22466249.1294
      3956.0374       3082.6184
  20255527.3184  -35242631.97749 -27179834.86947  20255524.8924   20255529.0954
      2673.9184       2083.5724
  21599495.8344  -32451248.12348 -24957113.63146  21599493.3924   21599498.0304
     -1689.6744      -1316.6284
  20991300.9334  -30300947.80349 -23581902.46647  20991299.2464   20991304.5084
      -965.5594       -752.3834
  21811554.2684  -23607395.91848 -18079915.73446  21811551.7744   21811556.7014
      2840.8294       2213.6324
  22413749.3544  -17932713.74848 -13386667.05846  22413746.7324   22413752.9604
      3938.6174       3069.0504
 00  7 16  1  9 59.9980000  0  7G22G20G11G25G 1G16G19
  22443719.0594   -6650809.90547  -4862112.97445  22443716.8764   22443724.5844
      3941.1224       3070.9974
  20240335.8154  -35322462.85549 -27242040.75847  20240333.4174   20240337.5824
      2654.3824       2068.3494
  21609210.8904  -32400193.78948 -24917331.07746  21609208.6244   21609213.7764
     -1707.7524      -1330.7144
  20996887.0634  -30271594.97049 -23559030.15147  20996885.0014   20996890.0394
      -985.0034       -767.5324
  21795390.0094  -23692335.15048 -18146102.11046  21795387.7744   21795392.7234
      2828.0494       2203.6744
  22391315.3114  -18050602.84648 -13478528.66046  22391312.7384   22391318.8564
      3926.8954       3059.9154
  24213437.3344   -6483891.39457  -5024516.35245  24213434.9734   24213443.2334
      4354.4524       3393.0764
 00  7 16  1 10 29.9980000  0  7G22G20G11G25G 1G16G19
  22421223.0974   -6769025.74047  -4954229.01545  22421220.2644   22421229.0014
      3934.5854       3065.9034
  20225200.3024  -35402003.32649 -27304020.34747  20225197.5804   20225201.3004
      2643.0824       2059.5414
  21618972.3514  -32348895.81148 -24877358.67646  21618970.2414   21618975.5284
     -1717.3684      -1338.2074
  21002526.5924  -30241957.27149 -23535935.87147  21002524.8444   21002529.7004
      -996.0394       -776.1344
  21779242.4624  -23777188.30748 -18212221.43646  21779240.4004   21779245.5874
      2823.6304       2200.2314
  22368892.3204  -18168438.38148 -13570348.53246  22368889.8544   22368895.4504
      3923.5864       3057.3404
  24188570.7144   -6614563.44547  -5126338.56545  24188569.4124   24188577.5914
      4351.7174       3390.9354
 00  7 16  1 10 59.9980000  0  7G22G20G11G25G 1G16G19
  22398784.7174   -6886933.84647  -5046105.28545  22398783.2874   22398791.2034
      3923.8344       3057.5284
  20210148.3944  -35481096.51849 -27365651.34847  20210146.1884   20210150.8224
      2627.7044       2047.5594
  21628809.3604  -32297201.96648 -24837077.82646  21628807.3204   21628812.4074
     -1730.9794      -1348.8134
  21008249.6694  -30211881.76149 -23512500.42347  21008248.1484   21008252.8614
     -1011.0134       -787.8014
  21763141.8084  -23861800.46648 -18278152.96346  21763139.6564   21763144.8554
      2815.1394       2193.6134
  22346509.0034  -18286063.87548 -13662004.72346  22346506.5014   22346512.3874
      3916.0494       3051.4674
  24163741.9234   -6745044.58447  -5228011.99445  24163739.5514   24163748.3134
      4344.9384       3385.6574
 00  7 16  1 11 29.9980000  0  7G22G20G11G25G 1G16G19
  22376405.9884   -7004542.49547  -5137748.22745  22376403.2394   22376410.6624
      3919.3624       3054.0434
  20195181.6414  -35559751.79349 -27426941.16647  20195178.9634   20195183.1554
      2618.7224       2040.5624
  21638718.6404  -32245127.04348 -24796500.01346  21638716.6694   21638721.6164
     -1737.9684      -1354.2594
  21014054.2574  -30181382.21349 -23488734.57447  21014052.2654   21014057.0064
     -1019.4834       -794.4024
  21747084.3594  -23946183.30148 -18343905.78946  21747082.0454   21747087.0724
      2813.1554       2192.0664
  22324163.4394  -18403488.58448 -13753504.45746  22324161.0784   22324166.7964
      3915.0264       3050.6684
  24138946.7684   -6875344.82447  -5329544.45645  24138943.7614   24138952.0574
      4344.4804       3385.3014
 00  7 16  1 11 59.9980000  0  7G22G20G11G25G 1G16G19
  22354044.7604   -7122046.86147  -5229309.90445  22354042.2964   22354050.2624
      3909.4234       3046.2924
  20180259.3634  -35638166.19149 -27488043.29147  20180257.0464   20180261.3474
      2604.3334       2029.3484
  21648662.4224  -32192872.65548 -24755782.35246  21648660.4174   21648665.5244
     -1750.2314      -1363.8144
  21019900.4634  -30150659.23649 -23464794.60847  21019898.6954   21019903.6044
     -1033.2214       -805.1064
  21731032.8114  -24030535.97248 -18409635.11146  21731030.3684   21731035.2414
      2805.8164       2186.3484
  22301818.8634  -18520909.97248 -13845001.59946  22301816.5674   22301822.8374
      3908.5544       3045.6274
  24114147.4054   -7005661.58147  -5431089.80345  24114145.3954   24114153.9494
      4338.6694       3380.7764
 00  7 16  1 12 29.9980000  0  7G22G20G11G25G 1G16G19
  22331745.0714   -7239235.65547  -5320625.68045  22331742.2104   22331750.0474
      3905.4924       3043.2304
  20165423.1674  -35716129.79449 -27548794.16547  20165420.8304   20165425.6534
      2595.8604       2022.7494
  21658679.6824  -32140234.00048 -24714765.26246  21658677.6104   21658682.8524
     -1756.4294      -1368.6434
  21025828.3934  -30119507.29549 -23440520.40547  21025826.6894   21025831.5294
     -1040.9004       -811.0914
  21715025.7114  -24114650.86048 -18475179.14346  21715023.6174   21715029.2674
      2804.4794       2185.3084
  22279515.0984  -18638117.92048 -13936332.42246  22279512.3294   22279518.2134
      3907.9714       3045.1744
  24089385.3534   -7135785.53547  -5532484.89345  24089383.2984   24089391.7614
      4338.8374       3380.9064
 00  7 16  1 12 59.9980000  0  7G22G20G11G25G 1G16G19
  22309466.6204   -7356301.05747  -5411845.31345  22309464.9464   22309473.7324
      3900.4234       3039.2844
  20150636.5894  -35793835.75149 -27609344.26347  20150634.2224   20150638.5124
      2586.2004       2015.2204
  21668732.0744  -32087409.17848 -24673603.11546  21668729.8634   21668735.0844
     -1763.5934      -1374.2284
  21031800.3884  -30088123.67949 -23416065.65647  21031798.6174   21031803.2824
     -1049.6344       -817.8964
  21699027.1744  -24198723.23848 -18540690.06746  21699025.3314   21699030.8374
      2802.0234       2183.3934
  22257214.7184  -18755306.21748 -14027647.93046  22257212.1814   22257218.1994
      3906.2504       3043.8274
  24064622.5554   -7265910.35147  -5633880.67645  24064620.4254   24064629.5294
      4337.8444       3380.1344
 00  7 16  1 13 29.9980000  0  7G22G20G11G25G 1G16G19
  22287243.1534   -7473087.67547  -5502847.71645  22287240.3224   22287249.1994
      3884.0294       3026.5084
  20135928.0514  -35871129.79049 -27669573.38947  20135925.6954   20135929.8564
      2565.5254       1999.1104
  21678848.0244  -32034248.84748 -24632179.52746  21678845.7884   21678851.3644
     -1781.6434      -1388.2924
  21037845.0154  -30056358.31749 -23391313.42947  21037843.4794   21037847.9284
     -1069.2304       -833.1664
  21683066.2514  -24282600.93248 -18606049.27246  21683063.9114   21683068.4754
      2788.6324       2172.9594
  22234947.6454  -18872320.16148 -14118827.55946  22234945.1384   22234951.1534
      3893.4994       3033.8944
  24039890.3834   -7395882.29947  -5735157.30545  24039887.6494   24039895.6634
      4325.7714       3370.7214
 00  7 16  1 13 59.9980000  0  7G22G20G11G25G 1G16G19
  22265078.3574   -7589567.24947  -5593610.87745  22265075.5084   22265083.5234
      3876.4824       3020.6334
  20121303.3014  -35947984.94849 -27729460.50547  20121300.7724   20121304.8404
      2553.5274       1989.7604
  21689032.0934  -31980730.95648 -24590477.32646  21689029.9884   21689035.8454
     -1790.8934      -1395.4994
  21043967.1134  -30024188.32249 -23366245.91347  21043965.1944   21043969.6054
     -1080.0324       -841.5824
  21667147.1584  -24366259.03448 -18671237.36546  21667144.4584   21667148.7394
      2783.9554       2169.3154
  22212719.0784  -18989133.01748 -14209850.50546  22212716.8884   22212721.9994
      3889.3614       3030.6704
  24015191.8194   -7525674.47347  -5836293.86745  24015189.1784   24015197.0954
      4322.4104       3368.1034
 00  7 16  1 14 29.9980000  0  7G22G20G11G25G 1G16G19
  22242967.8514   -7705759.98847  -5684150.53945  22242964.8954   22242972.8094
      3869.9824       3015.5634
  20106757.1824  -36024423.19849 -27789022.76547  20106754.7884   20106759.2164
      2542.7264       1981.3444
  21699279.1384  -31926882.67848 -24548517.68446  21699277.0534   21699282.7784
     -1798.6894      -1401.5764
  21050160.6784  -29991640.06349 -23340883.63947  21050158.8754   21050163.5654
     -1089.4544       -848.9274
  21651264.0874  -24449721.84048 -18736273.29346  21651261.8784   21651266.0334
      2780.5914       2166.6934
  22190524.2774  -19105766.93848 -14300734.02946  22190521.9154   22190527.8504
      3886.5194       3028.4534
  23990523.0764   -7655309.64347  -5937308.08645  23990520.2644   23990527.5914
      4320.3034       3366.4594
 00  7 16  1 14 59.9980000  0  7G22G20G11G25G 1G16G19
  22220899.4444   -7821725.67647  -5774513.26045  22220897.0284   22220905.9624
      3859.2404       3007.1974
  20092279.0734  -36100505.78249 -27848307.86747  20092276.6304   20092280.9684
      2527.7204       1969.6504
  21709576.2044  -31872770.10148 -24506352.09646  21709574.1284   21709579.7964
     -1810.5504      -1410.8164
  21056414.3684  -29958778.57749 -23315277.28047  21056412.4954   21056417.2074
     -1102.9694       -859.4564
  21635406.6514  -24533052.69448 -18801206.41546  21635404.2124   21635408.9974
      2773.1254       2160.8754
  22168352.8124  -19222283.10448 -14391525.77846  22168349.6144   22168355.4644
      3879.5104       3022.9914
  23965871.3744   -7784849.38447  -6038247.93345  23965869.4094   23965878.3084
      4313.9824       3361.5334
 00  7 16  1 15 29.9980000  0  7G22G20G11G25G 1G16G19
  22198867.4804   -7937503.56347  -5864729.67045  22198864.8534   22198872.8204
      3853.8314       3002.9814
  20077861.0834  -36176272.77049 -27907347.03447  20077858.7664   20077863.6094
      2518.1504       1962.1934
  21719915.2624  -31818438.25148 -24464015.63846  21719913.3664   21719918.4034
     -1816.8584      -1415.7334
  21062718.7684  -29925648.32149 -23289461.49447  21062716.9934   21062721.6254
     -1110.9344       -865.6634
  21619565.8794  -24616294.00348 -18866069.74646  21619563.7784   21619569.1094
      2771.0684       2159.2744
  22146194.1934  -19338721.84748 -14482257.21346  22146191.6764   22146197.3284
      3877.8664       3021.7114
  23941229.6014   -7914334.35547  -6139145.09345  23941228.3624   23941237.0374
      4313.0234       3360.7904
 00  7 16  1 15 59.9980000  0  7G22G20G11G25G 1G16G19
  22176893.3654   -8052974.14147  -5954706.60245  22176891.2774   22176899.2344
      3846.6054       2997.3484
  20063525.6234  -36251605.74749 -27966048.01047  20063523.3574   20063527.9514
      2506.6054       1953.1964
  21730317.6524  -31763773.84848 -24421420.04246  21730315.4724   21730320.7744
     -1824.9334      -1422.0244
  21069096.4044  -29892134.66849 -23263346.95147  21069094.4624   21069098.7934
     -1120.7004       -873.2724
  21603764.9854  -24699329.13048 -18930772.41446  21603762.8074   21603768.7074
      2767.1694       2156.2364
  22124073.7754  -19454964.66148 -14572835.98246  22124071.5394   22124077.5494
      3874.2674       3018.9114
  23916623.2744   -8043646.61947  -6239907.72045  23916621.1504   23916631.3634
      4310.2634       3358.6374
 00  7 16  1 16 29.9980000  0  7G22G20G11G25G 1G16G19
  22154962.1534   -8168229.24047  -6044515.63645  22154959.3664   22154966.3784
      3839.1034       2991.4994
  20049255.4684  -36326598.06949 -28024483.51947  20049252.8624   20049257.1734
      2494.9784       1944.1364
  21740764.4014  -31708874.83448 -24378641.63946  21740762.3184   21740767.9144
     -1832.9414      -1428.2634
  21075528.2784  -29858335.38649 -23237009.84547  21075526.0664   21075530.6044
     -1130.4434       -880.8654
  21587985.4924  -24782253.73948 -18995388.95546  21587982.9344   21587988.1764
      2763.2274       2153.1624
  22101973.0414  -19571105.12548 -14663334.98846  22101970.8424   22101976.3444
      3870.5564       3016.0164
  23892030.6124   -8172880.45347  -6340609.20645  23892029.2724   23892037.6334
      4307.3684       3356.3884
 00  7 16  1 16 59.9980000  0  7G22G20G11G25G 1G16G19
  22133085.1704   -8283193.99947  -6134098.43845  22133082.8974   22133089.5444
      3829.5074       2984.0254
  20035063.6164  -36401176.67249 -28082596.68647  20035060.9884   20035065.5144
      2481.3074       1933.4854
  21751269.0794  -31653673.32548 -24335627.52846  21751267.1124   21751272.2424
     -1842.8234      -1435.9654
  21082026.6104  -29824181.57049 -23210396.49247  21082025.0934   21082029.9894
     -1142.0784       -889.9294
  21572239.6194  -24864996.82248 -19059864.06046  21572237.2454   21572242.6364
      2757.3624       2148.5944
  22079905.9664  -19687069.88848 -14753697.14046  22079903.3694   22079908.3804
      3864.8234       3011.5494
  23867467.3504   -8301962.98347  -6441192.81245  23867465.2344   23867474.6534
      4302.4214       3352.5304
 00  7 16  1 17 29.9980000  0  7G22G20G11G25G 1G16G19
  22111261.9584   -8397873.61347  -6223459.08545  22111259.2874   22111267.3174
      3816.3024       2973.7434
  20020949.1474  -36475347.95649 -28140392.43947  20020946.5644   20020950.6694
      2464.0604       1920.0444
  21761829.2614  -31598180.89948 -24292386.72346  21761827.1154   21761831.7474
     -1856.0914      -1446.3064
  21088591.7824  -29789683.47949 -23183514.87047  21088590.0474   21088594.7764
     -1157.1314       -901.6614
  21556526.9734  -24947566.87448 -19124204.32247  21556524.9994   21556529.4874
      2747.9514       2141.2584
  22057870.6274  -19802865.65148 -14843927.57946  22057867.8284   22057873.2884
      3855.4964       3004.2804
  23842931.7384   -8430901.02547  -6541663.82245  23842929.2484   23842938.8714
      4293.9994       3345.9654
 00  7 16  1 17 59.9980000  0  7G22G20G11G25G 1G16G19
  22089481.2254   -8512326.17647  -6312642.78545  22089479.0264   22089487.8834
      3809.4794       2968.4264
  20006900.9174  -36549171.20449 -28197917.01447  20006898.2604   20006902.2194
      2453.3134       1911.6714
  21772432.6804  -31542461.48648 -24248969.03446  21772430.4154   21772434.6884
     -1862.7344      -1451.4814
  21095210.2464  -29754904.40549 -23156414.31447  21095208.2784   21095212.9444
     -1165.5884       -908.2484
  21540836.3574  -25030025.27148 -19188457.58547  21540833.8424   21540838.4774
      2745.1104       2139.0474
  22035856.2054  -19918551.44548 -14934072.33846  22035853.8934   22035858.9144
      3852.6934       3002.0984
  23818410.5674   -8559754.05647  -6642068.61745  23818408.3224   23818417.0724
      4291.9904       3344.4034
 00  7 16  1 18 29.9980000  0  7G22G20G11G25G 1G16G19
  22067759.9404   -8626474.27247  -6401589.24145  22067757.4244   22067765.9104
      3798.4834       2959.8554
  19992933.9014  -36622569.87549 -28255110.74347  19992931.2194   19992935.0814
      2438.2934       1899.9674
  21783092.2794  -31486443.58148 -24205318.75946  21783090.0394   21783094.9984
     -1873.4864      -1459.8584
  21101895.6164  -29719772.20649 -23129038.59547  21101893.8824   21101898.2894
     -1178.1794       -918.0614
  21525179.2294  -25112297.49948 -19252565.76947  21525177.3534   21525183.1764
      2738.0564       2133.5484
  22013877.6084  -20034051.07248 -15024072.04346  22013875.0804   22013880.0354
      3845.5914       2996.5624
  23793921.1884   -8688446.26847  -6742348.10345  23793919.4824   23793928.4184
      4285.7854       3339.5674
 00  7 16  1 18 59.9980000  0  7G22G20G11G25G 1G16G19
  22046085.0934   -8740378.34347  -6490345.54245  22046082.7354   22046090.3584
      3794.8964       2957.0534
  19979034.7054  -36695606.22049 -28312022.15347  19979032.4604   19979036.7654
      2430.7184       1894.0654
  21793796.7334  -31430194.48248 -24161488.34046  21793794.2544   21793799.2094
     -1876.5674      -1462.2584
  21108635.7534  -29684353.32549 -23101439.48047  21108633.9014   21108638.2374
     -1183.1514       -921.9364
  21509546.9424  -25194448.14848 -19316579.20047  21509544.8174   21509550.2024
      2738.5714       2133.9504
  21991922.4054  -20149426.31548 -15113974.81446  21991919.8434   21991925.5964
      3845.9904       2996.8744
  23769450.9874   -8817040.18947  -6842551.00745  23769449.0264   23769456.4074
      4287.0544       3340.5594
 00  7 16  1 19 29.9970000  0  7G22G20G11G25G 1G16G19
  22024471.9494   -8853959.10547  -6578849.92845  22024468.9064   22024476.5074
      3781.6884       2946.7634
  19965219.8294  -36768203.89049 -28368591.75247  19965217.7494   19965221.4924
      2413.6754       1880.7864
  21804556.5444  -31373647.19548 -24117425.55646  21804554.5704   21804559.9974
     -1888.9864      -1471.9354
  21115443.6744  -29648579.01949 -23073563.42147  21115441.5454   21115446.2014
     -1197.4534       -933.0794
  21493951.9594  -25276402.31948 -19380439.53847  21493949.6044   21493954.5644
      2729.6304       2126.9834
  21970005.6574  -20264599.28548 -15203719.96346  21970002.9854   21970009.2294
      3836.8684       2989.7674
  23745013.7884   -8945458.32847  -6942616.93745  23745011.6424   23745019.0564
      4278.8364       3334.1524
 00  7 16  1 19 59.9970000  0  7G22G20G11G25G 1G16G19
  22002904.3124   -8967291.04947  -6667160.44145  22002901.7034   22002910.4374
      3773.2724       2940.2064
  19951475.2564  -36840435.82349 -28424876.37347  19951472.5204   19951476.2834
      2401.4164       1871.2334
  21815360.5244  -31316870.93548 -24073184.36146  21815358.3304   21815364.3314
     -1896.4654      -1477.7634
  21122305.2564  -29612519.42849 -23045465.07047  21122303.2684   21122308.1084
     -1206.8694       -940.4164
  21478378.7994  -25358235.91748 -19444205.91847  21478376.6824   21478381.9594
      2725.5744       2123.8224
  21948112.1324  -20379646.30748 -15293366.97746  21948109.9964   21948116.3214
      3832.5734       2986.4214
  23720595.0384   -9073777.77347  -7042605.96045  23720592.6874   23720601.2374
      4275.4094       3331.4774
 00  7 16  1 20 29.9970000  0  7G22G20G11G25G 1G16G19
  21981396.1204   -9080323.47447  -6755237.55745  21981393.3894   21981400.8284
      3755.8654       2926.6444
  19937808.2694  -36912253.73249 -28480838.36047  19937805.6984   19937809.6274
      2380.2544       1854.7434
  21826215.6974  -31259826.61048 -24028734.29046  21826213.7224   21826219.7994
     -1912.7134      -1490.4244
  21129228.7554  -29576133.62849 -23017112.52747  21129227.0564   21129232.3234
     -1225.0214       -954.5604
  21462837.8004  -25439902.41048 -19507842.08447  21462835.8784   21462841.2754
      2712.6924       2113.7864
  21926252.7964  -20494517.34748 -15382876.88246  21926250.4274   21926257.2394
      3819.3294       2976.1014
  23696204.4694   -9201948.96247  -7142479.45945  23696202.4754   23696210.5294
      4263.1554       3321.9354
 00  7 16  1 20 59.9970000  0  7G22G20G11G25G 1G16G19
  21959952.4134   -9193006.92947  -6843042.76145  21959949.7404   21959957.8414
      3749.7114       2921.8494
  19924229.6504  -36983609.41949 -28536440.19147  19924227.2964   19924231.1004
      2370.2884       1846.9774
  21837130.6414  -31202470.90448 -23984041.58046  21837128.5054   21837134.1414
     -1917.5454      -1494.1874
  21136223.5094  -29539377.54349 -22988471.46247  21136221.6714   21136226.8704
     -1231.8444       -959.8774
  21447338.2724  -25521355.62548 -19571312.08147  21447336.1664   21447340.8774
      2711.0304       2112.4894
  21904436.9824  -20609164.15848 -15472212.06646  21904434.6414   21904439.8844
      3817.3044       2974.5234
  23671851.8424   -9329924.06247  -7242200.16645  23671850.1654   23671857.7224
      4262.0174       3321.0474
 00  7 16  1 21 29.9970000  0  7G22G20G11G25G 1G16G19
  21938562.0814   -9305416.54947  -6930634.58746  21938559.2724   21938567.0504
      3743.9744       2917.3834
  19910724.5584  -37054579.68149 -28591741.68547  19910722.0954   19910726.2874
      2360.8634       1839.6344
  21848088.4544  -31144885.72648 -23939170.06446  21848086.3044   21848092.6764
     -1921.6964      -1497.4224
  21143273.1254  -29502332.12349 -22959604.93847  21143271.4034   21143276.1944
     -1238.0024       -964.6764
  21431863.2694  -25602674.44148 -19634677.34947  21431861.1944   21431866.4434
      2710.0284       2111.7104
  21882649.0234  -20723663.31348 -15561432.21146  21882646.4064   21882651.5744
      3815.7944       2973.3494
  23647520.9404   -9457780.46447  -7341828.40245  23647518.7294   23647527.2984
      4261.4664       3320.6214
 00  7 16  1 21 59.9970000  0  7G22G20G11G25G 1G16G19
  21917227.6754   -9417526.58047  -7017992.96646  21917225.0104   21917233.0754
      3731.1534       2907.3884
  19897296.9874  -37125140.29449 -28646723.96147  19897294.6824   19897299.1014
      2344.4094       1826.8114
  21859094.5424  -31087051.88248 -23894104.79046  21859092.1854   21859098.0464
     -1932.6874      -1505.9874
  21150381.4954  -29464977.18849 -22930497.24647  21150379.8284   21150384.4054
     -1251.0454       -974.8394
  21416418.8434  -25683836.80848 -19697920.70647  21416416.7034   21416421.9744
      2702.0514       2105.4934
  21860892.4944  -20837990.54648 -15650518.39446  21860890.3944   21860896.0404
      3807.2574       2966.6964
  23623218.2014   -9585494.27547  -7441345.53145  23623216.3674   23623224.1014
      4253.9634       3314.7734
 00  7 16  1 22 29.9970000  0  7G22G20G11G25G 1G16G19
  21895945.4474   -9529364.49947  -7105139.32446  21895943.2474   21895950.3564
      3723.4124       2901.3624
  19883942.4804  -37195320.02849 -28701409.44147  19883940.2204   19883944.1704
      2333.0804       1817.9844
  21870140.6994  -31029002.88448 -23848871.86146  21870138.6054   21870144.1084
     -1938.4144      -1510.4524
  21157542.6234  -29427345.75649 -22901174.09147  21157540.6074   21157545.3284
     -1258.8194       -980.8964
  21400998.0504  -25764873.56248 -19761066.18247  21400995.9124   21401001.6464
      2699.2744       2103.3294
  21839165.1514  -20952174.48648 -15739492.94646  21839162.5084   21839167.3124
      3803.8374       2964.0314
  23598936.6564   -9713094.58947  -7540774.22645  23598934.7784   23598941.7124
      4251.5674       3312.9084
 00  7 16  1 22 59.9970000  0  7G22G20G11G25G 1G16G19
  21874722.2934   -9640890.51247  -7192042.64746  21874719.6504   21874727.5384
      3713.0994       2893.3224
  19870667.7364  -37265080.01649 -28755767.86747  19870665.2564   19870669.3574
      2319.1664       1807.1434
  21881234.2764  -30970705.08048 -23803445.05846  21881232.2324   21881238.0414
     -1946.5494      -1516.7904
  21164762.6444  -29389403.10849 -22871608.42847  21164760.6014   21164765.9434
     -1269.0574       -988.8744
  21385608.2764  -25845747.91048 -19824085.11347  21385606.0414   21385611.8094
      2693.9704       2099.1974
  21817471.5014  -21066176.09548 -15828325.43246  21817468.6484   21817473.7264
      3797.8514       2959.3684
  23574684.3544   -9840543.34147  -7640084.83645  23574681.8174   23574688.9914
      4246.5864       3309.0294
 00  7 16  1 23 29.9970000  0  7G22G20G11G25G 1G16G19
  21853564.1544   -9752078.16747  -7278682.31846  21853561.6874   21853569.6194
      3699.1464       2882.4494
  19857477.6224  -37334395.15049 -28809779.63547  19857475.0694   19857479.4014
      2301.6564       1793.4974
  21892379.5244  -30912138.12248 -23757808.51246  21892377.4834   21892383.0094
     -1958.1174      -1525.8044
  21172046.1054  -29351128.00349 -22841783.74347  21172044.2444   21172049.3784
     -1282.7524       -999.5464
  21370253.7174  -25926436.68548 -19886959.45447  21370251.5704   21370256.4524
      2685.1364       2092.3134
  21795816.4894  -21179970.42448 -15916996.41646  21795814.1484   21795819.4794
      3788.2814       2951.9074
  23550464.5894   -9967815.81947  -7739258.12345  23550461.7704   23550470.2354
      4238.0554       3302.3794
 00  7 16  1 23 59.9970000  0  7G22G20G11G25G 1G16G19
  21832458.8454   -9862990.28747  -7365107.29746  21832456.1174   21832463.8824
      3687.4634       2873.3494
  19844359.3214  -37403329.93949 -28863495.03547  19844357.0264   19844361.4144
      2286.5614       1781.7364
  21903562.1984  -30853371.53648 -23712016.43846  21903560.2114   21903565.7024
     -1967.1404      -1532.8344
  21179379.9904  -29312588.69549 -22811753.15647  21179378.1254   21179383.1924
     -1293.9414      -1008.2644
  21354921.7804  -26007006.40148 -19949741.04147  21354919.6254   21354924.5134
      2678.7424       2087.3304
  21774189.1994  -21293621.89748 -16005556.15646  21774186.7394   21774192.2674
      3781.0894       2946.3084
  23526265.3054  -10094977.12947  -7838344.78045  23526263.9974   23526272.1124
      4231.9404       3297.6154
 00  7 16  1 24 29.9970000  0  7G22G20G11G25G 1G16G19
  21811406.2804   -9973622.39948  -7451314.06846  21811403.0894   21811411.3264
      3686.7414       2872.7824
  19831314.5404  -37471881.51049 -28916911.82447  19831312.2944   19831316.3534
      2282.3464       1778.4514
  21914782.6144  -30794407.24248 -23666070.29346  21914780.5474   21914786.2844
     -1965.0684      -1531.2224
  21186763.5134  -29273786.87349 -22781517.99847  21186762.0814   21186766.8714
     -1294.0014      -1008.3124
  21339613.0024  -26087456.13348 -20012429.12247  21339610.8424   21339615.2644
      2683.3264       2090.9034
  21752590.1964  -21407126.84548 -16094001.70346  21752588.0964   21752593.2634
      3784.7504       2949.1594
  23502089.4404  -10222024.77447  -7937342.85445  23502087.4954   23502096.3704
      4236.6794       3301.3054
 00  7 16  1 24 59.9970000  0  7G22G20G11G25G 1G16G19
  21790421.5184  -10083898.24748  -7537243.26946  21790418.0654   21790427.2714
      3672.4244       2861.6284
  19818356.6274  -37539974.92349 -28969971.62247  19818354.4724   19818358.6274
      2264.6884       1764.6924
  21926054.5874  -30735175.35348 -23619915.65146  21926052.4824   21926058.1334
     -1976.3004      -1539.9704
  21194211.1314  -29234651.77249 -22751023.12247  21194209.3674   21194214.2014
     -1307.4764      -1018.8114
  21324340.5834  -26167712.98148 -20074966.90947  21324338.4194   21324343.2444
      2674.5524       2084.0664
  21731032.9024  -21520410.57048 -16182274.83246  21731030.3284   21731036.5544
      3774.9614       2941.5304
  23477949.0254  -10348884.34547  -8036194.37445  23477947.3624   23477955.6414
      4228.0874       3294.6094
 00  7 16  1 25 29.9970000  0  7G22G20G11G25G 1G16G19
  21769498.0254  -10193848.78548  -7622918.96646  21769495.1764   21769503.1354
      3658.3204       2850.6364
  19805480.1114  -37607642.02249 -29022699.22147  19805477.8164   19805482.2644
      2247.2644       1751.1144
  21937369.7934  -30675712.57648 -23573581.08346  21937367.7334   21937373.5094
     -1987.1114      -1548.3974
  21201715.0744  -29195218.94749 -22720296.25247  21201713.2734   21201717.9794
     -1320.5324      -1028.9854
  21309098.2374  -26247810.68648 -20137380.67947  21309095.9084   21309101.4104
      2666.1164       2077.4904
  21709511.7174  -21633504.38048 -16270399.99246  21709509.3624   21709515.5584
      3765.4424       2934.1154
  23453839.1264  -10475587.94447  -8134924.35445  23453837.1584   23453844.7164
      4219.6454       3288.0274
 00  7 16  1 25 59.9970000  0  7G22G20G11G25G 1G16G19
  21748636.5364  -10303477.85248  -7708344.14246  21748634.1474   21748641.0464
      3651.9984       2845.7124
  19792684.1694  -37674888.07849 -29075098.72947  19792681.5704   19792685.5544
      2237.6654       1743.6334
  21948727.2674  -30616028.98348 -23527074.44746  21948725.2404   21948731.1434
     -1989.9454      -1550.6064
  21209274.1924  -29155497.44049 -22689344.42047  21209272.0494   21209276.6884
     -1325.6634      -1032.9834
  21293884.9614  -26327756.46148 -20199676.06347  21293882.9454   21293888.6834
      2665.5124       2077.0204
  21688026.2554  -21746413.42748 -16358381.12046  21688023.4984   21688030.1224
      3763.6884       2932.7454
  23429755.3634  -10602141.08747  -8233537.04945  23429753.6654   23429762.2194
      4219.0794       3287.5854
 00  7 16  1 26 29.9970000  0  7G22G20G11G25G 1G16G19
  21727833.7084  -10412799.90748  -7793530.11146  21727831.0164   21727838.1464
      3642.8854       2838.6084
  19779964.4244  -37741729.15949 -29127182.67147  19779961.8614   19779966.2324
      2225.2724       1733.9764
  21960121.8444  -30556146.04048 -23480412.47046  21960120.2394   21960126.4784
     -1995.4214      -1554.8764
  21216883.8044  -29115508.18248 -22658183.92947  21216881.6634   21216886.0834
     -1333.4204      -1039.0294
  21278697.5104  -26407568.65848 -20261867.36547  21278695.2804   21278700.6654
      2662.1904       2074.4334
  21666572.1354  -21859153.86248 -16446230.88246  21666569.5684   21666576.0194
      3759.1994       2929.2494
  23405700.2024  -10728560.70847  -8332045.74745  23405697.6894   23405705.2854
      4215.7334       3284.9814
 00  7 16  1 26 59.9970000  0  7G22G20G11G25G 1G16G19
  21707093.3424  -10521786.54548  -7878454.70546  21707091.0264   21707099.3314
      3629.2724       2828.0044
  19767327.4544  -37808138.57949 -29178930.25747  19767324.7324   19767328.8654
      2208.4994       1720.9084
  21971559.1004  -30496041.30648 -23433577.67846  21971557.5224   21971563.8954
     -2005.0874      -1562.4034
  21224548.4864  -29075227.90548 -22626796.66447  21224546.7134   21224551.1134
     -1345.4284      -1048.3874
  21263539.9034  -26487222.41948 -20323935.21447  21263537.4384   21263542.8074
      2654.5754       2068.4994
  21645155.8114  -21971698.99248 -16533928.48546  21645153.0754   21645159.5204
      3750.2824       2922.3034
  23381672.8604  -10854820.29347  -8430429.74545  23381670.9174   23381678.7084
      4208.0554       3279.0034
 00  7 16  1 27 29.9970000  0  7G22G20G11G25G 1G16G19
  21686400.2764  -10630534.42048  -7963193.24746  21686397.2024   21686404.7074
      3616.7054       2818.2154
  19754753.7184  -37874213.99149 -29230417.57747  19754751.0274   19754755.1154
      2192.7774       1708.6584
  21983019.6384  -30435817.73448 -23386650.26146  21983017.8164   21983023.7984
     -2013.5804      -1569.0234
  21232249.7684  -29034758.38048 -22595261.94447  21232247.9064   21232252.4074
     -1356.2844      -1056.8454
  21248392.6964  -26566817.51248 -20385957.34547  21248390.7544   21248396.1774
      2648.1004       2063.4534
  21623757.7394  -22084145.59948 -16621549.32646  21623755.6344   21623761.4034
      3742.4024       2916.1634
  23357657.6874  -10981018.12647  -8528765.61045  23357655.6574   23357664.2514
      4201.3744       3273.7904
 00  7 16  1 27 59.9970000  0  7G22G20G11G25G 1G16G19
  21665777.0454  -10738907.27748  -8047639.57246  21665774.3364   21665781.6364
      3608.7884       2812.0414
  19742269.4804  -37939820.16649 -29281539.26347  19742266.7304   19742270.4284
      2181.7434       1700.0604
  21994527.6064  -30375344.99948 -23339528.70746  21994525.6624   21994531.5334
     -2017.1954      -1571.8354
  21240012.1134  -28993968.35448 -22563477.49047  21240010.0944   21240014.4444
     -1362.2514      -1061.4954
  21233283.3564  -26646220.55448 -20447829.83647  21233281.0404   21233286.4864
      2646.2754       2062.0334
  21602404.4184  -22196358.53948 -16708988.10346  21602402.0814   21602407.6514
      3739.2334       2913.6944
  23333680.7164  -11107019.39247  -8626948.30645  23333678.8014   23333686.2734
      4199.4114       3272.2704
 00  7 16  1 28 29.9970000  0  7G22G20G11G25G 1G16G19
  21645234.4554  -10846858.59248  -8131757.44246  21645231.9594   21645238.4284
      3590.6644       2797.9214
  19729882.9354  -38004912.15849 -29332260.28747  19729880.2174   19729883.7814
      2160.5344       1683.5334
  22006089.9334  -30314582.79348 -23292181.62846  22006088.0194   22006094.0114
     -2030.8174      -1582.4534
  21247842.7534  -28952816.92449 -22531411.41247  21247840.8224   21247845.2514
     -1378.2944      -1073.9944
  21218218.4634  -26725388.42348 -20509519.07147  21218216.0234   21218221.2024
      2634.4224       2052.7964
  21581104.6404  -22308292.50248 -16796209.50246  21581102.0014   21581107.5264
      3725.8764       2903.2864
  23309749.9894  -11232779.35847  -8724942.99045  23309746.7714   23309754.6484
      4187.3434       3262.8664
 00  7 16  1 28 59.9970000  0  7G22G20G11G25G 1G16G19
  21624770.6044  -10954395.19548  -8215552.16346  21624768.2894   21624775.0434
      3581.1044       2790.4694
  19717592.3884  -38069498.58449 -29382587.36347  19717589.8694   19717593.6174
      2147.9894       1673.7574
  22017705.4514  -30253544.85548 -23244619.65546  22017703.5924   22017709.5694
     -2035.6224      -1586.1964
  21255739.6514  -28911316.77449 -22499073.63247  21255738.0854   21255742.5054
     -1385.5684      -1079.6634
  21203196.0234  -26804331.57348 -20571033.18647  21203193.7004   21203198.7964
      2631.2684       2050.3384
  21559855.9654  -22419955.50348 -16883219.70646  21559853.5234   21559858.6614
      3721.1354       2899.5884
  23285862.6924  -11358307.46047  -8822757.01245  23285860.6034   23285867.4544
      4183.8854       3260.1714
 00  7 16  1 29 29.9970000  0  7G22G20G11G25G 1G16G19
  21604364.9314  -11061631.57148  -8299112.93946  21604362.3594   21604368.9274
      3563.9004       2777.0604
  19705375.8854  -38133695.26349 -29432610.75147  19705373.6124   19705377.3394
      2127.7934       1658.0194
  22029351.1914  -30192351.77448 -23196936.78946  22029348.7784   22029354.2204
     -2047.9084      -1595.7694
  21263680.5734  -28869587.66048 -22466557.43147  21263678.7564   21263683.4314
     -1400.2984      -1091.1414
  21188193.7024  -26883167.99748 -20632464.13247  21188191.3794   21188196.8774
      2620.5414       2041.9784
  21538636.6794  -22531463.27348 -16970108.90246  21538634.1074   21538639.7014
      3708.7454       2889.9324
  23261996.8714  -11483719.79247  -8920480.80945  23261995.0764   23262001.3434
      4172.8994       3251.6094
 00  7 16  1 29 59.9970000  0  7G22G20G11G25G 1G16G19
  21584024.8204  -11168520.98348  -8382403.33346  21584021.5464   21584028.6324
      3557.3954       2771.9954
  19693242.2044  -38197456.68549 -29482294.96147  19693239.8724   19693243.9434
      2118.3984       1650.6994
  22041032.2044  -30130962.85648 -23149101.31246  22041030.0914   22041036.4034
     -2049.2384      -1596.8104
  21271673.1314  -28827588.22548 -22433830.59247  21271670.9444   21271675.7384
     -1404.1534      -1094.1454
  21173220.2304  -26961854.12248 -20693777.96747  21173218.0494   21173223.6464
      2620.6804       2042.0884
  21517456.1854  -22642770.37648 -17056841.77446  21517453.4714   21517458.7384
      3707.1794       2888.7164
  23238162.9804  -11608970.95347  -9018079.02145  23238160.8034   23238167.4124
      4172.6104       3251.3794
 00  7 16  1 30 29.9970000  0  7G22G20G11G25G 1G16G19
  21563762.0354  -11274994.99548  -8465370.04546  21563760.0474   21563766.9684
      3543.5844       2761.2324
  19681204.1034  -38260715.42249 -29531587.47347  19681202.1174   19681205.8884
      2101.6894       1637.6784
  22052763.8404  -30069315.53348 -23101064.49646  22052761.6314   22052767.2194
     -2057.7684      -1603.4534
  21279728.9454  -28785255.06348 -22400843.74547  21279726.7404   21279731.3664
     -1415.1764      -1102.7334
  21158287.7724  -27040324.18448 -20754923.45547  21158285.5264   21158290.7484
      2613.5224       2036.5104
  21496325.7114  -22753808.56748 -17143365.10746  21496323.3144   21496328.5984
      3698.2334       2881.7414
  23214371.9244  -11733994.09547  -9115499.54945  23214369.6544   23214376.7864
      4165.0904       3245.5204
 00  7 16  1 30 59.9970000  0  7G22G20G11G25G 1G16G19
  21543563.0294  -11381145.60548  -8548084.75746  21543560.5054   21543566.8274
      3532.2294       2752.3834
  19669244.7304  -38323565.17249 -29580561.30047  19669242.1464   19669246.1264
      2087.5104       1626.6314
  22064525.4914  -30007508.49748 -23052903.24346  22064523.0694   22064528.9084
     -2063.5184      -1607.9344
  21287829.3544  -28742685.38148 -22367672.59347  21287827.4174   21287831.9054
     -1423.5464      -1109.2564
  21143377.7784  -27118673.67648 -20815974.98347  21143375.8504   21143380.9824
      2609.0074       2032.9914
  21475229.4774  -22864671.50148 -17229751.80146  21475227.1884   21475232.7294
      3691.8314       2876.7524
  23190605.9194  -11858883.70947  -9212816.02345  23190603.2924   23190610.2934
      4160.1284       3241.6504
 00  7 16  1 31 29.9970000  0  7G22G20G11G25G 1G16G19
  21523432.8864  -11486930.86948  -8630514.76546  21523430.1884   21523437.2274
      3515.4544       2739.3144
  19657370.2044  -38385965.62049 -29629185.01747  19657367.8104   19657372.1504
      2067.9574       1611.3944
  22076324.3454  -29945506.27748 -23004589.90446  22076322.0144   22076327.5094
     -2074.5324      -1616.5154
  21295981.7094  -28699843.25148 -22334289.12947  21295979.9984   21295984.6574
     -1437.0994      -1119.8154
  21128499.0014  -27196864.41448 -20876902.81247  21128496.7794   21128502.3724
      2599.1724       2025.3294
  21454174.4854  -22975317.99848 -17315969.81846  21454171.9384   21454177.3814
      3680.0574       2867.5754
  23166872.4544  -11983600.07447  -9309997.48145  23166870.8714   23166877.5254
      4149.7494       3233.5664
 00  7 16  1 31 59.9970000  0  7G22G20G11G25G 1G16G19
  21503359.3194  -11592419.38548  -8712713.55246  21503356.2794   21503363.7584
      3513.4304       2737.7384
  19645567.9474  -38447986.91849 -29677513.29447  19645565.4984   19645569.5164
      2063.2104       1607.6974
  22088144.8174  -29883383.64848 -22956182.68946  22088143.1954   22088148.9394
     -2070.5724      -1613.4324
  21304172.3764  -28656802.65448 -22300751.03547  21304170.4124   21304174.8674
     -1435.7834      -1118.7894
  21113636.7544  -27274968.37348 -20937763.02647  21113634.6404   21113639.4864
      2604.2294       2029.2684
  21433146.8844  -23085818.32048 -17402073.92046  21433144.3834   21433150.1374
      3683.0834       2869.9334
  23143158.8654  -12108213.31547  -9407098.58245  23143157.0094   23143164.9114
      4154.2254       3237.0524
 00  7 16  1 32 29.9970000  0  7G22G20G11G25G 1G16G19
  21483370.2834  -11697458.44448  -8794562.11446  21483367.9104   21483375.4194
      3493.8614       2722.4854
  19633866.6584  -38509477.31749 -29725427.88447  19633864.1314   19633868.4984
      2040.9734       1590.3694
  22100018.2294  -29820993.82648 -22907567.30746  22100015.5154   22100021.8054
     -2083.9354      -1623.8414
  21312428.6224  -28613415.58248 -22266942.94447  21312426.8524   21312431.0654
     -1451.8074      -1131.2794
  21098819.1154  -27352835.48148 -20998438.67147  21098816.9044   21098821.6764
      2591.7884       2019.5754
  21412175.6524  -23196019.93948 -17487945.26246  21412173.3924   21412179.4064
      3668.5684       2858.6234
  23119493.5124  -12232572.16547  -9504001.44945  23119491.9704   23119500.5244
      4141.2324       3226.9264
 00  7 16  1 32 59.9970000  0  7G22G20G11G25G 1G16G19
  21463433.1004  -11802227.55948  -8876200.33446  21463430.8354   21463438.3294
      3483.6534       2714.5344
  19622231.7944  -38570617.52449 -29773069.58447  19622229.5824   19622233.9694
      2028.1104       1580.3454
  22111905.5934  -29758522.31748 -22858888.27546  22111903.2934   22111909.7174
     -2087.8074      -1626.8624
  21320715.8654  -28569866.93148 -22233008.93247  21320713.9864   21320718.1504
     -1458.3394      -1136.3684
  21084011.7604  -27430648.40848 -21059072.09447  21084009.5404   21084014.2984
      2588.8294       2017.2674
  21391227.4714  -23306103.66748 -17573724.74046  21391225.0594   21391230.9994
      3663.4164       2854.6064
  23095843.1074  -12356857.74047  -9600847.19445  23095841.3304   23095849.0924
      4137.5314       3224.0444
 00  7 16  1 33 29.9970000  0  7G22G20G11G25G 1G16G19
  21443576.3484  -11906574.54948  -8957509.62446  21443574.2524   21443581.2974
      3469.6524       2703.6234
  19610692.9444  -38631256.91749 -29820321.03847  19610690.2624   19610694.7644
      2011.4984       1567.3994
  22123836.0974  -29695823.22348 -22810031.89346  22123834.6794   22123841.5044
     -2095.2074      -1632.6254
  21329061.4574  -28526009.63548 -22198834.40947  21329059.6934   21329064.0674
     -1468.4654      -1144.2564
  21069243.1794  -27508258.32848 -21119547.32847  21069240.7744   21069245.2634
      2582.1794       2012.0884
  21370330.5264  -23415918.02548 -17659294.33346  21370328.1804   21370334.0634
      3654.5714       2847.7164
  23072235.2314  -12480920.02747  -9697518.96445  23072233.1104   23072240.6434
      4130.2374       3218.3604
 00  7 16  1 33 59.9970000  0  7G22G20G11G25G 1G16G19
  21423796.7204  -12010514.73948  -9038501.90746  21423794.8194   21423802.1234
      3460.3224       2696.3534
  19599244.9544  -38691412.82349 -29867195.74847  19599242.7014   19599247.4904
      1999.6064       1558.1354
  22135807.2704  -29632918.50948 -22761015.30746  22135805.5094   22135811.2554
     -2097.7574      -1634.6134
  21337462.2134  -28481864.75448 -22164435.82247  21337460.1864   21337464.5704
     -1473.7634      -1148.3864
  21054509.4814  -27585684.26248 -21179879.20347  21054507.1664   21054511.9264
      2580.2974       2010.6194
  21349481.9954  -23525480.08548 -17744667.35046  21349479.2214   21349484.9524
      3650.3554       2844.4324
  23048666.0694  -12604776.57047  -9794030.40345  23048663.5474   23048671.3394
      4127.5824       3216.2914
 00  7 16  1 34 29.9970000  0  7G22G20G11G25G 1G16G19
  21404079.3574  -12114133.66948  -9119243.86546  21404076.9944   21404084.1504
      3444.4954       2684.0204
  19587873.4364  -38751171.90849 -29913761.25147  19587871.0684   19587875.5504
      1981.3094       1543.8764
  22147800.2744  -29569899.87548 -22711909.94246  22147797.5424   22147803.3104
     -2106.5674      -1641.4794
  21345899.8474  -28437523.41848 -22129884.15247  21345898.0004   21345902.5254
     -1485.3184      -1157.3904
  21039793.2834  -27663014.72848 -21240136.68447  21039791.2644   21039796.3814
      2572.0634       2004.2044
  21328664.0734  -23634876.17348 -17829911.02846  21328661.6154   21328667.9214
      3639.7394       2836.1604
  23025118.8704  -12728514.40247  -9890449.37645  23025117.0814   23025124.8764
      4118.5824       3209.2784
 00  7 16  1 34 59.9970000  0  7G22G20G11G25G 1G16G19
  21384452.4264  -12217274.36748  -9199613.18846  21384450.0884   21384457.1244
      3434.2984       2676.0724
  19576606.7134  -38810378.27949 -29959896.06547  19576604.4564   19576608.8984
      1968.6074       1533.9774
  22159842.0264  -29506616.07248 -22662597.96046  22159840.1554   22159845.9244
     -2109.5774      -1643.8204
  21354403.8594  -28392833.70348 -22095061.01247  21354402.0294   21354406.6974
     -1491.1364      -1161.9234
  21025125.4694  -27740095.82348 -21300199.84747  21025123.4614   21025128.3834
      2569.5274       2002.2284
  21307907.5934  -23743949.71248 -17914903.36047  21307905.5934   21307911.5764
      3634.6944       2832.2274
  23001625.3174  -12851978.02247  -9986654.70045  23001623.3334   23001630.4214
      4115.1714       3206.6234
 00  7 16  1 35 29.9970000  0  7G22G20G11G25G 1G16G19
  21364873.4304  -12320163.65548  -9279786.60146  21364870.8894   21364878.0414
      3426.1924       2669.7554
  19565402.1184  -38869260.04949 -30005777.94147  19565399.6784   19565404.2584
      1958.1294       1525.8144
  22171889.9414  -29443300.04248 -22613260.86146  22171888.2784   22171894.8784
     -2110.2604      -1644.3584
  21362930.7484  -28348027.04948 -22060146.76247  21362928.5804   21362933.2044
     -1494.6414      -1164.6554
  21010461.4064  -27817157.34948 -21360247.77247  21010459.2854   21010464.0574
      2569.2174       2001.9864
  21287170.2284  -23852928.48248 -17999821.88247  21287167.7694   21287173.4444
      3631.8464       2830.0124
  22978138.7964  -12975395.98347 -10082824.44045  22978136.9684   22978144.4054
      4113.9894       3205.7024
 00  7 16  1 35 59.9970000  0  7G22G20G11G25G 1G16G19
  21345369.7684  -12422652.28248  -9359647.82946  21345367.7844   21345374.9674
      3405.4094       2653.5664
  19554286.7414  -38927669.68449 -30051291.91447  19554284.2934   19554289.1644
      1934.9764       1507.7734
  22183972.8944  -29379808.80248 -22563787.23246  22183970.9644   22183976.9254
     -2123.3964      -1654.5924
  21371506.4564  -28302959.88048 -22025029.50747  21371504.7574   21371509.4434
     -1510.6694      -1177.1444
  20995828.4854  -27894053.34848 -21420166.70347  20995826.1654   20995831.4884
      2556.3214       1991.9364
  21266478.4644  -23961664.42548 -18084551.14747  21266475.9664   21266481.5414
      3616.3434       2817.9284
  22954689.8324  -13098621.16747 -10178843.96146  22954688.0004   22954695.6884
      4100.1344       3194.9094
 00  7 16  1 36 29.9970000  0  7G22G20G11G25G 1G16G19
  21325947.6384  -12524715.93648  -9439177.90546  21325944.7994   21325952.6274
      3393.4004       2644.2084
  19543265.9614  -38985584.71449 -30096420.48447  19543263.4704   19543268.2064
      1920.6514       1496.6104
  22196091.9034  -29316124.72548 -22514163.39546  22196089.6064   22196095.8474
     -2127.5994      -1657.8634
  21380135.6174  -28257613.88248 -21989694.97047  21380133.8204   21380138.4124
     -1517.7094      -1182.6314
  20981230.3524  -27970762.86848 -21479940.31947  20981228.3984   20981233.9424
      2552.3374       1988.8314
  21245837.2044  -24070134.43048 -18169073.19647  21245834.7984   21245840.3994
      3609.6644       2812.7234
  22931282.2324  -13221631.24048 -10274695.85846  22931280.2364   22931287.8734
      4095.1934       3191.0544
 00  7 16  1 36 59.9970000  0  7G22G20G11G25G 1G16G19
  21306613.9524  -12626320.52248  -9518350.25146  21306611.1184   21306617.7754
      3378.0414       2632.2414
  19532345.1724  -39042972.24349 -30141138.01347  19532342.9444   19532347.6704
      1903.0704       1482.9104
  22208253.1354  -29252219.69848 -22464367.34546  22208250.7004   22208256.9474
     -2134.9224      -1663.5734
  21388823.7004  -28211959.68348 -21954120.26747  21388821.4094   21388826.0594
     -1527.9604      -1190.6194
  20966674.7744  -28047255.17248 -21539544.67847  20966672.6524   20966677.9044
      2545.0724       1983.1724
  21225253.2034  -24178305.10048 -18253362.00547  21225250.6184   21225256.2094
      3599.6104       2804.8904
  22907920.8364  -13344393.88947 -10370354.95246  22907919.0094   22907926.5744
      4086.9054       3184.5934
 00  7 16  1 37 29.9970000  0  7G22G20G11G25G 1G16G19
  21287365.7314  -12727469.43848  -9597167.53546  21287363.1854   21287370.4124
      3367.6334       2624.1284
  19521524.3094  -39099836.78749 -30185448.03747  19521521.9844   19521526.8474
      1890.4444       1473.0744
  22220454.0614  -29188102.94448 -22414406.29946  22220451.6264   22220457.5274
     -2137.0704      -1665.2494
  21397568.1714  -28166005.36848 -21918311.69547  21397566.3074   21397570.6094
     -1533.1334      -1194.6494
  20952158.9664  -28123536.31848 -21598984.48747  20952156.6354   20952162.0054
      2542.8554       1981.4454
  21204725.3774  -24286180.25248 -18337420.50947  21204722.7214   21204728.2344
      3594.5644       2800.9584
  22884606.8624  -13466914.06748 -10465825.10846  22884604.5234   22884612.2514
      4083.6174       3182.0344
 00  7 16  1 37 59.9970000  0  7G22G20G11G25G 1G16G19
  21268175.3874  -12828314.76848  -9675748.26246  21268172.8094   21268180.2184
      3352.2394       2612.1314
  19510773.9624  -39156331.59749 -30229469.95047  19510771.4634   19510776.1844
      1872.8234       1459.3414
  22232665.5974  -29123932.42148 -22364403.35146  22232663.1784   22232668.9914
     -2144.0404      -1670.6784
  21406339.7864  -28119908.16448 -21882391.75747  21406338.0244   21406342.4364
     -1543.0674      -1202.3924
  20937654.2144  -28199761.31848 -21658380.54647  20937651.9154   20937656.7314
      2535.7464       1975.9024
  21184224.5244  -24393912.80848 -18421367.92447  21184222.1604   21184227.7584
      3584.5664       2793.1684
  22861308.6684  -13589345.49748 -10561226.16646  22861306.7654   22861314.4534
      4075.4114       3175.6464
 00  7 16  1 38 29.9970000  0  7G22G20G11G25G 1G16G19
  21249065.3444  -12928736.99248  -9753999.28146  21249062.9174   21249070.2074
      3341.0274       2603.3964
  19500115.7274  -39212338.93649 -30273112.00047  19500113.5734   19500118.4764
      1859.4864       1448.9504
  22244908.4024  -29059595.09748 -22314270.42946  22244906.3474   22244911.7334
     -2146.6444      -1672.7074
  21415160.4224  -28073554.24848 -21846271.78347  21415158.8404   21415163.4274
     -1548.6334      -1206.7304
  20923181.4734  -28275814.16848 -21717642.46047  20923179.3614   20923184.0504
      2532.9584       1973.7324
  21163772.9374  -24501384.64648 -18505112.17847  21163770.6354   21163776.4184
      3578.7754       2788.6544
  22838049.8784  -13711570.98048 -10656466.75946  22838048.0784   22838055.3424
      4071.4724       3172.5764
 00  7 16  1 38 59.9970000  0  7G22G20G11G25G 1G16G19
  21230025.9344  -13028789.38748  -9831962.10346  21230023.0714   21230031.2074
      3330.2464       2594.9974
  19489540.6944  -39267913.65949 -30316416.95247  19489538.2274   19489542.9414
      1846.6644       1438.9584
  22257172.0064  -28995150.38348 -22264053.83346  22257169.7634   22257175.4534
     -2148.5064      -1674.1574
  21424019.2344  -28027002.28648 -21809997.49047  21424017.5164   21424021.8604
     -1553.6184      -1210.6124
  20908731.1924  -28351751.32448 -21776814.22247  20908728.7744   20908733.8324
      2530.7074       1971.9784
  21143361.2834  -24608650.00948 -18588695.52447  21143358.7504   21143364.5074
      3573.4194       2784.4814
  22814819.6454  -13833645.67848 -10751589.84446  22814817.7444   22814825.1574
      4068.0044       3169.8714
 00  7 16  1 39 29.9970000  0  7G22G20G11G25G 1G16G19
  21211073.2274  -13128384.37048  -9909568.52046  21211070.8284   21211078.7284
      3310.6484       2579.7234
  19479064.2924  -39322969.69749 -30359317.74547  19479061.7014   19479066.0924
      1825.0664       1422.1294
  22269471.2564  -28930516.81748 -22213690.08546  22269468.7094   22269474.7484
     -2159.0574      -1682.3764
  21432930.9034  -27980169.74348 -21773504.55947  21432929.2224   21432934.0944
     -1567.1994      -1221.1944
  20894319.2914  -28427488.24048 -21835829.97547  20894316.8664   20894321.7184
      2519.7624       1963.4504
  21123005.4334  -24715621.65948 -18672050.03447  21123002.7304   21123008.5774
      3559.3354       2773.5084
  22791634.4664  -13955483.32148 -10846528.18846  22791632.5394   22791639.8394
      4055.7964       3160.3574
 00  7 16  1 39 59.9970000  0  7G22G20G11G25G 1G16G19
  21192219.3944  -13227467.89248  -9986776.40646  21192216.4864   21192222.6514
      3297.0474       2569.1254
  19468696.1754  -39377453.99649 -30401773.03347  19468693.5524   19468697.9434
      1809.4364       1409.9494
  22281814.6604  -28865646.03648 -22163141.50546  22281812.9674   22281818.6934
     -2163.4894      -1685.8334
  21441906.1974  -27933007.54048 -21736754.73747  21441904.0604   21441908.9154
     -1574.7234      -1227.0584
  20879954.0484  -28502973.50948 -21894649.66647  20879952.0964   20879957.2704
      2514.8274       1959.6044
  21102714.9564  -24822246.03848 -18755133.92347  21102712.6404   21102717.9994
      3551.1774       2767.1484
  22768504.7124  -14077031.28647 -10941240.77546  22768502.4304   22768509.9084
      4049.5934       3155.5284
 00  7 16  1 40 29.9970000  0  7G22G20G11G25G 1G16G19
  21173406.0734  -13326329.92248 -10063811.68346  21173403.1204   21173410.0604
      3287.4484       2561.6484
  19458380.6414  -39431657.86249 -30444009.80747  19458378.5244   19458383.2874
      1797.8974       1400.9604
  22294148.2024  -28800834.02648 -22112638.72346  22294146.5574   22294152.3784
     -2163.5894      -1685.9094
  21450887.2394  -27885810.25648 -21699977.58547  21450885.2624   21450890.1634
     -1577.9844      -1229.5994
  20865581.9494  -28578500.26448 -21953501.68747  20865579.8124   20865584.8524
      2514.0604       1959.0074
  21082435.8674  -24928814.31248 -18838174.08347  21082433.3984   21082438.9274
      3547.1244       2763.9914
  22745374.0744  -14198581.37548 -11035955.03346  22745371.9624   22745380.1294
      4047.4764       3153.8754
 00  7 16  1 40 59.9970000  0  7G22G20G11G25G 1G16G19
  21154677.2244  -13424741.01448 -10140495.56646  21154675.4824   21154682.8904
      3268.1734       2546.6264
  19448162.9454  -39485353.70949 -30485850.72147  19448160.5664   19448165.4534
      1776.7684       1384.4944
  22306513.0844  -28735857.68048 -22062007.90946  22306511.3684   22306517.0484
     -2173.2064      -1693.4064
  21459917.7264  -27838354.21848 -21662998.82047  21459915.9964   21459920.4664
     -1590.7494      -1239.5474
  20851245.5294  -28653842.41048 -22012209.86047  20851243.2954   20851247.7464
      2503.7484       1950.9734
  21062211.0424  -25035097.96548 -18920992.49047  21062208.2164   21062213.0194
      3533.4124       2753.3094
  22722286.5294  -14319906.54848 -11130494.04746  22722284.8024   22722292.3934
      4035.7844       3144.7634
 00  7 16  1 41 29.9970000  0  7G22G20G11G25G 1G16G19
  21136043.6914  -13522669.10648 -10216803.09146  21136040.8204   21136048.1444
      3257.5724       2538.3694
  19438047.5254  -39538510.97449 -30527271.96247  19438044.9334   19438049.8164
      1764.3994       1374.8554
  22318913.4964  -28670691.25648 -22011228.94546  22318912.0864   22318918.2244
     -2173.9094      -1693.9544
  21469002.7244  -27790612.79548 -21625797.69647  21469000.7584   21469005.4704
     -1594.6734      -1242.6024
  20836948.5284  -28728971.21348 -22070751.80347  20836946.3444   20836950.8924
      2502.1954       1949.7634
  21042045.5254  -25141065.59548 -19003564.61347  21042043.1224   21042048.2244
      3528.4344       2749.4264
  22699247.8494  -14440976.49748 -11224834.17646  22699245.8684   22699253.3484
      4032.8354       3142.4674
 00  7 16  1 41 59.9970000  0  7G22G20G11G25G 1G16G19
  21117479.7284  -13620222.31448 -10292818.49346  21117476.9564   21117483.9194
      3245.8484       2529.2294
  19428014.0814  -39591239.27049 -30568358.94347  19428011.4064   19428015.8904
      1750.7974       1364.2584
  22331329.4314  -28605448.68848 -21960390.63146  22331326.9564   22331333.7144
     -2175.6004      -1695.2714
  21478120.3454  -27742698.75948 -21588462.07647  21478118.5854   21478122.8044
     -1599.5904      -1246.4324
  20822671.2324  -28803997.39648 -22129213.79047  20822669.1754   20822674.0804
      2499.5504       1947.7024
  21021920.0304  -25246826.37348 -19085975.55647  21021917.5104   21021922.7614
      3522.2694       2744.6244
  22676236.6834  -14561901.02748 -11319060.97746  22676234.6524   22676242.4394
      4028.7584       3139.2874
 00  7 16  1 42 29.9970000  0  7G22G20G11G25G 1G16G19
  21098994.2584  -13717361.32648 -10368511.14546  21098991.6254   21098998.9074
      3233.3714       2519.5074
  19418069.4284  -39643500.00449 -30609081.59747  19418066.5334   19418071.1354
      1736.5714       1353.1724
  22343765.3394  -28540096.11047 -21909466.59946  22343763.2644   22343769.6644
     -2177.8544      -1697.0254
  21487277.4494  -27694577.66448 -21550965.10446  21487275.5444   21487279.8774
     -1605.0794      -1250.7124
  20808421.0184  -28878884.14848 -22187567.12947  20808418.7794   20808423.3614
      2496.2894       1945.1614
  21001841.0414  -25352340.96048 -19168194.70347  21001838.5934   21001843.9784
      3515.4394       2739.3054
  22653259.5154  -14682641.93148 -11413144.69946  22653257.5424   22653265.6974
      4023.9814       3135.5664
 00  7 16  1 42 59.9970000  0  7G22G20G11G25G 1G16G19
  21080598.9724  -13814028.92348 -10443836.46446  21080596.6204   21080603.5614
      3209.0254       2500.5354
  19408223.4604  -39695237.53249 -30649396.55147  19408221.1124   19408225.7354
      1710.5064       1332.8614
  22356232.7374  -28474582.46447 -21858417.08146  22356230.0984   22356236.5034
     -2191.7584      -1707.8654
  21496483.5664  -27646197.44248 -21513266.22446  21496482.0154   21496486.4474
     -1622.2764      -1264.1134
  20794207.3144  -28953577.20348 -22245769.51847  20794205.1354   20794209.7314
      2481.2344       1933.4304
  20981819.9914  -25457552.95748 -19250178.02547  20981817.3414   20981822.6164
      3496.6704       2724.6754
  22630329.9164  -14803143.80848 -11507042.15546  22630327.9054   22630334.7614
      4007.3984       3122.6434
 00  7 16  1 43 29.9970000  0  7G22G20G11G25G 1G16G19
  21062297.7834  -13910204.41048 -10518778.32746  21062295.1944   21062301.6024
      3201.3964       2494.5924
  19398481.8014  -39746433.10049 -30689289.20847  19398479.4454   19398483.3464
      1701.2794       1325.6714
  22368732.8374  -28408893.49647 -21807230.96646  22368730.4794   22368736.6594
     -2188.7364      -1705.5114
  21505742.2744  -27597543.03248 -21475353.69847  21505740.6974   21505745.4124
     -1622.5364      -1264.3134
  20780033.7024  -29028059.45748 -22303807.64247  20780031.6724   20780036.7204
      2483.0364       1934.8344
  20961859.9054  -25562443.00248 -19331910.46147  20961857.4864   20961863.1944
      3494.7624       2723.1924
  22607448.1254  -14923388.22648 -11600738.97946  22607446.2454   22607452.9514
      4007.6114       3122.8104
 00  7 16  1 43 59.9970000  0  7G22G20G11G25G 1G16G19
  21044075.4694  -14005960.25448 -10593393.18746  21044073.2124   21044079.9434
      3185.1514       2481.9354
  19388828.3754  -39797160.77849 -30728817.27247  19388826.1604   19388829.9274
      1683.4764       1311.7994
  22381251.8434  -28343107.73147 -21755969.39946  22381249.7154   22381255.6304
     -2194.1404      -1709.7204
  21515038.8524  -27548691.79748 -21437287.81547  21515036.8994   21515041.5234
     -1631.2804      -1271.1284
  20765886.0314  -29102406.43748 -22361740.37847  20765883.9134   20765888.9234
      2476.3374       1929.6134
  20941948.0404  -25667084.09948 -19413448.94847  20941945.1614   20941950.3984
      3484.2254       2714.9804
  22584600.6944  -15043449.63348 -11694293.21646  22584598.6154   22584606.3144
      3999.3604       3116.3784
 00  7 16  1 44 29.9970000  0  7G22G20G11G25G 1G16G19
  21025945.8144  -14101230.31848 -10667629.51746  21025943.3644   21025951.1204
      3171.8424       2471.5634
  19379276.7644  -39847355.30849 -30767929.88647  19379274.3064   19379278.3694
      1668.5834       1300.1944
  22393800.6974  -28277164.49448 -21704585.13246  22393798.5384   22393804.9304
     -2196.3944      -1711.4754
  21524384.2724  -27499582.33448 -21399020.70646  21524382.2404   21524386.6714
     -1636.9304      -1275.5304
  20751776.2884  -29176554.59848 -22419518.16647  20751774.1634   20751778.9044
      2472.6334       1926.7274
  20922095.2154  -25771410.56448 -19494742.26047  20922092.4884   20922097.5944
      3476.6074       2709.0404
  22561800.6624  -15163263.18348 -11787654.30046  22561798.3604   22561806.2024
      3993.9854       3112.1924
 00  7 16  1 44 59.9970000  0  7G22G20G11G25G 1G16G19
  21007880.5504  -14196167.88148 -10741606.74546  21007877.7344   21007884.7584
      3160.9414       2463.0664
  19369797.1324  -39897171.37149 -30806747.58847  19369794.6544   19369798.5284
      1656.2074       1290.5514
  22406348.2594  -28211223.09647 -21653202.31046  22406346.5634   22406352.5014
     -2196.0374      -1711.1974
  21533748.1814  -27450372.48248 -21360675.37646  21533746.3534   21533750.9864
     -1639.9754      -1277.9024
  20737674.3134  -29250659.87548 -22477262.54947  20737672.3554   20737677.0954
      2471.4514       1925.8054
  20902272.5544  -25875575.85748 -19575909.92947  20902270.1864   20902275.7304
      3471.4734       2705.0424
  22539018.3634  -15282983.72648 -11880942.93346  22539016.5334   22539024.5284
      3991.0874       3109.9344
 00  7 16  1 45 29.9970000  0  7G22G20G11G25G 1G16G19
  20989904.8844  -14290629.30648 -10815212.95646  20989902.5664   20989909.4594
      3139.5394       2446.3924
  19360416.3034  -39946466.78149 -30845159.58847  19360413.8654   19360417.8434
      1633.3254       1272.7204
  22418922.9564  -28145145.45547 -21601713.29846  22418920.8114   22418927.2314
     -2205.9904      -1718.9474
  21543157.5134  -27400924.01548 -21322144.12346  21543155.8684   21543160.7734
     -1653.3734      -1288.3424
  20723608.7354  -29324581.41348 -22534863.72847  20723606.2724   20723610.2964
      2459.8204       1916.7444
  20882508.2664  -25979437.44548 -19656840.99747  20882505.9164   20882511.0584
      3455.8054       2692.8354
  22516281.2514  -15402469.32948 -11974048.49846  22516279.0924   22516286.3324
      3977.7844       3099.5694
 00  7 16  1 45 59.9970000  0  7G22G20G11G25G 1G16G19
  20972018.9364  -14384618.52748 -10888451.22046  20972016.3914   20972023.6854
      3128.2634       2437.6044
  19351134.1014  -39995247.39349 -30883170.43947  19351131.4604   19351135.2094
      1620.6494       1262.8434
  22431521.3544  -28078941.98747 -21550126.25546  22431518.8244   22431524.5814
     -2205.6144      -1718.6594
  21552610.8424  -27351246.17348 -21283434.12146  21552609.1594   21552613.9464
     -1656.4934      -1290.7744
  20709574.8864  -29398326.62448 -22592327.54647  20709572.7484   20709576.7904
      2458.4794       1915.6994
  20862800.8194  -26083000.26348 -19737539.24247  20862798.5004   20862803.6954
      3450.3334       2688.5694
  22493587.6244  -15521725.76848 -12066975.50746  22493585.5464   22493592.6034
      3974.6194       3097.1004
 00  7 16  1 46 29.9970000  0  7G22G20G11G25G 1G16G19
  20954213.8304  -14478181.75348 -10961357.52846  20954211.4904   20954219.2414
      3107.2644       2421.2414
  19341940.4164  -40043560.84549 -30920817.26947  19341937.8394   19341941.5634
      1598.3394       1245.4594
  22444133.7134  -28012664.80447 -21498481.77645  22444131.1504   22444136.9254
     -2214.7464      -1725.7714
  21562098.4524  -27301389.99048 -21244585.14146  21562096.4974   21562101.2054
     -1669.1064      -1300.6044
  20695565.5954  -29471944.29848 -22649691.94447  20695563.3834   20695568.0704
      2447.5164       1907.1554
  20843141.4204  -26186310.78648 -19818040.87747  20843139.0784   20843144.3984
      3435.1554       2676.7424
  22470928.0864  -15640801.16748 -12159761.45046  22470926.0254   22470933.3484
      3961.8324       3087.1394
 00  7 16  1 46 59.9960000  0  7G22G20G11G25G 1G16G19
  20936495.5674  -14571294.55948 -11033912.84946  20936492.9334   20936500.6284
      3094.0474       2410.9404
  19332839.3774  -40091385.13849 -30958082.93447  19332837.0714   19332841.0944
      1583.7814       1234.1144
  22456762.1704  -27946300.26647 -21446769.22845  22456759.7334   22456766.3294
     -2215.9854      -1726.7404
  21571621.9424  -27251340.49648 -21205585.52846  21571620.6234   21571625.2384
     -1673.8194      -1304.2754
  20681583.9834  -29545413.49648 -22706940.65847  20681582.1014   20681587.5154
      2444.3554       1904.6914
  20823534.8094  -26289344.77348 -19898327.02647  20823532.3894   20823537.9644
      3427.7544       2670.9734
  22448307.4514  -15759671.58848 -12252387.65446  22448305.7174   22448312.8734
      3956.8334       3083.2434
 00  7 16  1 47 29.9960000  0  7G22G20G11G25G 1G16G19
  20918879.2274  -14663865.23348 -11106045.74046  20918876.9374   20918884.7274
      3075.7204       2396.6654
  19323849.4664  -40138627.13849 -30994894.86747  19323847.1264   19323851.2194
      1564.1564       1218.8234
  22469425.6004  -27879751.86647 -21394913.40645  22469423.2004   22469429.3214
     -2222.1214      -1731.5224
  21581201.6784  -27201001.31248 -21166360.18446  21581200.1444   21581204.4864
     -1683.5674      -1311.8724
  20667648.9944  -29618643.78148 -22764003.19947  20667647.0204   20667652.0144
      2436.1774       1898.3194
  20803998.2794  -26392011.49248 -19978327.00547  20803995.7204   20804001.2424
      3415.2324       2661.2184
  22425743.5564  -15878248.55048 -12344785.20346  22425741.3234   22425748.5914
      3946.7774       3075.4074
 00  7 16  1 47 59.9960000  0  7G22G20G11G25G 1G16G19
  20901341.6894  -14756030.15848 -11177862.45846  20901338.9084   20901346.2884
      3057.9824       2382.8374
  19314944.0744  -40185425.94849 -31031361.45247  19314941.8204   19314945.5934
      1545.2044       1204.0544
  22482095.0894  -27813167.17447 -21343029.29045  22482093.1974   22482101.3004
     -2227.4404      -1735.6654
  21590808.5884  -27150518.43948 -21127022.87646  21590806.7794   21590811.2394
     -1692.4284      -1318.7744
  20653732.8584  -29691774.93748 -22820988.49847  20653730.7114   20653735.6444
      2428.7354       1892.5204
  20784505.1344  -26494447.84148 -20058147.47447  20784502.6254   20784507.8434
      3403.3734       2651.9774
  22403208.7024  -15996669.32248 -12437061.01146  22403206.6764   22403213.5774
      3937.4064       3068.1064
 00  7 16  1 48 29.9960000  0  7G22G20G11G25G 1G16G19
  20883900.9424  -14847677.99048 -11249276.24846  20883898.8024   20883905.2604
      3050.5614       2377.0614
  19306143.8654  -40231672.33749 -31067397.58747  19306141.2424   19306145.1114
      1536.6504       1197.3894
  22494792.6274  -27746440.69947 -21291034.71445  22494790.4844   22494799.3484
     -2222.2224      -1731.5974
  21600462.7064  -27099786.09548 -21087491.19946  21600460.8404   21600465.4644
     -1690.8834      -1317.5704
  20639856.3314  -29764698.93848 -22877812.38347  20639854.0974   20639858.6294
      2431.6914       1894.8244
  20765076.6624  -26596543.42048 -20137702.40247  20765074.2514   20765080.2524
      3401.8224       2650.7684
  22380724.4134  -16114824.75448 -12529130.06946  22380722.2904   22380729.3794
      3938.3904       3068.8734
 00  7 16  1 48 59.9960000  0  7G22G20G11G25G 1G16G19
  20866554.5754  -14938836.01648 -11320308.36546  20866552.1624   20866558.7084
      3030.7474       2361.6174
  19297442.9454  -40277395.02449 -31103025.64447  19297440.4504   19297444.2864
      1515.7104       1181.0724
  22507511.1764  -27679605.72347 -21238955.58245  22507509.6664   22507517.5204
     -2229.2714      -1737.0904
  21610157.7534  -27048835.98048 -21047789.82446  21610156.3044   21610160.8714
     -1701.5824      -1325.9104
  20626012.8594  -29837445.78848 -22934498.22147  20626010.6764   20626015.8854
      2422.2874       1887.4964
  20745708.2624  -26698325.61048 -20217013.14247  20745705.7054   20745711.0804
      3387.8554       2639.8864
  22358285.0354  -16232743.77948 -12621014.93046  22358283.2624   22358290.0084
      3927.0344       3060.0234
 00  7 16  1 49 29.9960000  0  7G22G20G11G25G 1G16G19
  20849287.8364  -15029575.88748 -11391014.64646  20849284.9234   20849291.9354
      3016.0544       2350.1674
  19288828.0994  -40322666.53649 -31138302.12647  19288825.6994   19288829.5544
      1499.9494       1168.7904
  22520236.5064  -27612739.74147 -21186852.30845  22520234.3034   22520241.7004
     -2230.9754      -1738.4194
  21619880.2574  -26997744.38248 -21007978.18646  21619878.6344   21619883.0754
     -1706.9644      -1330.1034
  20612188.8884  -29910089.60648 -22991103.77147  20612186.8414   20612191.9254
      2418.1694       1884.2864
  20726385.6394  -26799866.66448 -20296136.03047  20726383.0774   20726388.3644
      3379.0754       2633.0454
  22335876.5494  -16350499.30648 -12712772.37946  22335874.7194   22335881.7574
      3920.8424       3055.2014
 00  7 16  1 49 59.9960000  0  7G22G20G11G25G 1G16G19
  20832115.1774  -15119812.89948 -11461329.09346  20832112.6584   20832119.9884
      2999.3264       2337.1314
  19280314.7344  -40367403.61449 -31173162.17047  19280312.4364   19280316.3174
      1482.1634       1154.9324
  22532981.0384  -27545763.19247 -21134662.86245  22532979.3804   22532987.3674
     -2234.5124      -1741.1754
  21629645.2994  -26946431.22848 -20967993.89746  21629643.0634   21629647.4084
     -1714.2504      -1335.7824
  20598400.8944  -29982548.25248 -23047565.03047  20598398.6614   20598403.4884
      2412.0814       1879.5424
  20707125.2614  -26901081.92748 -20375005.03647  20707122.6284   20707127.4454
      3368.2784       2624.6324
  22313515.0974  -16468008.31948 -12804337.76146  22313513.3674   22313520.2854
      3912.7064       3048.8604
 00  7 16  1 50 29.9960000  0  7G22G20G11G25G 1G16G19
  20815022.9614  -15209631.85848 -11531317.78946  20815020.6674   20815028.4074
      2986.6594       2327.2604
  19271886.7774  -40411692.64349 -31207673.08247  19271884.5044   19271888.3704
      1468.5764       1144.3434
  22545730.3234  -27478767.07947 -21082458.18745  22545728.0474   22545736.1554
     -2233.7434      -1740.5724
  21639434.9804  -26894986.58048 -20927907.14746  21639432.6714   21639437.0254
     -1717.2324      -1338.1014
  20584630.6554  -30054909.49448 -23103950.39047  20584628.5934   20584633.1474
      2410.1814       1878.0634
  20687910.2314  -27002057.07548 -20453686.94647  20687907.7454   20687912.3534
      3361.5764       2619.4074
  22291184.7584  -16585357.30548 -12895778.43546  22291182.5834   22291189.2764
      3908.6884       3045.7284
 00  7 16  1 50 59.9960000  0  7G22G20G11G25G 1G16G19
  20798019.3444  -15298987.44148 -11600945.41846  20798016.8594   20798024.5134
      2963.7394       2309.4014
  19263552.8784  -40455490.07249 -31241800.93247  19263550.2994   19263553.9734
      1444.7844       1125.8044
  22558491.0724  -27411711.99747 -21030207.54045  22558488.8804   22558495.9804
     -2243.0914      -1747.8634
  21649256.7114  -26843370.00748 -20887686.43246  21649255.0064   21649259.6604
     -1730.3264      -1348.3074
  20570886.8454  -30127131.02248 -23160226.90047  20570884.9714   20570889.9684
      2398.1234       1868.6684
  20668749.1664  -27102747.43948 -20532146.93047  20668746.6034   20668751.5154
      3344.6664       2606.2324
  22268893.1934  -16702502.86748 -12987060.58446  22268890.8104   22268896.9914
      3894.4814       3034.6574
 00  7 16  1 51 29.9960000  0  7G22G20G11G25G 1G16G19
  20781117.2034  -15387815.16448 -11670161.73446  20781114.1174   20781120.9454
      2956.9184       2304.0894
  19255323.8464  -40498732.87249 -31275496.60247  19255321.3894   19255325.0454
      1437.0224       1119.7564
  22571273.4054  -27344539.18047 -20977865.15145  22571271.9454   22571278.8574
     -2236.1714      -1742.4724
  21659122.8504  -26791521.87748 -20847285.29246  21659120.9534   21659126.1634
     -1727.2464      -1345.9044
  20557182.4774  -30199150.94248 -23216346.30447  20557180.4484   20557185.2274
      2402.1584       1871.8124
  20649654.7284  -27203089.25148 -20610335.33047  20649652.1634   20649657.2204
      3343.7324       2605.5044
  22246651.3324  -16819382.23848 -13078135.31846  22246649.0474   22246655.7624
      3896.3914       3036.1474
 00  7 16  1 51 59.9960000  0  7G22G20G11G25G 1G16G19
  20764307.3204  -15476142.12248 -11738987.84546  20764305.1034   20764312.3164
      2938.0764       2289.4094
  19247194.6814  -40541448.94449 -31308781.83747  19247192.5374   19247196.4874
      1417.3734       1104.4464
  22584072.4894  -27277280.73447 -20925456.05245  22584069.9554   22584077.5584
     -2241.0584      -1746.2814
  21669027.7244  -26739473.57148 -20806728.16846  21669025.3224   21669030.1324
     -1736.0084      -1352.7334
  20543510.5214  -30270998.41948 -23272331.35147  20543508.0784   20543512.8674
      2394.3194       1865.7024
  20630621.2994  -27303108.80648 -20688272.61847  20630618.9574   20630623.9594
      3330.8974       2595.5034
  22224454.3314  -16936023.65948 -13169024.63646  22224452.5594   22224459.5404
      3886.3324       3028.3084
 00  7 16  1 52 29.9960000  0  7G22G20G11G25G 1G16G19
  20747596.0794  -15563964.60748 -11807420.85746  20747593.0534   20747600.0164
      2917.1914       2273.1324
  19239167.1284  -40583636.04849 -31341654.89047  19239164.7014   19239168.7444
      1395.6414       1087.5124
  22596886.9704  -27209938.52547 -20872981.66045  22596885.0874   22596892.1044
     -2247.8854      -1751.5974
  21678970.2264  -26687225.86748 -20766015.67846  21678968.2294   21678972.6084
     -1746.6264      -1361.0064
  20529871.1234  -30342672.23348 -23328181.07447  20529868.9784   20529874.1104
      2384.4884       1858.0414
  20611650.5314  -27402803.54248 -20765956.77247  20611647.8444   20611653.0294
      3315.9644       2583.8644
  22202304.3844  -17052424.85948 -13259726.78046  22202302.3694   22202308.7954
      3874.2554       3018.8964
 00  7 16  1 52 59.9960000  0  7G22G20G11G25G 1G16G19
  20730980.3274  -15651280.88248 -11875459.42446  20730977.7814   20730984.4664
      2902.2744       2261.5104
  19231240.1394  -40625294.39649 -31374115.92647  19231237.7774   19231241.2374
      1380.0754       1075.3824
  22609717.5014  -27142516.96847 -20820445.47145  22609715.2514   22609722.0104
     -2248.4054      -1752.0024
  21688949.7504  -26634782.31148 -20725150.56946  21688947.7574   21688952.4254
     -1751.0674      -1364.4704
  20516265.1704  -30414173.61748 -23383896.41847  20516263.0184   20516267.4634
      2380.7784       1855.1514
  20592741.2344  -27502171.76448 -20843386.48147  20592738.5454   20592743.7694
      3307.0904       2576.9504
  22180199.4814  -17168586.03548 -13350241.88646  22180197.4654   22180203.3974
      3868.2954       3014.2554
 00  7 16  1 53 29.9960000  0  7G22G20G11G25G 1G16G19
  20714461.4354  -15738089.54748 -11943102.45846  20714458.8154   20714465.2494
      2885.3184       2248.2964
  19223412.9544  -40666424.25849 -31406165.15447  19223410.5334   19223414.1364
      1362.4124       1061.6204
  22622560.4384  -27075020.38247 -20767850.80745  22622558.8134   22622566.3414
     -2250.9364      -1753.9774
  21698966.0654  -26582146.19748 -20684135.40846  21698964.2354   21698969.2404
     -1757.4714      -1369.4594
  20502691.7224  -30485504.29048 -23439478.76247  20502689.3584   20502693.6834
      2375.0664       1850.7034
  20573893.9564  -27601213.69248 -20920561.94147  20573891.4694   20573896.6304
      3296.1624       2568.4364
  22158140.6544  -17284507.45448 -13440570.16846  22158138.4274   22158144.6184
      3860.2864       3008.0114
 00  7 16  1 53 59.9960000  0  7G22G20G11G25G 1G16G19
  20698035.1024  -15824410.50948 -12010365.47346  20698032.4264   20698038.8974
      2870.5614       2236.7984
  19215683.0814  -40707046.75449 -31437819.03447  19215680.4344   19215684.0194
      1347.0004       1049.6104
  22635415.1084  -27007474.12447 -20715217.44945  22635412.7504   22635420.3834
     -2251.0004      -1754.0244
  21709014.4044  -26529342.05848 -20642989.30646  21709012.6714   21709017.4464
     -1761.5024      -1372.5994
  20489145.9634  -30556686.22048 -23494945.22447  20489143.7284   20489148.1784
      2371.6564       1848.0444
  20555104.9354  -27699948.40948 -20997498.05047  20555102.6164   20555108.0964
      3287.4304       2561.6324
  22136122.9194  -17400210.40848 -13530728.21146  22136120.7834   22136127.3694
      3854.5144       3003.5134
 00  7 16  1 54 29.9960000  0  7G22G20G11G25G 1G16G19
  20681687.9524  -15910312.80648 -12077302.25546  20681685.3664   20681692.3164
      2856.7794       2226.0614
  19208036.0304  -40747231.97049 -31469132.16647  19208033.5314   19208037.1314
      1332.6334       1038.4154
  22648263.3544  -26939952.50047 -20662603.26645  22648261.7864   22648268.6184
     -2249.8574      -1753.1304
  21719080.9754  -26476443.16248 -20601769.37546  21719078.9854   21719083.4414
     -1764.3754      -1374.8374
  20475614.9254  -30627790.72648 -23550351.33547  20475612.5434   20475617.5344
      2369.3264       1846.2274
  20536361.5354  -27798445.63448 -21074249.10347  20536359.2454   20536364.7694
      3279.7054       2555.6134
  22114133.4174  -17515765.32648 -13620770.89346  22114131.4384   22114137.6174
      3849.7954       2999.8384
 00  7 16  1 54 59.9960000  0  7G22G20G11G25G 1G16G19
  20665442.8814  -15995680.53248 -12143822.49746  20665440.4414   20665447.4374
      2835.8324       2209.7384
  19200493.5744  -40786865.19349 -31500015.18647  19200491.4304   19200495.1164
      1311.0874       1021.6254
  22661129.3914  -26872345.08347 -20609922.25445  22661126.9444   22661133.6654
     -2255.8284      -1757.7844
  21729186.4974  -26423338.19048 -20560388.85246  21729184.6204   21729189.0244
     -1774.3654      -1382.6224
  20462120.6314  -30698704.23448 -23605608.59947  20462118.4044   20462122.9934
      2359.8024       1838.8074
  20517685.7524  -27896589.37248 -21150724.71247  20517683.0804   20517688.7884
      3264.7784       2543.9824
  22092194.2684  -17631057.71848 -13710609.00346  22092192.0414   22092198.1344
      3837.8504       2990.5294
 00  7 16  1 55 29.9960000  0  7G22G20G11G25G 1G16G19
  20649308.6614  -16080462.74948 -12209886.50046  20649306.3244   20649314.0604
      2819.1184       2196.7134
  19193066.3824  -40825897.65849 -31530430.08947  19193063.8464   19193067.2054
      1293.9634       1008.2824
  22674018.9604  -26804607.19747 -20557139.56045  22674017.1454   22674024.0334
     -2257.1734      -1758.8364
  21739339.5754  -26369981.18348 -20518811.92146  21739337.7304   21739342.3644
     -1779.8104      -1386.8664
  20448671.8884  -30769378.88048 -23660679.75847  20448669.7714   20448674.4764
      2354.7614       1834.8794
  20499086.1544  -27994329.51848 -21226885.83447  20499083.7514   20499089.2124
      3254.1734       2535.7184
  22070313.5834  -17746038.95248 -13800204.66346  22070311.5034   22070317.5834
      3830.4244       2984.7414
 00  7 16  1 55 59.9960000  0  7G22G20G11G25G 1G16G19
  20633261.3324  -16164794.35448 -12275599.36346  20633258.6244   20633266.1474
      2801.4694       2182.9614
  19185727.3394  -40864465.65249 -31560483.06247  19185724.8354   19185728.0164
      1275.8684        994.1834
  22686907.9904  -26736878.93847 -20504364.37745  22686905.6164   22686911.6084
     -2259.4154      -1760.5814
  21749514.2534  -26316511.51048 -20477147.20146  21749512.4194   21749517.3154
     -1786.1274      -1391.7904
  20435242.2814  -30839952.13848 -23715671.91347  20435239.9944   20435244.3404
      2348.7844       1830.2204
  20480538.1004  -28091800.97848 -21302837.58547  20480535.5624   20480540.7284
      3242.5754       2526.6814
  22048466.9494  -17860845.24548 -13889664.01146  22048464.6124   22048470.6254
      3821.9864       2978.1664
 00  7 16  1 56 29.9960000  0  7G22G20G11G25G 1G16G19
  20617310.1604  -16248620.47348 -12340918.35546  20617307.8674   20617314.6054
      2786.4514       2171.2584
  19178486.5024  -40902515.62049 -31590132.38747  19178483.8314   19178487.6204
      1260.4214        982.1464
  22699803.6764  -26669110.80047 -20451558.12845  22699801.6084   22699808.3144
     -2258.8954      -1760.1724
  21759720.3754  -26262879.15348 -20435355.72346  21759718.7864   21759723.0804
     -1789.6644      -1394.5454
  20421841.8274  -30910371.56148 -23770544.17847  20421839.6234   20421844.0164
      2345.4934       1827.6594
  20462051.3234  -28188949.85848 -21378537.98447  20462048.9034   20462053.9154
      3233.6074       2519.6924
  22026662.9564  -17975423.05348 -13978945.30546  22026661.0964   22026667.2924
      3816.1684       2973.6344
 00  7 16  1 56 59.9960000  0  7G22G20G11G25G 1G16G19
  20601451.9204  -16331953.36848 -12405853.02546  20601449.3734   20601456.6044
      2768.3524       2157.1564
  19171341.4214  -40940060.78449 -31619388.35647  19171339.0124   19171343.1294
      1241.9504        967.7534
  22712704.7254  -26601320.04847 -20398734.24045  22712702.7544   22712708.2824
     -2261.1644      -1761.9464
  21769953.9024  -26209100.45448 -20393450.18346  21769952.2624   21769956.9304
     -1796.1324      -1399.5864
  20408467.7634  -30980651.49348 -23825307.76947  20408465.5344   20408470.2414
      2339.2174       1822.7654
  20443623.9084  -28285787.38148 -21453995.76947  20443621.3114   20443626.5394
      3221.5964       2510.3334
  22004899.8994  -18089785.82848 -14068059.03846  22004898.1714   22004904.4544
      3807.3624       2966.7734
 00  7 16  1 57 29.9960000  0  7G22G20G11G25G 1G16G19
  20585694.0404  -16414760.00748 -12470377.61946  20585691.7374   20585698.4404
      2753.1634       2145.3224
  19164299.1464  -40977069.79149 -31648226.53847  19164296.7734   19164300.4394
      1226.4824        955.7004
  22725613.4764  -26533479.22447 -20345871.35045  22725611.3264   22725618.4594
     -2260.4114      -1761.3564
  21780220.9614  -26155146.69548 -20351408.24846  21780219.3464   21780223.6064
     -1799.5484      -1402.2484
  20395126.3794  -31050761.20448 -23879938.71147  20395124.3354   20395128.8844
      2335.9564       1820.2264
  20425261.4244  -28382281.26148 -21529185.79147  20425258.9474   20425264.1554
      3212.5154       2503.2604
  21983185.0164  -18203902.39848 -14156980.92546  21983182.6884   21983189.3284
      3801.5764       2962.2624
 00  7 16  1 57 59.9960000  0  7G22G20G11G25G 1G16G19
  20570023.3694  -16497114.33348 -12534549.78146  20570020.3624   20570027.0774
      2740.8314       2135.7114
  19157344.0514  -41013618.01648 -31676705.66747  19157341.6054   19157345.4564
      1213.8994        945.8964
  22738517.7734  -26465668.16947 -20293031.66345  22738515.4374   22738522.3984
     -2256.5724      -1758.3624
  21790506.4414  -26101096.17748 -20309290.90346  21790504.5584   21790509.4024
     -1799.9874      -1402.5884
  20381802.7504  -31120777.56849 -23934496.93147  20381800.7054   20381805.3234
      2335.6294       1819.9714
  20406950.0084  -28478506.06548 -21604166.14447  20406947.8924   20406953.2104
      3206.2594       2498.3834
  21961502.0534  -18317848.43648 -14245769.93446  21961499.7324   21961505.9214
      3798.6364       2959.9734
 00  7 16  1 58 29.9960000  0  7G22G20G11G25G 1G16G19
  20554440.1194  -16579001.39148 -12598357.84046  20554437.5914   20554444.8244
      2715.6734       2116.1074
  19150479.1634  -41049692.47149 -31704815.62947  19150476.8244   19150480.6694
      1188.5414        926.1354
  22751419.1904  -26397877.37347 -20240207.75245  22751416.9414   22751422.6194
     -2265.3734      -1765.2144
  21800811.6384  -26046939.37648 -20267090.74746  21800810.1894   21800815.1254
     -1813.0214      -1412.7454
  20368499.4274  -31190688.06049 -23988972.64347  20368497.1204   20368501.6604
      2322.5864       1809.8074
  20388693.1354  -28574446.98149 -21678925.27747  20388690.9824   20388696.4234
      3187.2934       2483.6054
  21939853.2184  -18431610.39348 -14334415.50446  21939851.2284   21939857.8304
      3782.9714       2947.7674
 00  7 16  1 58 59.9960000  0  7G22G20G11G25G 1G16G19
  20538975.1034  -16660269.98548 -12661683.99546  20538972.8674   20538979.9574
      2701.3814       2104.9734
  19143733.7194  -41085143.13949 -31732439.52447  19143731.1024   19143734.6864
      1174.1224        914.9014
  22764342.0494  -26329960.58647 -20187285.66345  22764340.4304   22764347.9884
     -2263.1514      -1763.4894
  21811165.4494  -25992529.01848 -20224693.03646  21811164.1424   21811169.4714
     -1815.0974      -1414.3654
  20355244.4884  -31260343.31749 -24043249.47747  20355242.3404   20355246.9074
      2320.4174       1808.1194
  20370519.2904  -28669952.97849 -21753345.49447  20370516.6814   20370522.3084
      3179.1144       2477.2324
  21918268.2414  -18545038.42548 -14422800.85846  21918265.9294   21918272.7864
      3778.1864       2944.0374
 00  7 16  1 59 29.9960000  0  7G22G20G11G25G 1G16G19
  20523606.2644  -16741040.45348 -12724621.98546  20523603.4084   20523609.9274
      2683.6254       2091.1354
  19137083.1014  -41120091.37449 -31759671.91647  19137080.5654   19137084.0894
      1156.1974        900.9324
  22777266.3744  -26262043.45147 -20134363.32045  22777264.2024   22777271.3234
     -2264.2214      -1764.3264
  21821544.9104  -25937989.47448 -20182194.67346  21821542.7744   21821547.5254
     -1820.4804      -1418.5574
  20342015.0314  -31329865.67649 -24097422.73447  20342012.7254   20342017.3654
      2314.8654       1803.7914
  20352405.0344  -28765143.74849 -21827520.08947  20352402.6864   20352408.2944
      3167.3974       2468.1014
  21896724.0234  -18658253.77648 -14511020.51446  21896721.9534   21896728.3144
      3769.9544       2937.6234
 00  7 16  1 59 59.9960000  0  7G22G20G11G25G 1G16G19
  20508332.6354  -16821301.02648 -12787162.64646  20508330.0734   20508336.6064
      2663.7594       2075.6554
  19130530.3824  -41154527.03949 -31786504.90847  19130527.9114   19130531.4294
      1136.2654        885.4014
  22790192.4364  -26194119.49847 -20081435.64745  22790190.0584   22790197.6614
     -2267.2474      -1766.6894
  21831949.9284  -25883313.50648 -20139590.01246  21831947.5734   21831951.9954
     -1827.7814      -1424.2454
  20328811.8844  -31399246.09649 -24151485.37847  20328809.9974   20328814.5974
      2307.2974       1797.8944
  20334352.7684  -28860008.51149 -21901440.67147  20334350.4094   20334356.0664
      3153.6724       2457.4074
  21875222.0384  -18771246.30648 -14599066.53546  21875220.1144   21875226.0054
      3759.6634       2929.6044
 00  7 16  2  4 29.9960000  0  6G20G11G25G 1G16G19
  19076077.3914  -41440679.93948 -32009481.39747  19076074.9314   19076078.3534
       978.8394        762.7334
  22906594.5524  -25582429.44147 -19604795.04945  22906591.3284   22906599.3574
     -2266.7204      -1766.2674
  21926800.8584  -25384864.67148 -19751188.41446  21926798.8434   21926804.2124
     -1867.7354      -1455.3754
  20211313.0804  -32016708.88449 -24632625.15547  20211310.7774   20211315.5454
      2262.2734       1762.8104
  20174853.0304  -29698186.67349 -22554566.41547  20174850.5334   20174855.2464
      3049.8724       2376.5234
  21683745.3714  -19777457.63348 -15383126.51546  21683743.5624   21683749.3304
      3689.1424       2874.6544
 00  7 16  2  4 59.9960000  0  7G22G20G11G25G 1G16G19
  20361172.7274  -17594628.15048 -13389754.75146  20361170.0624   20361176.7334
      2485.4604       1936.7204
  19070540.1734  -41469778.12148 -32032155.33847  19070537.9674   19070541.2094
       959.9684        748.0294
  22919531.3554  -25514435.05247 -19551812.50645  22919530.4114   22919537.9874
     -2267.3564      -1766.7634
  21937474.5974  -25328769.74448 -19707478.09146  21937473.2904   21937478.3814
     -1873.0254      -1459.5004
  20198412.7224  -32084499.60049 -24685449.08647  20198410.4204   20198415.0524
      2256.0374       1757.9514
  20157476.0944  -29789502.63049 -22625721.68847  20157473.4874   20157478.4434
      3036.7784       2366.3204
  21662708.0814  -19888011.03848 -15469271.92946  21662705.9984   21662711.7254
      3679.9834       2867.5164
 00  7 16  2  5 29.9960000  0  7G22G20G11G25G 1G16G19
  20347034.6224  -17668926.72548 -13447649.66446  20347031.4774   20347038.0314
      2469.9374       1924.6234
  19065109.8704  -41498317.47748 -32054393.84747  19065107.2534   19065110.4284
       944.9114        736.2954
  22932474.2044  -25446428.64647 -19498820.62445  22932472.2934   22932479.5954
     -2264.1384      -1764.2584
  21948178.6834  -25272522.84448 -19663649.35346  21948176.9034   21948181.7484
     -1874.4754      -1460.6284
  20185546.6164  -32152109.94649 -24738132.44847  20185544.5154   20185549.1234
      2253.6184       1756.0654
  20140172.9404  -29880430.84449 -22696574.82447  20140170.5034   20140175.2514
      3027.3984       2359.0104
  21641721.4254  -19998294.93148 -15555207.33946  21641719.5834   21641725.5114
      3674.5724       2863.2994
 00  7 16  2  5 59.9960000  0  7G22G20G11G25G 1G16G19
  20332988.6234  -17742737.50648 -13505164.46746  20332985.7434   20332992.2124
      2449.1684       1908.4394
  19059768.1304  -41526383.77348 -32076263.72647  19059765.7164   19059769.7754
       924.6304        720.4924
  22945400.1694  -25378499.76147 -19445889.09845  22945397.5144   22945404.8624
     -2266.0464      -1765.7374
  21958894.5554  -25216212.46748 -19619771.15846  21958892.6334   21958897.3274
     -1881.0724      -1465.7714
  20172698.4974  -32219626.10749 -24790742.41047  20172696.4824   20172701.5594
      2245.9614       1750.0994
  20122927.7974  -29971055.67148 -22767191.54147  20122925.1174   20122929.5944
      3012.7254       2347.5774
  21620770.4904  -20108395.02248 -15640999.52146  21620768.8114   21620774.3144
      3663.9074       2854.9904
 00  7 16  2  6 29.9960000  0  7G22G20G11G25G 1G16G19
  20319054.9984  -17815952.20448 -13562214.79446  20319052.9884   20319059.8454
      2432.2034       1895.2204
  19054538.0744  -41553869.52948 -32097681.24147  19054535.9304   19054539.6454
       908.2504        707.7294
  22958332.5744  -25310544.38247 -19392936.94345  22958330.1654   22958337.5734
     -2263.9084      -1764.0804
  21969641.6784  -25159733.77048 -19575761.79946  21969639.9414   21969644.8454
     -1883.6364      -1467.7664
  20159889.5984  -32286941.54349 -24843195.97347  20159887.0744   20159891.5954
      2242.2554       1747.2114
  20105760.9724  -30061268.09849 -22837486.91647  20105758.3594   20105762.6124
      3001.9044       2339.1444
  21599875.1024  -20218203.74148 -15726564.65546  21599872.7824   21599878.4404
      3657.1594       2849.7314
 00  7 16  2  6 59.9960000  0  7G22G20G11G25G 1G16G19
  20305231.2934  -17888598.56848 -13618822.26146  20305228.9604   20305235.3254
      2409.8954       1877.8354
  19049413.2154  -41580803.73949 -32118668.98547  19049410.5374   19049414.1794
       886.5074        690.7864
  22971262.2554  -25242595.23647 -19339989.61045  22971260.2114   22971266.9624
     -2266.9534      -1766.4494
  21980415.2424  -25103118.46248 -19531645.97546  21980413.4954   21980418.1034
     -1891.5444      -1473.9314
  20147111.9994  -32354085.82849 -24895516.16047  20147109.7224   20147114.6364
      2233.1914       1740.1484
  20088667.0354  -30151095.50949 -22907482.27347  20088664.6014   20088669.0824
      2985.7174       2326.5324
  21579028.7734  -20327750.33148 -15811925.54246  21579026.6964   21579031.8654
      3645.0774       2840.3174
 00  7 16  2  7 29.9960000  0  7G22G20G11G25G 1G16G19
  20291507.1164  -17960725.66648 -13675025.09446  20291504.1154   20291510.0534
      2393.6044       1865.1424
  19044382.7804  -41607237.28248 -32139266.59047  19044380.3684   19044383.7904
       870.8704        678.6014
  22984180.9244  -25174706.85047 -19287089.63345  22984178.9364   22984186.4924
     -2263.8704      -1764.0534
  21991205.1704  -25046420.01948 -19487465.35446  21991203.1204   21991207.6574
     -1893.2194      -1475.2394
  20134357.4564  -32421110.22949 -24947742.94347  20134355.3384   20134360.2604
      2230.2424       1737.8514
  20071637.4104  -30240587.46149 -22977216.23247  20071635.1124   20071639.6344
      2975.5434       2318.6044
  21558222.5864  -20437085.17448 -15897121.43346  21558220.6124   21558225.9494
      3639.0604       2835.6294
 00  7 16  2  7 59.9960000  0  7G22G20G11G25G 1G16G19
  20277882.8294  -18032319.27448 -13730812.21546  20277880.3644   20277886.2994
      2373.6784       1849.6154
  19039450.5924  -41633157.66249 -32159464.32447  19039448.0824   19039451.5154
       851.6094        663.5914
  22997089.4504  -25106869.79247 -19234229.66745  22997087.2684   22997095.5004
     -2264.2004      -1764.3034
  22002012.2974  -24989628.17848 -19443211.96546  22002010.1204   22002014.5424
     -1898.4074      -1479.2764
  20121629.1714  -32488002.47449 -24999866.75147  20121626.7564   20121631.0844
      2223.7154       1732.7644
  20054674.5374  -30329729.79749 -23046677.76947  20054671.8504   20054676.4894
      2961.7474       2307.8544
  21537459.6064  -20546195.61048 -15982142.44246  21537457.1864   21537463.0354
      3629.4304       2828.1244
 00  7 16  2  8 29.9960000  0  7G22G20G11G25G 1G16G19
  20264366.8844  -18103344.79548 -13786156.67046  20264364.3324   20264370.3104
      2358.0514       1837.4404
  19034622.0594  -41658531.56649 -32179236.20847  19034619.4804   19034623.1494
       836.7034        651.9774
  23009994.7974  -25039054.35947 -19181386.56445  23009991.6354   23009999.4154
     -2260.1604      -1761.1574
  22012842.2614  -24932712.32848 -19398861.94446  22012840.8464   22012845.4084
     -1899.1994      -1479.8954
  20108930.4774  -32554729.71049 -25051861.98047  20108928.2874   20108933.0784
      2221.5434       1731.0724
  20037784.1384  -30418487.39849 -23115839.50847  20037781.6554   20037786.4874
      2952.2164       2300.4274
  21516745.8154  -20655048.17248 -16066962.53346  21516743.6264   21516748.9144
      3624.1444       2824.0014
 00  7 16  2  8 59.9960000  0  7G22G20G11G25G 1G16G19
  20250967.2024  -18173759.56948 -13841025.22646  20250964.4924   20250970.6494
      2337.0014       1821.0384
  19029905.3324  -41683317.23149 -32198549.72047  19029902.8524   19029906.5324
       816.4794        636.2174
  23022903.7164  -24971222.08447 -19128530.32045  23022900.3164   23022907.9824
     -2261.2694      -1762.0174
  22023704.6254  -24875633.13448 -19354384.63746  22023702.2844   22023707.2974
     -1905.2214      -1484.5864
  20096271.9934  -32621250.67749 -25103696.48647  20096269.8714   20096274.5754
      2214.0604       1725.2414
  20020975.5884  -30506817.57449 -23184668.19547  20020973.0814   20020977.9464
      2937.3244       2288.8234
  21496087.8384  -20763601.02248 -16151549.07346  21496086.1104   21496092.0894
      3613.5214       2815.7274
 00  7 16  2  9 29.9960000  0  8G22G 4G20G11G25G 1G16G19
  20237680.4244  -18243581.85948 -13895432.11746  20237677.7174   20237683.4584
      2314.9854       1803.8814
  23580599.2094   -6766908.91857  -4983701.47645  23580597.4644   23580602.2844
      2668.8264       2079.5984
  19025297.2114  -41707534.36249 -32217420.21047  19025294.5774   19025298.0274
       795.2744        619.6944
  23035808.5434  -24903396.13647 -19075679.02245  23035806.8544   23035814.4144
     -2263.2804      -1763.5834
  22034593.3764  -24818412.79848 -19309797.36946  22034591.0724   22034595.6544
     -1912.1504      -1489.9864
  20083649.0994  -32687585.55049 -25155385.98847  20083646.9274   20083651.4834
      2205.5894       1718.6414
  20004245.1024  -30594737.97949 -23253177.58347  20004242.5434   20004247.2704
      2921.3584       2276.3824
  21475484.7724  -20871873.43648 -16235917.08746  21475482.5304   21475488.5634
      3601.9074       2806.6784
 00  7 16  2  9 59.9960000  0  8G22G 4G20G11G25G 1G16G19
  20224493.5304  -18312876.47148 -13949427.81746  20224491.1044   20224497.4254
      2303.3584       1794.8204
  23565381.8644   -6846871.76847  -5046010.11645  23565379.8864   23565385.4974
      2660.6394       2073.2264
  19020784.5134  -41731249.55749 -32235899.57247  19020781.7594   19020785.2414
       784.5564        611.3424
  23048703.2204  -24835646.56647 -19022887.24545  23048700.1214   23048707.1104
     -2254.6574      -1756.8814
  22045495.3414  -24761120.14248 -19265153.73146  22045493.9254   22045498.1194
     -1908.5064      -1487.1494
  20071048.9314  -32753801.27649 -25206982.64547  20071046.7124   20071051.4074
      2207.6264       1720.2284
  19987579.8074  -30682313.56349 -23321418.28447  19987577.3024   19987582.5544
      2915.8494       2272.0894
  21454921.9544  -20979932.10348 -16320118.57346  21454920.0644   21454925.4724
      3600.7964       2805.8104
 00  7 16  2 10 29.9960000  0  8G22G 4G20G11G25G 1G16G19
  20211416.7284  -18381596.29748 -14002975.63746  20211414.1204   20211420.5674
      2281.3874       1777.7014
  23550254.3014   -6926364.15047  -5107952.18945  23550253.9464   23550257.6994
      2642.3074       2058.9224
  19016375.3944  -41754417.28349 -32253952.34847  19016372.9224   19016376.5394
       763.5324        594.9614
  23061587.9224  -24767931.34147 -18970122.21745  23061586.5724   23061592.1814
     -2256.1964      -1758.0624
  22056419.4844  -24703712.02248 -19220420.12346  22056417.7934   22056422.4484
     -1915.0804      -1492.2694
  20058479.4684  -32819852.60649 -25258451.20947  20058477.3474   20058482.2364
      2199.3704       1713.7954
  19970989.1934  -30769497.03249 -23389353.43347  19970986.6124   19970991.6434
      2899.9954       2259.7364
  21434408.2574  -21087731.07148 -16404117.68146  21434406.1554   21434412.1284
      3589.3624       2796.9014
 00  7 16  2 10 59.9960000  0  8G22G 4G20G11G25G 1G16G19
  20198441.7974  -18449781.72748 -14056107.05446  20198439.0594   20198445.1044
      2263.6404       1763.8724
  23535208.7664   -7005426.76147  -5169559.33745  23535207.1804   23535212.3804
      2627.9484       2047.7574
  19012063.2304  -41777078.76249 -32271610.64647  19012060.7034   19012064.1244
       746.7094        581.8504
  23074459.7774  -24700295.07447 -18917418.73245  23074456.8554   23074463.5394
     -2253.4634      -1755.9434
  22067357.9034  -24646232.34548 -19175630.75146  22067355.8354   22067360.2504
     -1917.3924      -1494.0734
  20045933.8464  -32885781.38949 -25309824.28047  20045931.5874   20045936.2924
      2195.3654       1710.6734
  19954465.8254  -30856328.81849 -23457014.54547  19954463.2234   19954468.3604
      2888.2844       2250.6104
  21413936.5604  -21195311.72048 -16487946.67846  21413934.3604   21413939.6354
      3582.1444       2791.2784
 00  7 16  2 11 29.9960000  0  8G22G 4G20G11G25G 1G16G19
  20185578.3324  -18517378.36648 -14108779.68246  20185575.6574   20185581.6714
      2244.9654       1749.3214
  23520255.9684   -7084005.09547  -5230789.12745  23520255.4174   23520260.5104
      2612.7164       2035.8794
  19007856.7954  -41799180.89849 -32288833.09047  19007854.5574   19007858.4334
       729.0244        568.0714
  23087325.4014  -24632687.67947 -18864737.74445  23087323.7714   23087329.2084
     -2251.4844      -1754.3954
  22078318.9594  -24588630.29248 -19130746.01946  22078317.1514   22078322.1194
     -1920.4574      -1496.4604
  20033421.0714  -32951534.63449 -25361060.57047  20033418.8504   20033423.6234
      2190.4564       1706.8494
  19938020.3134  -30942753.01849 -23524358.06347  19938017.4554   19938022.4664
      2875.6474       2240.7644
  21393516.1894  -21302620.37948 -16571563.74246  21393514.3394   21393519.4244
      3574.0224       2784.9504
 00  7 16  2 11 59.9960000  0  8G22G 4G20G11G25G 1G16G19
  20172825.3914  -18584392.60848 -14160998.49846  20172823.0294   20172829.2724
      2225.4084       1734.0814
  23505393.6504   -7162106.25247  -5291647.09045  23505392.8134   23505399.1344
      2596.7414       2023.4314
  19003756.4944  -41820731.40949 -32305625.68847  19003753.8304   19003757.4234
       710.5624        553.6874
  23100182.8454  -24565120.16947 -18812087.85045  23100180.0364   23100188.4764
     -2250.1884      -1753.3844
  22089301.8954  -24530916.02748 -19085773.87946  22089299.8204   22089304.5824
     -1924.2234      -1499.3954
  20020940.5104  -33017120.32349 -25412166.29347  20020938.3054   20020943.1764
      2184.8254       1702.4604
  19921650.3014  -31028776.59249 -23591389.40947  19921647.7454   19921652.8464
      2862.1544       2230.2504
  21373146.0564  -21409664.39648 -16654974.58246  21373144.1964   21373149.5254
      3565.1204       2778.0134
 00  7 16  2 12 29.9960000  0  8G22G 4G20G11G25G 1G16G19
  20160173.2624  -18650881.57948 -14212808.00346  20160170.7714   20160176.6784
      2204.2254       1717.5774
  23490611.5854   -7239788.27047  -5352178.44545  23490609.8034   23490615.3734
      2579.1104       2009.6954
  18999748.9904  -41841789.32249 -32322034.43147  18999746.5624   18999750.1364
       690.4764        538.0324
  23113020.2044  -24497654.82247 -18759517.57145  23113018.3334   23113024.6494
     -2250.3764      -1753.5414
  22100294.2794  -24473150.36848 -19040761.66946  22100292.1694   22100297.1494
     -1929.5664      -1503.5554
  20008480.4884  -33082597.61849 -25463187.55847  20008478.4424   20008483.2554
      2177.5474       1696.7894
  19905345.5414  -31114456.38849 -23658152.87747  19905342.9784   19905348.4154
      2846.9994       2218.4414
  21352816.0384  -21516502.54748 -16738224.99846  21352813.7484   21352818.4934
      3554.6144       2769.8274
 00  7 16  2 12 59.9960000  0  8G22G 4G20G11G25G 1G16G19
  20147645.7934  -18716716.40348 -14264107.78046  20147642.8754   20147648.5174
      2185.2564       1702.7944
  23475933.0924   -7316923.00447  -5412283.31145  23475932.4104   23475937.5894
      2563.6934       1997.6724
  18995859.9134  -41862227.17549 -32337960.02647  18995857.2414   18995861.2264
       672.6234        524.1234
  23125862.9804  -24430167.39247 -18706930.02945  23125860.1624   23125869.0504
     -2248.2314      -1751.8674
  22111320.4644  -24415208.91848 -18995612.47846  22111318.2424   22111323.2864
     -1932.5724      -1505.9024
  19996065.3704  -33147839.37949 -25514025.28647  19996063.2954   19996067.8274
      2172.5204       1692.8724
  19889130.6664  -31199663.65549 -23724548.13147  19889128.3414   19889133.4964
      2834.0594       2208.3584
  21332548.6594  -21623007.23848 -16821215.59446  21332546.6804   21332551.4284
      3546.2644       2763.3224
 00  7 16  2 13 29.9960000  0  8G22G 4G20G11G25G 1G16G19
  20135217.5294  -18782025.56548 -14314997.96047  20135215.2084   20135220.9234
      2167.2814       1688.7864
  23461335.5414   -7393638.82947  -5472061.77545  23461333.7454   23461338.2774
      2549.2184       1986.3994
  18992063.5584  -41882174.59649 -32353503.47147  18992061.1794   18992065.2604
       655.9024        511.0914
  23138684.4354  -24362790.68047 -18654428.83345  23138683.1754   23138690.3644
     -2244.8724      -1749.2474
  22122354.8584  -24357222.87948 -18950428.53046  22122352.6804   22122357.2474
     -1934.4504      -1507.3664
  19983671.2704  -33212975.47149 -25564780.66247  19983668.7654   19983673.3114
      2168.5734       1689.7984
  19872981.9224  -31284525.66949 -23790674.35147  19872979.8444   19872984.7594
      2822.0824       2199.0234
  21312319.9724  -21729307.54748 -16904046.92046  21312317.9114   21312323.3224
      3539.0534       2757.7024
 00  7 16  2 13 59.9960000  0  8G22G 4G20G11G25G 1G16G19
  20122897.2344  -18846770.30948 -14365448.33447  20122894.6204   20122900.2474
      2148.2654       1673.9724
  23446825.3414   -7469897.29647  -5531483.86245  23446823.4404   23446827.0344
      2533.9234       1974.4804
  18988368.5544  -41901593.79249 -32368635.31047  18988365.9914   18988369.9054
       638.0504        497.1804
  23151491.7924  -24295489.97147 -18601986.81745  23151489.2314   23151497.9094
     -2242.4984      -1747.3964
  22133404.2384  -24299156.91548 -18905182.29246  22133402.4204   22133406.9544
     -1937.2484      -1509.5454
  19971303.1744  -33277968.19549 -25615424.34447  19971300.8294   19971305.3074
      2163.6274       1685.9434
  19856907.4064  -31369003.36649 -23856501.10947  19856904.5984   19856909.0264
      2809.0724       2188.8874
  21292137.9574  -21835365.22948 -16986689.19146  21292135.9034   21292141.0394
      3530.7664       2751.2434
 00  7 16  2 14 29.9960000  0  8G22G 4G20G11G25G 1G16G19
  20110698.8934  -18910871.35848 -14415397.12647  20110696.4144   20110702.0964
      2131.0264       1660.5374
  23432414.2424   -7545619.87247  -5590488.41545  23432411.3334   23432417.4124
      2520.2084       1963.7984
  18984788.8724  -41920407.00949 -32383294.96147  18984786.3744   18984790.0804
       622.1454        484.7884
  23164297.1444  -24228190.80247 -18549546.02545  23164295.4244   23164304.5384
     -2238.1794      -1744.0284
  22144483.0894  -24240935.67848 -18859815.07546  22144481.2314   22144485.9014
     -1938.1714      -1510.2654
  19958977.4734  -33342739.84549 -25665895.76247  19958975.2614   19958979.7494
      2160.4874       1683.4974
  19840919.1104  -31453017.08949 -23921966.34847  19840916.7894   19840922.1274
      2797.8454       2180.1384
  21272017.0454  -21941102.82848 -17069082.06746  21272015.1264   21272019.8064
      3524.3534       2746.2474
 00  7 16  2 14 59.9950000  0  8G22G 4G20G11G25G 1G16G19
  20098604.7034  -18974429.37848 -14464922.76247  20098601.5574   20098607.6874
      2105.1444       1640.3714
  23418086.8434   -7620907.60647  -5649154.12545  23418085.8664   23418089.7464
      2497.9664       1946.4574
  18981303.9684  -41938718.14949 -32397563.38847  18981301.6054   18981305.5884
       597.5654        465.6364
  23177082.5404  -24161002.94047 -18497191.95245  23177082.4334   23177088.6354
     -2242.2844      -1747.2334
  22155571.3324  -24182667.39248 -18814411.20646  22155569.2554   22155573.8314
     -1947.6144      -1517.6224
  19946674.1194  -33407393.19249 -25716274.99447  19946671.8754   19946676.6404
      2148.7954       1674.3854
  19825001.6224  -31536666.93449 -23987148.03547  19824998.9984   19825003.9074
      2777.9224       2164.6154
  21251937.1434  -22046620.74048 -17151303.75246  21251935.2794   21251940.8204
      3509.2784       2734.4994
 00  7 16  2 15 29.9950000  0  8G22G 4G20G11G25G 1G16G19
  20086624.9424  -19037378.33748 -14513973.81047  20086622.6324   20086628.8214
      2091.7584       1629.9394
  23403855.0324   -7695695.72947  -5707430.53145  23403853.7804   23403859.7214
      2488.2534       1938.8904
  18977928.3704  -41956459.49649 -32411387.81447  18977925.7404   18977929.2304
       585.6364        456.3394
  23189860.9844  -24093856.15547 -18444869.88345  23189858.5074   23189867.1414
     -2233.7654      -1740.5984
  22166682.0134  -24124281.47048 -18768915.67146  22166679.9344   22166684.3704
     -1944.3554      -1515.0844
  19934405.9954  -33471863.64449 -25766511.70647  19934403.6894   19934408.3944
      2149.7064       1675.0954
  19809165.4544  -31619887.68149 -24051995.36247  19809162.6024   19809167.6144
      2770.5664       2158.8814
  21231911.4914  -22151856.84648 -17233305.84446  21231909.4644   21231914.9854
      3506.8464       2732.6064
 00  7 16  2 15 59.9950000  0  8G22G 4G20G11G25G 1G16G19
  20074742.7394  -19099819.71748 -14562629.34546  20074739.9604   20074746.1874
      2070.1594       1613.1084
  23389699.7504   -7770085.41847  -5765396.48845  23389697.9684   23389701.8484
      2470.2364       1924.8664
  18974640.7844  -41973735.18149 -32424849.37347  18974638.0674   18974641.8814
       565.4174        440.5834
  23202609.9654  -24026860.34847 -18392665.44845  23202607.7434   23202617.4734
     -2233.3624      -1740.2804
  22177792.8404  -24065886.88448 -18723413.38946  22177791.7194   22177796.6574
     -1949.3034      -1518.9394
  19922153.1314  -33536253.55349 -25816685.65547  19922150.8734   19922155.3654
      2142.3114       1669.3334
  19793391.1764  -31702779.70049 -24116586.52847  19793388.7974   19793393.6884
      2754.8564       2146.6414
  21211920.2544  -22256911.95248 -17315166.89846  21211918.0094   21211923.3794
      3496.1144       2724.2424
 00  7 16  2 16 29.9950000  0  8G22G 4G20G11G25G 1G16G19
  20062974.1434  -19161664.44248 -14610819.96147  20062971.3964   20062977.5854
      2049.8314       1597.2674
  23375636.3024   -7843987.57047  -5822982.53645  23375633.8344   23375639.4064
      2453.5384       1911.8484
  18971457.9464  -41990456.90849 -32437879.28247  18971455.8914   18971459.8554
       546.5234        425.8634
  23215346.1644  -23959930.37247 -18340512.35045  23215344.9084   23215352.2094
     -2231.5544      -1738.8624
  22188923.9244  -24007397.26848 -18677837.05446  22188922.1904   22188927.0244
     -1952.8864      -1521.7264
  19909932.0534  -33600474.85149 -25866728.21047  19909929.7354   19909934.6074
      2136.2824       1664.6344
  19777697.0254  -31785252.48349 -24180851.01447  19777694.6084   19777699.7764
      2740.4624       2135.4234
  21191980.5654  -22361697.28448 -17396817.73946  21191978.2624   21191982.8684
      3486.6964       2716.9034
 00  7 16  2 16 59.9950000  0  8G22G 4G20G11G25G 1G16G19
  20051323.9774  -19222886.86048 -14658525.65747  20051321.2674   20051327.5844
      2034.8404       1585.5874
  23361670.4414   -7917377.47547  -5880169.39745  23361667.9504   23361673.3274
      2442.2694       1903.0744
  18968386.4784  -42006600.91549 -32450459.03247  18968383.8984   18968387.8334
       533.0114        415.3334
  23228074.0484  -23893045.39147 -18288394.27045  23228072.3534   23228080.5134
     -2224.1754      -1733.1114
  22200076.2404  -23948790.79148 -18632169.66146  22200074.6314   22200079.0614
     -1950.9444      -1520.2164
  19897747.6294  -33664503.99549 -25916621.03747  19897745.3744   19897749.8464
      2135.6604       1664.1504
  19762087.7744  -31867280.87349 -24244769.23047  19762085.1504   19762089.9764
      2731.3824       2128.3484
  21172096.0334  -22466188.80248 -17478239.62846  21172093.9924   21172099.1084
      3482.6784       2713.7744
 00  7 16  2 17 29.9950000  0  8G22G 4G20G11G25G 1G16G19
  20039785.9894  -19283522.22648 -14705773.91847  20039783.0584   20039788.9504
      2012.7334       1568.3604
  23347796.8314   -7990290.99347  -5936985.09645  23347794.7244   23347798.3044
      2423.8694       1888.7324
  18965417.2734  -42022203.83249 -32462617.14347  18965414.8344   18965418.3304
       512.4534        399.3124
  23240785.6104  -23826245.10447 -18236342.21945  23240782.7524   23240792.0444
     -2223.8394      -1732.8654
  22211243.5404  -23890106.37748 -18586441.51946  22211241.7354   22211246.8464
     -1956.0094      -1524.1634
  19885593.0004  -33728377.60449 -25966392.67847  19885590.6344   19885595.2404
      2127.9434       1658.1384
  19746556.6394  -31948899.61949 -24308368.23347  19746553.7184   19746558.6334
      2715.1864       2115.7274
  21152260.7014  -22570422.67148 -17559460.75746  21152258.7794   21152264.2284
      3471.5664       2705.1124
 00  7 16  2 17 59.9950000  0  8G22G 4G20G11G25G 1G16G19
  20028359.8764  -19343561.64948 -14752557.82446  20028357.5194   20028363.1164
      1991.1584       1551.5494
  23334013.6174   -8062719.63147  -5993422.94545  23334011.8114   23334015.7654
      2405.9634       1874.7724
  18962552.5584  -42037258.24349 -32474347.82947  18962550.1154   18962553.6624
       492.5074        383.7714
  23253482.1504  -23759524.98947 -18184352.66345  23253479.5884   23253489.2344
     -2222.7904      -1732.0394
  22222426.7864  -23831338.41048 -18540648.28646  22222425.0784   22222429.6174
     -1960.4574      -1527.6274
  19873469.2724  -33792088.00949 -26016037.14147  19873466.9054   19873471.7584
      2120.8014       1652.5724
  19731104.9274  -32030099.58149 -24371640.91247  19731102.0534   19731107.0554
      2699.5054       2103.5114
  21132475.8864  -22674391.03448 -17640474.99846  21132473.8544   21132479.2984
      3461.0104       2696.8874
 00  7 16  2 18 29.9950000  0  7G22G 4G20G25G 1G16G19
  20017058.1074  -19402954.18848 -14798837.65746  20017055.5314   20017061.0864
      1967.1454       1532.8394
  23320332.6554   -8134612.50247  -6049443.33245  23320330.3174   23320335.8314
      2385.6274       1858.9274
  18959801.6084  -42051714.31849 -32485612.29247  18959799.0734   18959802.9844
       470.1744        366.3704
  22233635.2274  -23772438.74548 -18494752.41746  22233633.3814   22233638.1594
     -1967.2034      -1532.8834
  19861385.8484  -33855585.05349 -26065515.34247  19861383.6354   19861388.4594
      2111.2854       1645.1574
  19715741.9354  -32110828.41849 -24434546.48147  19715739.5314   19715744.6404
      2681.3774       2089.3844
  21112751.8044  -22778043.48948 -17721243.07746  21112749.8744   21112754.4014
      3448.0614       2686.7984
 00  7 16  2 18 59.9950000  0  7G22G 4G20G25G 1G16G19
  20005866.9564  -19461763.27448 -14844662.84246  20005864.5204   20005870.0324
      1950.4614       1519.8374
  23306741.5134   -8206033.31447  -6105095.85445  23306739.2634   23306744.8564
      2372.7174       1848.8734
  18957152.3634  -42065636.39649 -32496460.67147  18957149.8064   18957153.4884
       455.1264        354.6444
  22244856.1314  -23713473.75648 -18448805.66046  22244854.1734   22244858.8594
     -1966.6104      -1532.4244
  19849331.1684  -33918933.12249 -26114877.47347  19849329.0104   19849333.5624
      2109.0694       1643.4304
  19700457.0644  -32191149.18449 -24497134.07147  19700454.6744   19700459.7514
      2670.4924       2080.9024
  21093075.4174  -22881444.20048 -17801814.98946  21093073.2404   21093078.0594
      3442.4244       2682.4094
 00  7 16  2 19 29.9950000  0  7G22G 4G20G25G 1G16G19
  19994783.8204  -19520003.27748 -14890044.59647  19994781.4424   19994787.4434
      1936.3304       1508.8264
  23293237.3904   -8276997.15347  -6160392.32645  23293235.2964   23293241.2724
      2362.2654       1840.7264
  18954601.4684  -42079040.64349 -32506905.54447  18954598.9084   18954602.5694
       442.6974        344.9594
  22256086.0344  -23654461.93348 -18402822.40646  22256083.4974   22256088.2124
     -1963.2844      -1529.8354
  19837302.1134  -33982148.30149 -26164136.05647  19837299.7434   19837304.0334
      2109.4854       1643.7554
  19685248.1494  -32271076.13249 -24559414.80047  19685245.5774   19685250.1384
      2662.1554       2074.4064
  21073443.7724  -22984608.97048 -17882203.05346  21073441.6014   21073446.6204
      3439.3914       2680.0444
 00  7 16  2 19 59.9950000  0  7G22G 4G20G25G 1G16G19
  19983818.5884  -19577625.55848 -14934945.01846  19983816.0384   19983822.1834
      1908.3274       1487.0054
  23279829.3044   -8347456.15747  -6215295.40245  23279827.4564   23279832.6014
      2338.0754       1821.8694
  18952158.5144  -42091879.91349 -32516910.18447  18952155.9154   18952159.7164
       416.5024        324.5474
  22267332.6244  -23595357.71348 -18356767.13546  22267331.1054   22267334.9274
     -1973.6934      -1537.9464
  19825307.1394  -34045183.40349 -26213254.31047  19825304.7114   19825309.0564
      2096.1194       1633.3404
  19670123.4954  -32350559.77849 -24621350.10047  19670120.5004   19670125.3434
      2640.0064       2057.1474
  21053865.9704  -23087489.94248 -17962369.99047  21053864.0194   21053868.8264
      3422.5714       2666.9374
 00  7 16  2 20 29.9950000  0  7G22G 4G20G25G 1G16G19
  19972971.5364  -19634627.03248 -14979361.69146  19972969.0414   19972975.2054
      1890.8844       1473.4154
  23266518.5724   -8417407.31447  -6269802.73345  23266516.6364   23266521.4884
      2324.4174       1811.2274
  18949823.0984  -42104152.27049 -32526473.08447  18949820.4494   18949824.4434
       400.8684        312.3654
  22278598.3404  -23536161.01348 -18310639.79846  22278595.4034   22278600.4774
     -1973.5204      -1537.8094
  19813346.4524  -34108036.19749 -26262230.50047  19813344.2844   19813348.7874
      2093.2974       1631.1394
  19655082.5444  -32429596.75749 -24682937.33847  19655079.9084   19655085.1484
      2628.3564       2048.0694
  21034343.2424  -23190084.64748 -18042313.84947  21034341.0374   21034345.7744
      3416.2894       2662.0434
 00  7 16  2 20 59.9950000  0  7G22G 4G20G25G 1G16G19
  19962242.1434  -19691012.80248 -15023298.59547  19962239.4374   19962245.1204
      1869.2004       1456.5174
  23253301.5984   -8486855.68047  -6323918.29945  23253301.0744   23253306.6464
      2306.5464       1797.3064
  18947593.8504  -42115863.72149 -32535598.90147  18947591.6194   18947595.4694
       381.0394        296.9134
  22289878.3714  -23476879.59748 -18264446.43846  22289876.1374   22289880.5034
     -1977.4094      -1540.8414
  19801419.6814  -34170712.77949 -26311069.39447  19801417.2964   19801421.8294
      2086.2704       1625.6654
  19640125.9754  -32508190.78949 -24744179.42947  19640123.6874   19640129.1184
      2612.4284       2035.6574
  21014872.9584  -23292398.88948 -18122039.17047  21014871.0924   21014875.9144
      3405.7914       2653.8624
 00  7 16  2 21 29.9950000  0  7G22G 4G20G25G 1G16G19
  19951625.9794  -19746800.55848 -15066769.50947  19951623.3834   19951629.0854
      1851.9784       1443.0994
  23240178.8714   -8555819.24947  -6377656.11945  23240177.4554   23240182.4614
      2293.0774       1786.8064
  18945468.1964  -42127033.09448 -32544302.31447  18945465.9574   18945469.8974
       365.7044        284.9644
  22301171.7054  -23417533.98948 -18218203.08746  22301169.2974   22301173.8264
     -1976.7944      -1540.3604
  19789522.5564  -34233231.69749 -26359785.43747  19789520.0184   19789524.8674
      2083.7694       1623.7154
  19625251.3014  -32586359.17049 -24805089.84147  19625248.8224   19625253.8014
      2600.9374       2026.7054
  20995453.4324  -23394450.99448 -18201560.23747  20995451.2784   20995455.9304
      3399.7814       2649.1784
 00  7 16  2 21 59.9950000  0  7G22G 4G20G25G 1G16G19
  19941108.2774  -19802071.47048 -15109837.69947  19941105.8854   19941111.3014
      1832.5894       1427.9904
  23227132.5204   -8624379.98647  -6431080.02745  23227131.1244   23227136.5104
      2277.5464       1774.7144
  18943430.6414  -42137743.35449 -32552647.99647  18943427.8974   18943432.1554
       348.3044        271.4074
  22312460.7494  -23358209.19648 -18171975.96846  22312458.6884   22312462.9624
     -1978.1674      -1541.4264
  19777639.1154  -34295675.44249 -26408442.90847  19777637.1394   19777642.1984
      2079.1464       1620.1134
  19610442.4094  -32664182.62549 -24865731.48947  19610439.6684   19610444.5654
      2587.2824       2016.0644
  20976067.2114  -23496323.22248 -18280941.12647  20976065.1204   20976070.1614
      3391.6974       2642.8784
 00  7 16  2 22 29.9950000  0  7G22G 4G20G25G 1G16G19
  19930705.4504  -19856741.19448 -15152437.42947  19930702.7094   19930708.0144
      1810.3394       1410.6534
  23214178.8534   -8692454.08347  -6484124.76545  23214177.3774   23214180.6014
      2259.0284       1760.2804
  18941495.3534  -42147911.54249 -32560571.30647  18941493.0614   18941497.2004
       327.9554        255.5524
  22323760.9924  -23298823.94348 -18125701.72546  22323759.0194   22323763.2654
     -1982.4114      -1544.7404
  19765787.6024  -34357960.96449 -26456977.08747  19765784.9304   19765789.5434
      2071.6564       1614.2794
  19595715.1254  -32741576.19149 -24926038.16347  19595712.3644   19595717.1624
      2570.7024       2003.1454
  20956732.0334  -23597932.26148 -18360116.94547  20956729.8714   20956734.6444
      3380.6514       2634.2724
 00  7 16  2 22 59.9950000  0  7G22G 4G20G25G 1G16G19
  19920431.5984  -19910726.21748 -15194503.63547  19920429.2104   19920434.9804
      1788.6484       1393.7494
  23201333.1714   -8759958.19147  -6536725.36345  23201330.0454   23201335.0644
      2241.2014       1746.3834
  18939679.6374  -42157455.27849 -32568008.04147  18939677.1294   18939681.1404
       308.3344        240.2634
  22335087.9764  -23239297.64348 -18079317.55146  22335086.3414   22335090.8754
     -1985.9424      -1547.4904
  19753980.5874  -34420005.46049 -26505323.45847  19753978.1334   19753982.8284
      2064.7394       1608.8864
  19581085.0504  -32818456.03849 -24985944.53447  19581082.4704   19581087.2574
      2554.6804       1990.6604
  20937462.6824  -23699195.07448 -18439022.96747  20937460.4434   20937465.0484
      3370.2644       2626.1784
 00  7 16  2 23 29.9950000  0  7G22G 4G20G25G 1G16G19
  19910264.8374  -19964152.87948 -15236134.76347  19910262.2024   19910268.2364
      1771.9944       1380.7734
  23188571.9154   -8827018.60247  -6588980.24445  23188569.9784   23188573.9604
      2228.3784       1736.3994
  18937958.1504  -42166501.75949 -32575057.27647  18937955.5374   18937959.7884
       293.7224        228.8754
  22346418.0914  -23179758.68948 -18032923.53046  22346416.0054   22346420.5254
     -1984.3514      -1546.2454
  19742195.0004  -34481935.68849 -26553580.77447  19742193.0874   19742197.4524
      2062.9034       1607.4564
  19566528.7024  -32894946.49949 -25045547.48547  19566526.3684   19566531.4994
      2543.6534       1982.0674
  20918234.1464  -23800238.39848 -18517757.96247  20918232.0844   20918236.8254
      3364.9094       2622.0044
 00  7 16  2 23 59.9950000  0  7G22G 4G20G25G 1G16G19
  19900214.7874  -20016965.79848 -15277287.64547  19900212.2524   19900217.8584
      1750.5974       1364.1004
  23175903.8324   -8893580.13147  -6640846.36745  23175902.3704   23175908.6854
      2210.8224       1722.7234
  18936341.4394  -42174996.79349 -32581676.79647  18936338.9764   18936343.5064
       274.4284        213.8414
  22357760.4394  -23120154.81548 -17986478.93446  22357757.9374   22357763.0934
     -1987.4264      -1548.6454
  19730442.6124  -34543697.30949 -26601706.72247  19730440.1184   19730444.5684
      2056.3514       1602.3534
  19552057.7034  -32970992.30349 -25104803.95347  19552055.4534   19552060.4474
      2527.8744       1969.7704
  20899058.3694  -23901007.47448 -18596279.26547  20899056.3484   20899061.1054
      3354.8324       2614.1544
 00  7 16  2 24 29.9950000  0  7G22G 4G20G25G 1G16G19
  19890289.1154  -20069126.92748 -15317932.64747  19890286.3314   19890291.8254
      1730.1014       1348.1304
  23163341.1834   -8959605.66647  -6692294.80945  23163338.6514   23163343.3654
      2194.0974       1709.6924
  18934837.0054  -42182904.08749 -32587838.32947  18934834.4884   18934838.8124
       256.1094        199.5664
  22369121.4454  -23060451.51448 -17939956.89246  22369119.3644   22369124.5134
     -1989.3874      -1550.1734
  19718728.5634  -34605253.59949 -26649672.66647  19718726.4254   19718730.8884
      2050.7874       1598.0174
  19537679.2084  -33046554.56949 -25163683.63347  19537676.5954   19537681.4604
      2513.0114       1958.1904
  20879941.6014  -24001465.38148 -18674558.10447  20879939.6824   20879945.2064
      3345.7274       2607.0584
 00  7 16  2 24 59.9950000  0  7G22G 4G20G25G 1G16G19
  19880480.1034  -20120673.53448 -15358098.78747  19880477.5244   19880482.9314
      1712.4174       1334.3514
  23150871.8884   -9025133.03247  -6743355.05145  23150870.3364   23150874.9654
      2180.3554       1698.9824
  18933436.1364  -42190262.40949 -32593572.09447  18933433.7084   18933438.2954
       240.6084        187.4874
  22380493.6184  -23000688.96748 -17893388.68246  22380492.0154   22380496.7444
     -1988.5554      -1549.5234
  19707046.8294  -34666642.72249 -26697508.34547  19707044.6224   19707048.9604
      2048.0034       1595.8464
  19523384.9074  -33121670.14649 -25222215.24247  19523382.5294   19523387.5994
      2500.8804       1948.7374
  20860876.8784  -24101650.30848 -18752624.22047  20860874.9104   20860880.3874
      3339.4194       2602.1424
 00  7 16  2 25 29.9950000  0  7G22G 4G20G25G 1G16G19
  19870760.5894  -20171748.71348 -15397897.56047  19870758.0654   19870763.7734
      1689.9814       1316.8674
  23138469.6924   -9090305.06747  -6794138.41045  23138467.2624   23138472.1334
      2161.7784       1684.4984
  18932113.2044  -42197215.86249 -32598990.38447  18932110.7984   18932115.1244
       220.4484        171.7774
  22391850.5524  -22941012.53548 -17846887.54846  22391848.2814   22391852.7124
     -1992.3254      -1552.4624
  19695369.3684  -34728008.21549 -26745325.61747  19695367.1754   19695371.4554
      2040.5144       1590.0114
  19509148.3714  -33196481.12049 -25280509.50347  19509146.1814   19509151.4174
      2484.0014       1935.5834
  20841837.4594  -24201705.46648 -18830589.23047  20841835.4104   20841840.0024
      3328.3884       2593.5494
 00  7 16  2 25 59.9950000  0  7G22G 4G20G25G 1G16G19
  19861195.2624  -20222018.25848 -15437068.58147  19861192.3114   19861197.7804
      1670.3774       1301.5914
  23126199.2544   -9154787.74347  -6844384.63645  23126198.2934   23126202.2644
      2146.0664       1672.2574
  18930930.7304  -42203431.04349 -32603833.34847  18930928.1804   18930932.4804
       203.0894        158.2504
  22403253.4004  -22881090.83348 -17800195.27746  22403250.9374   22403255.3614
     -1993.2214      -1553.1614
  19683760.1824  -34789016.50349 -26792864.54347  19683757.9754   19683761.9174
      2035.8614       1586.3854
  19495034.9064  -33270651.98749 -25338304.97947  19495032.2554   19495037.2994
      2469.8934       1924.5924
  20822885.6634  -24301297.10548 -18908193.05647  20822883.4814   20822888.3644
      3320.1704       2587.1454
 00  7 16  2 26 29.9950000  0  7G22G 4G20G25G 1G16G19
  19851729.1784  -20271757.27148 -15475826.21547  19851727.1314   19851732.5254
      1652.9764       1288.0324
  23114007.3644   -9218856.47147  -6894308.30845  23114005.8634   23114009.2314
      2132.5264       1661.7154
  18929835.3834  -42209184.42149 -32608316.48947  18929833.1514   18929837.4314
       187.9884        146.4844
  22414649.2224  -22821201.40548 -17753528.15546  22414647.5984   22414651.9894
     -1991.8274      -1552.0724
  19672166.0664  -34849943.56649 -26840340.17647  19672163.7054   19672167.8324
      2033.4854       1584.5344
  19480990.1914  -33344456.94449 -25395815.33747  19480987.6334   19480992.7344
      2457.9784       1915.3084
  20803969.5024  -24400700.90648 -18985650.51847  20803967.5904   20803972.9214
      3314.2444       2582.5264
 00  7 16  2 26 59.9950000  0  7G22G 4G20G25G 1G16G19
  19842379.4474  -20320891.86748 -15514112.87547  19842376.8314   19842382.7374
      1620.1904       1262.4864
  23101909.0654   -9282438.02147  -6943852.37345  23101906.8994   23101911.4474
      2103.7334       1639.2804
  18928843.0534  -42214403.47549 -32612383.27547  18928840.2584   18928844.2844
       157.5464        122.7644
  22426053.6444  -22761273.47248 -17706831.01246  22426051.3484   22426056.0564
     -2005.6904      -1562.8764
  19660601.3544  -34910716.44749 -26887695.67147  19660599.0204   19660603.8094
      2015.6884       1570.6664
  19467029.3634  -33417822.18349 -25452983.05247  19467026.6124   19467031.7924
      2430.6784       1894.0364
  20785103.2264  -24499844.00748 -19062904.83747  20785100.9814   20785106.6004
      3292.9034       2565.8974
 00  7 16  2 27 29.9950000  0  7G22G 4G20G25G 1G16G19
  19833170.1734  -20369288.34748 -15551824.37247  19833167.7344   19833173.0474
      1602.8224       1248.9514
  23089926.4614   -9345399.13247  -6992912.97245  23089924.8984   23089930.0814
      2090.2914       1628.8064
  18927975.8684  -42218956.10449 -32615930.76747  18927973.5954   18927978.0484
       142.5974        111.1144
  22437489.7384  -22701176.29148 -17660002.00546  22437487.6164   22437491.9724
     -2004.0674      -1561.6134
  19649091.1774  -34971202.24249 -26934827.45447  19649088.9804   19649093.7014
      2013.3654       1568.8564
  19453177.6934  -33490612.84249 -25509703.05447  19453175.0724   19453180.2424
      2418.7264       1884.7214
  20766311.7414  -24598593.36548 -19139852.35047  20766309.6704   20766315.1674
      3287.0124       2561.3074
 00  7 16  2 27 59.9950000  0  7G22G 4G20G25G 1G16G19
  19824071.9094  -20417099.08348 -15589079.44847  19824069.3804   19824074.8384
      1583.6334       1233.9984
  23078035.4774   -9407891.82647  -7041608.54345  23078033.9584   23078039.0544
      2074.9114       1616.8084
  18927207.9464  -42222995.32949 -32619078.20647  18927205.3994   18927209.3264
       125.8324         98.0514
  22448928.6544  -22641064.16947 -17613161.35646  22448926.6334   22448930.8004
     -2004.1834      -1561.7004
  19637606.7054  -35031553.52649 -26981854.42347  19637604.4294   19637608.7794
      2009.2404       1565.6424
  19439406.8294  -33562979.90649 -25566092.97447  19439404.4044   19439409.1104
      2404.9274       1873.9694
  20747566.7014  -24697101.63248 -19216611.98847  20747564.2844   20747569.7364
      3279.3424       2555.3284
 00  7 16  2 28 29.9950000  0  7G22G 4G20G25G 1G16G19
  19815092.5614  -20464284.20648 -15625847.02447  19815090.1294   19815095.9294
      1562.0814       1217.2034
  23066240.2794   -9469876.63147  -7089908.35045  23066237.2224   23066243.1714
      2057.3454       1603.1244
  18926543.8864  -42226482.62449 -32621795.56747  18926541.3624   18926545.8024
       106.7544         83.1834
  22460377.4934  -22580899.78547 -17566280.00145  22460375.4484   22460380.0414
     -2006.6524      -1563.6254
  19626155.0104  -35091730.76449 -27028745.78247  19626152.8734   19626157.3664
      2002.7314       1560.5704
  19425724.5974  -33634882.91149 -25622121.28447  19425721.8004   19425726.3824
      2388.7094       1861.3324
  20728874.3254  -24795329.34348 -19293153.00147  20728872.2514   20728877.3424
      3269.2684       2547.4794
 00  7 16  2 28 59.9950000  0  7G22G 4G20G25G 1G16G19
  19806227.8734  -20510869.10248 -15662146.89347  19806225.4474   19806231.0714
      1544.1894       1203.2634
  23054535.1834   -9531379.24447  -7137832.42845  23054534.1304   23054539.4704
      2043.3864       1592.2534
  18925980.4284  -42229444.53949 -32624103.54947  18925978.0564   18925982.1264
        91.3884         71.2134
  22471830.4254  -22520711.11047 -17519379.68646  22471828.7714   22471833.1624
     -2005.2404      -1562.5274
  19614731.7894  -35151760.40749 -27075522.12447  19614729.6214   19614734.1684
      1999.9444       1558.3994
  19412124.8974  -33706346.08349 -25677806.87547  19412122.6104   19412127.2434
      2376.1824       1851.5714
  20710230.7124  -24893302.45248 -19369495.63947  20710228.6184   20710233.5224
      3262.9464       2542.5534
 00  7 16  2 29 29.9950000  0  7G22G 4G20G25G 1G16G19
  19797472.4284  -20556880.07348 -15697999.54747  19797469.9904   19797475.3234
      1524.0724       1187.5864
  23042919.2074   -9592426.49147  -7185401.68745  23042917.1074   23042922.5914
      2027.2504       1579.6794
  18925511.5204  -42231908.77649 -32626023.74747  18925509.0534   18925513.0394
        73.8164         57.5204
  22483283.0804  -22460527.13647 -17472483.04446  22483280.9664   22483285.5394
     -2006.0824      -1563.1814
  19603331.5994  -35211669.14349 -27122204.25347  19603329.2864   19603333.8974
      1994.9084       1554.4744
  19398604.4284  -33777395.31849 -25733169.90547  19398602.1524   19398607.4504
      2361.3924       1840.0454
  20691630.2634  -24991047.70048 -19445660.72647  20691628.3504   20691633.2414
      3254.3534       2535.8584
 00  7 16  2 29 59.9950000  0  7G22G 4G20G25G 1G16G19
  19788841.5324  -20602234.29848 -15733340.44747  19788839.0684   19788844.5274
      1501.8714       1170.2884
  23031405.0654   -9652935.89247  -7232551.86545  23031402.7244   23031406.3864
      2009.0184       1565.4764
  18925152.7914  -42233793.92249 -32627492.69947  18925150.2914   18925154.1904
        54.2854         42.3014
  22494750.2274  -22400268.12248 -17425527.93146  22494748.1824   22494752.5454
     -2008.7344      -1565.2514
  19591970.1024  -35271374.95749 -27168728.25347  19591967.7834   19591972.2124
      1987.8974       1549.0114
  19385179.6164  -33847946.71449 -25788145.00747  19385176.8944   19385181.8144
      2344.4764       1826.8644
  20673089.0894  -25088483.12248 -19521584.39347  20673086.8434   20673091.7824
      3243.7524       2527.5994
 00  7 16  2 30 29.9950000  0  7G22G 4G20G25G 1G16G19
  19780330.0294  -20646962.65148 -15768193.66647  19780327.4984   19780333.0994
      1478.4064       1152.0044
  23019986.7094   -9712938.12047  -7279306.83245  23019984.9274   23019989.5064
      1989.5334       1550.2884
  18924898.2594  -42235131.49949 -32628534.97947  18924895.8534   18924899.6624
        33.3814         26.0124
  22506225.0674  -22339966.86847 -17378539.91846  22506223.1984   22506227.5334
     -2012.7584      -1568.3834
  19580641.3744  -35330908.89149 -27215118.32747  19580639.0314   19580643.4814
      1979.5444       1542.5024
  19371843.2824  -33918029.83449 -25842755.22347  19371840.5724   19371845.3974
      2326.2284       1812.6464
  20654600.6804  -25185639.69948 -19597290.77247  20654598.5734   20654603.2914
      3231.8314       2518.3094
 00  7 16  2 30 59.9950000  0  7G22G 4G20G25G 1G16G19
  19771932.7364  -20691093.95348 -15802581.65847  19771929.9744   19771935.3504
      1464.3384       1141.0414
  23008660.1844   -9772461.97747  -7325689.07945  23008658.2664   23008663.4584
      1979.4904       1542.4604
  18924742.1164  -42235951.19949 -32629173.71747  18924739.6844   18924743.8064
        22.0494         17.1814
  22517701.7864  -22279653.98647 -17331542.80146  22517700.3274   22517704.9284
     -2007.2224      -1564.0694
  19569339.3294  -35390299.89249 -27261397.03847  19569337.2724   19569341.3014
      1980.6704       1543.3784
  19358589.8844  -33987672.47349 -25897022.21147  19358587.6094   19358592.8324
      2317.4114       1805.7754
  20636159.9484  -25282546.16748 -19672802.26147  20636157.9744   20636162.5124
      3229.4084       2516.4214
 00  7 16  2 31 29.9950000  0  7G22G 4G20G25G 1G16G19
  19763640.8154  -20734665.67448 -15836533.60047  19763638.3594   19763643.6624
      1436.1134       1119.0484
  22997416.0854   -9831545.50747  -7371728.13845  22997414.4504   22997419.3754
      1955.1984       1523.5314
  18924677.7814  -42236291.95849 -32629439.25747  18924675.1954   18924678.9714
        -3.4824         -2.7144
  22529173.6094  -22219369.68647 -17284567.95346  22529171.6914   22529176.7374
     -2015.8574      -1570.7974
  19558057.7694  -35449585.92049 -27307593.93347  19558055.5914   19558059.7664
      1967.6224       1533.2124
  19345414.7084  -34056911.16849 -25950974.43347  19345412.2584   19345417.2694
      2294.3434       1787.8004
  20617759.2014  -25379240.83448 -19748148.70247  20617757.2814   20617762.2024
      3212.7454       2503.4354
 00  7 16  2 31 59.9950000  0  7G22G 4G20G25G 1G16G19
  19755500.1244  -20777441.26848 -15869865.17347  19755497.9664   19755503.4514
      1414.4264       1102.1494
  22986301.4754   -9889952.58047  -7417240.13945  22986300.1194   22986304.8634
      1937.4814       1509.7204
  18924748.2114  -42235918.91149 -32629148.59147  18924745.8624   18924750.0904
       -22.4174        -17.4664
  22540684.5814  -22158880.18947 -17237433.26245  22540682.3364   22540686.9564
     -2017.7794      -1572.2954
  19546840.9294  -35508531.40749 -27353525.46547  19546838.5424   19546842.9894
      1961.0934       1528.1244
  19332361.6964  -34125508.86849 -26004427.16747  19332358.9934   19332363.5374
      2277.7994       1774.9074
  20599444.7114  -25475487.91248 -19823146.37747  20599442.3904   20599446.6194
      3202.6514       2495.5704
 00  7 16  2 32 29.9950000  0  7G22G 4G20G25G 1G16G19
  19747469.0184  -20819646.59048 -15902752.37347  19747466.6254   19747472.1224
      1396.6104       1088.2664
  22975272.2834   -9947909.35947  -7462401.23645  22975271.3294   22975276.8394
      1923.7074       1498.9914
  18924912.0044  -42235059.08549 -32628478.61247  18924909.5424   18924913.6054
       -37.4404        -29.1734
  22552190.9684  -22098413.56247 -17190316.37945  22552188.7644   22552193.2094
     -2015.8234      -1570.7724
  19535645.2224  -35567362.36349 -27399367.76147  19535643.1194   19535647.7354
      1958.4444       1526.0584
  19319386.5094  -34193690.14449 -26057555.42047  19319384.1004   19319388.9374
      2265.0764       1764.9944
  20581171.2784  -25571513.43748 -19897971.41247  20581168.9834   20581173.7184
      3196.4694       2490.7524
 00  7 16  2 32 59.9950000  0  8G22G 4G27G20G25G 1G16G19
  19739565.0634  -20861183.36448 -15935118.61747  19739562.6274   19739568.1694
      1371.5054       1068.7024
  22964348.5514  -10005317.35247  -7507134.71445  22964346.6104   22964352.3074
      1902.5524       1482.5104
  23591694.7654   -5713145.25257  -4134658.05945  23591693.1534   23591699.5064
      3870.4374       3015.9164
  18925186.8264  -42233614.74349 -32627353.16147  18925184.4674   18925188.5384
       -59.7404        -46.5504
  22563711.2824  -22037873.15347 -17143141.97846  22563709.3834   22563713.9964
     -2021.0254      -1574.8234
  19524490.7554  -35625980.33249 -27445044.09547  19524488.6404   19524493.1894
      1948.5414       1518.3434
  19306510.2464  -34261355.51549 -26110281.67347  19306507.7884   19306512.2874
      2245.0644       1749.4004
  20562959.0374  -25667219.10148 -19972547.20447  20562956.8234   20562962.0494
      3182.9954       2480.2554
 00  7 16  2 33 29.9950000  0  8G22G 4G27G20G25G 1G16G19
  19731788.2204  -20902052.03448 -15966964.28047  19731785.5844   19731791.0424
      1352.4084       1053.8224
  22953529.0504  -10062176.92147  -7551440.85745  22953527.0484   22953532.0964
      1887.3974       1470.7034
  23569603.2784   -5829238.41047  -4225120.03845  23569601.2874   23569608.5754
      3868.5884       3014.4764
  18925572.5044  -42231587.25149 -32625773.31447  18925569.9764   18925574.2444
       -75.9954        -59.2174
  22575245.3314  -21977261.41347 -17095912.03545  22575242.7804   22575247.4654
     -2020.2514      -1574.2244
  19513376.9874  -35684385.93349 -27490554.96047  19513374.7254   19513379.0254
      1944.5964       1515.2714
  19293732.3994  -34328504.12749 -26162605.25647  19293729.7124   19293734.4694
      2230.9594       1738.4094
  20544807.1184  -25762605.36848 -20046874.11747  20544804.9754   20544810.6254
      3175.4844       2474.4014
 00  7 16  2 33 59.9950000  0  8G22G 4G27G20G25G 1G16G19
  19724127.8774  -20942304.62148 -15998329.88747  19724125.4064   19724130.6714
      1328.6914       1035.3424
  22942801.8534  -10118540.70747  -7595360.67245  22942801.0934   22942805.9104
      1867.7464       1455.3834
  23547530.0344   -5945234.29647  -4315506.16345  23547527.6224   23547534.6184
      3862.2344       3009.5164
  18926059.6134  -42229030.28349 -32623780.88647  18926056.9674   18926060.9964
       -96.7694        -75.4044
  22586782.5884  -21916633.50847 -17048669.46645  22586780.3234   22586784.2284
     -2023.8634      -1577.0404
  19502292.6404  -35742631.86449 -27535941.40547  19502290.6544   19502295.4164
      1936.1614       1508.6984
  19281042.8524  -34395187.12649 -26214566.02547  19281040.4054   19281045.1304
      2212.3194       1723.8854
  20526706.6224  -25857725.15248 -20120993.38047  20526704.6524   20526709.5034
      3163.4814       2465.0514
 00  7 16  2 34 29.9950000  0  8G22G 4G27G20G25G 1G16G19
  19716584.1964  -20981949.31048 -16029221.81347  19716581.5594   19716586.7354
      1315.1684       1024.8044
  22932170.6394  -10174417.25447  -7638900.83845  22932168.4564   22932172.0904
      1858.2514       1447.9914
  23525472.2594   -6061141.33147  -4405823.01945  23525470.5514   23525478.4014
      3865.9854       3012.4444
  18926644.9184  -42225953.38549 -32621383.33247  18926642.4784   18926646.5604
      -107.3484        -83.6474
  22598321.0454  -21855999.69547 -17001422.30945  22598318.7694   22598322.6924
     -2017.3584      -1571.9644
  19491237.5524  -35800726.41749 -27581209.91747  19491235.2684   19491240.5454
      1937.8534       1510.0174
  19268440.0554  -34461411.89849 -26266169.73747  19268437.8434   19268442.9504
      2203.7414       1717.2004
  20508654.9444  -25952587.03948 -20194911.69647  20508652.7654   20508657.7704
      3161.6464       2463.6204
 00  7 16  2 34 59.9950000  0  8G22G 4G27G20G25G 1G16G19
  19709171.1994  -21020904.20048 -16059576.22647  19709168.7174   19709173.9684
      1286.4734       1002.4454
  22921644.1394  -10229724.76847  -7681997.60945  22921643.4384   22921646.7844
      1833.5424       1428.7314
  23503448.6514   -6176877.32447  -4496006.63745  23503446.5724   23503454.4564
      3854.5534       3003.5414
  18927344.5784  -42222275.66849 -32618517.60047  18927342.1894   18927346.2264
      -133.0704       -103.6904
  22609875.1184  -21795279.45247 -16954107.79445  22609873.0824   22609877.6004
     -2025.9004      -1578.6274
  19480226.9264  -35858587.77349 -27626296.71647  19480224.7344   19480229.6794
      1924.3664       1499.5074
  19255940.8604  -34527095.35649 -26317351.64347  19255938.7274   19255943.5134
      2179.9404       1698.6564
  20490667.8444  -26047109.30448 -20268565.36447  20490665.8834   20490670.4864
      3144.6114       2450.3464
 00  7 16  2 35 29.9950000  0  8G22G 4G27G20G25G 1G16G19
  19701877.8324  -21059232.20948 -16089442.15647  19701875.1094   19701880.4974
      1270.1204        989.7024
  22911216.7064  -10284525.85447  -7724699.76445  22911215.6144   22911218.2014
      1821.2664       1419.1694
  23481445.2014   -6292504.64047  -4586105.59945  23481443.1034   23481450.5574
      3855.5274       3004.2984
  18928146.7704  -42218060.86349 -32615233.35047  18928144.2514   18928148.5584
      -146.4074       -114.0824
  22621434.9204  -21734537.52847 -16906776.37445  22621432.0164   22621436.6064
     -2021.9894      -1575.5784
  19469249.0984  -35916278.57549 -27671250.60347  19469246.9524   19469251.3214
      1923.2044       1498.6004
  19243533.8444  -34592298.66749 -26368159.40947  19243531.3034   19243535.9784
      2168.4834       1689.7274
  20472733.5834  -26141354.80848 -20342003.38347  20472731.4264   20472736.3274
      3139.9444       2446.7084
 00  7 16  2 35 59.9950000  0  8G22G 4G27G20G25G 1G16G19
  19694689.5454  -21097005.98548 -16118876.21847  19694687.0794   19694692.5294
      1248.5814        972.9184
  22900871.5474  -10338893.35947  -7767064.01645  22900870.0704   22900873.0834
      1803.7034       1405.4784
  23459448.3504   -6408096.00447  -4676176.58145  23459446.2504   23459454.4424
      3851.1454       3000.8844
  18929037.1954  -42213382.41849 -32611587.83047  18929034.5344   18929038.8244
      -164.9094       -128.5004
  22632983.2184  -21673849.15247 -16859486.72245  22632980.7734   22632985.1624
     -2023.3154      -1576.6104
  19458289.6064  -35973871.76949 -27716128.42047  19458287.3344   19458291.6144
      1916.8894       1493.6804
  19231203.5864  -34657093.84349 -26418649.14047  19231201.0734   19231206.2754
      2151.7924       1676.7214
  20454838.3844  -26235396.44148 -20415282.54047  20454836.2774   20454841.0654
      3130.0534       2439.0024
 00  7 16  2 36 29.9950000  0  8G22G 4G27G20G25G 1G16G19
  19687632.6224  -21134089.90248 -16147772.73247  19687630.0094   19687635.5674
      1229.1144        957.7524
  22890633.5284  -10392692.11947  -7808985.11645  22890631.5484   22890635.1574
      1788.3524       1393.5224
  23437484.8314   -6523515.86647  -4766113.94345  23437482.7304   23437490.7464
      3849.0524       2999.2564
  18930040.7814  -42208106.21549 -32607476.52247  18930038.5284   18930042.7924
      -181.2504       -141.2334
  22644546.2184  -21613080.61347 -16812134.61045  22644544.3104   22644548.9394
     -2022.3384      -1575.8474
  19447374.1274  -36031232.00649 -27760824.72347  19447371.9764   19447376.4984
      1912.6904       1490.4104
  19218976.8614  -34721343.78349 -26468714.01747  19218974.3884   19218979.6574
      2137.1524       1665.3134
  20437007.0444  -26329098.83548 -20488297.33447  20437005.0204   20437009.9294
      3122.3024       2432.9614
 00  7 16  2 36 59.9950000  0  8G22G 4G27G20G25G 1G16G19
  19680695.6284  -21170541.24848 -16176176.34147  19680693.3364   19680698.7964
      1200.7754        935.6674
  22880492.3794  -10445979.67447  -7850507.86945  22880490.6524   22880496.3744
      1763.9854       1374.5294
  23415543.1644   -6638821.39347  -4855962.22545  23415540.7664   23415548.1404
      3837.9464       2990.6034
  18931147.7584  -42202290.81549 -32602945.05647  18931145.3564   18931149.6754
      -206.4994       -160.9084
  22656113.6474  -21552291.37747 -16764766.37045  22656112.1964   22656116.5514
     -2030.3254      -1582.0774
  19436492.0924  -36088416.61049 -27805384.15447  19436489.9954   19436494.7834
      1899.5604       1480.1774
  19206843.1254  -34785105.29249 -26518398.29947  19206841.0744   19206846.3694
      2113.5284       1646.9044
  20419229.7434  -26422519.46048 -20561092.58247  20419227.7144   20419232.2174
      3105.6244       2419.9664
 00  7 16  2 37 29.9950000  0  8G22G 4G27G20G25G 1G16G19
  19673866.2594  -21206431.31448 -16204142.59447  19673863.6304   19673869.1214
      1188.6514        926.2214
  22870436.4724  -10498827.27647  -7891687.78445  22870434.9024   22870439.7974
      1755.9724       1368.2854
  23393608.1544   -6754083.75747  -4945776.91545  23393606.0214   23393614.1164
      3843.1044       2994.6164
  18932343.0234  -42196008.58249 -32598049.82347  18932340.4384   18932344.9634
      -215.4514       -167.8844
  22667671.9044  -21491554.73247 -16717439.06545  22667670.6564   22667673.9094
     -2021.9234      -1575.5284
  19425630.1974  -36145496.94049 -27849862.33447  19425627.8464   19425632.6294
      1902.7064       1482.6284
  19194790.1714  -34848448.15249 -26567756.35147  19194787.5734   19194792.9714
      2106.1824       1641.1804
  20401492.4374  -26515729.75448 -20633723.95047  20401490.3234   20401494.6674
      3105.2464       2419.6714
 00  7 16  2 37 59.9950000  0  8G22G 4G27G20G25G 1G16G19
  19667168.3084  -21241629.94148 -16231570.04347  19667165.7244   19667171.1024
      1160.5604        904.3304
  22860489.7124  -10551104.54647  -7932423.31245  22860487.4804   22860491.2854
      1731.8734       1349.5114
  23371707.6284   -6869172.01847  -5035455.93745  23371706.1114   23371713.7644
      3832.1854       2986.1124
  18933652.0774  -42189129.97749 -32592689.88547  18933649.6334   18933653.6984
      -240.3794       -187.3084
  22679244.1274  -21430741.91547 -16670052.42245  22679242.7754   22679246.0994
     -2029.4664      -1581.4014
  19414812.6614  -36202342.27549 -27894157.38547  19414810.5334   19414815.1804
      1889.8024       1472.5734
  19182841.0334  -34911240.56049 -26616685.49247  19182838.3544   19182843.8924
      2082.7594       1622.9294
  20383819.7814  -26608599.36148 -20706089.84847  20383817.7074   20383822.7414
      3088.8344       2406.8834
 00  7 16  2 38 29.9950000  0  8G22G 4G27G20G25G 1G16G19
  19660594.9154  -21276172.86848 -16258486.56747  19660592.3464   19660597.5794
      1134.8204        884.2744
  22850642.4604  -10602847.18847  -7972742.22945  22850640.8594   22850645.2524
      1710.1504       1332.5784
  23349833.3464   -6984121.72747  -5125027.00645  23349831.3784   23349838.2014
      3823.7034       2979.5034
  18935067.3384  -42181691.51349 -32586893.69547  18935065.0404   18935069.2354
      -262.8784       -204.8404
  22690824.0384  -21369890.44447 -16622635.67945  22690822.1934   22690826.1094
     -2034.6074      -1585.4094
  19404033.4774  -36258988.17249 -27938297.03847  19404031.0744   19404035.6444
      1879.2774       1464.3714
  19170990.1564  -34973516.89549 -26665212.50147  19170987.7534   19170993.1274
      2061.6344       1606.4694
  20366204.8464  -26701164.08848 -20778218.17547  20366203.0164   20366207.9294
      3074.7934       2395.9414
 00  7 16  2 38 59.9950000  0  8G22G 4G27G20G25G 1G16G19
  19654141.8784  -21310084.19748 -16284910.93647  19654139.2924   19654144.3874
      1121.0994        873.5824
  22840892.5544  -10654080.09347  -8012663.96745  22840891.1674   22840895.4384
      1700.6014       1325.1494
  23327980.8304   -7098957.16447  -5214509.04045  23327979.1124   23327986.3794
      3827.3384       2982.3344
  18936584.9924  -42173719.03449 -32580681.39347  18936582.2954   18936586.5174
      -273.3124       -212.9704
  22702405.5764  -21309026.54647 -16575209.27345  22702404.3394   22702408.4144
     -2027.6254      -1579.9684
  19393286.8404  -36315458.95249 -27982300.22447  19393284.8764   19393289.5754
      1880.7754       1465.5394
  19159233.0614  -35035300.82249 -26713355.81947  19159230.5714   19159235.9544
      2052.5684       1599.4034
  20348643.9604  -26793448.56148 -20850128.12147  20348642.0034   20348647.0654
      3072.8044       2394.3924
 00  7 16  2 39 29.9950000  0  8G22G 4G27G20G25G 1G16G19
  19647803.4894  -21343392.28148 -16310865.23947  19647800.9514   19647806.1474
      1097.5774        855.2544
  22831235.2304  -10704831.72247  -8052210.68545  22831233.8884   22831238.3344
      1681.0514       1309.9074
  23306145.1054   -7213706.49447  -5303923.98345  23306142.5474   23306151.0044
      3820.9714       2977.3754
  18938197.6864  -42165242.17049 -32574076.05747  18938195.3184   18938199.6994
      -293.5524       -228.7424
  22713984.6834  -21248180.16447 -16527796.47945  22713982.8674   22713987.0814
     -2030.4384      -1582.1614
  19382569.4744  -36371782.97749 -28026189.05947  19382567.1664   19382571.7564
      1872.4464       1459.0484
  19147564.6104  -35096619.28649 -26761136.43347  19147562.1444   19147567.5074
      2033.5774       1584.6054
  20331130.9764  -26885481.50048 -20921842.06247  20331128.9574   20331133.5594
      3060.9874       2385.1844
 00  7 16  2 39 59.9950000  0  8G22G 4G27G20G25G 1G16G19
  19641606.3314  -21375959.55548 -16336242.28747  19641603.6844   19641608.7484
      1072.5414        835.7444
  22821695.0514  -10754964.45847  -8091275.14645  22821693.5894   22821697.8644
      1660.1264       1293.6054
  23284351.5844   -7328231.62947  -5393164.21845  23284349.8194   23284356.7314
      3813.2064       2971.3264
  18939933.2484  -42156124.03649 -32566971.02447  18939930.7864   18939934.6854
      -315.2194       -245.6264
  22725585.8824  -21187215.73947 -16480291.72145  22725584.0704   22725588.0624
     -2034.6654      -1585.4534
  19371905.6034  -36427822.46349 -28069856.18147  19371903.4354   19371907.7934
      1862.6334       1451.4014
  19136010.5664  -35157333.01649 -26808445.82847  19136008.3304   19136013.6434
      2013.1124       1568.6574
  20313691.7594  -26977125.10748 -20993252.62747  20313689.5754   20313694.3194
      3047.6994       2374.8284
 00  7 16  2 40 29.9950000  0  8G22G 4G27G20G25G 1G16G19
  19635524.1054  -21407918.60848 -16361145.39947  19635521.7194   19635527.1284
      1051.2324        819.1414
  22812247.5194  -10804610.63147  -8129960.46045  22812246.0464   22812251.8304
      1642.8384       1280.1354
  23262574.6534   -7442664.66347  -5482332.72245  23262573.3954   23262580.6374
      3808.9974       2968.0524
  18941765.0894  -42146498.07849 -32559470.28547  18941762.4194   18941766.4524
      -333.1794       -259.6194
  22737184.0664  -21126266.97447 -16432799.17945  22737182.1724   22737185.8854
     -2035.2144      -1585.8824
  19361270.8714  -36483709.45949 -28113404.48047  19361268.5974   19361273.0524
      1856.5144       1446.6334
  19124547.3914  -35217573.42449 -26855386.39447  19124545.1244   19124550.1794
      1996.2634       1555.5294
  20296301.3504  -27068511.52648 -21064462.77647  20296299.2184   20296303.7694
      3038.0714       2367.3264
 00  7 16  2 40 59.9950000  0  8G22G 4G27G20G25G 1G16G19
  19629564.2404  -21439240.68748 -16385552.17647  19629561.5114   19629566.5164
      1033.0344        804.9604
  22802897.7704  -10853741.66447  -8168244.36945  22802896.7304   22802901.6434
      1628.6834       1269.1054
  23240822.7834   -7556976.33947  -5571406.61245  23240820.7824   23240827.5134
      3808.0024       2967.2704
  18943698.1454  -42136336.29849 -32551552.03247  18943695.8554   18943700.3834
      -348.0184       -271.1834
  22748785.8244  -21065306.55347 -16385297.55645  22748783.0174   22748786.5804
     -2032.5774      -1583.8294
  19350669.9984  -36539414.77849 -28156811.21647  19350667.8594   19350672.7074
      1853.4414       1444.2394
  19113180.2704  -35277310.31849 -26901934.61147  19113177.7104   19113182.6154
      1982.4584       1544.7704
  20278964.9784  -27159611.78648 -21135449.95447  20278962.9624   20278967.8334
      3031.5484       2362.2454
 00  7 16  2 41 29.9950000  0  8G22G 4G27G20G25G 1G16G19
  19623721.1634  -21469945.15548 -16409477.70247  19623718.2954   19623723.4594
      1010.4214        787.3394
  22793644.1784  -10902377.12347  -8206142.13145  22793642.3674   22793647.5574
      1610.1274       1254.6494
  23219089.7014   -7671186.13247  -5660401.16645  23219087.2054   23219094.6974
      3802.6344       2963.0874
  18945730.2944  -42125659.52549 -32543232.48147  18945727.8314   18945732.0514
      -367.1634       -286.1014
  22760384.1664  -21004356.10847 -16337803.68945  22760381.5784   22760384.9844
     -2034.1104      -1585.0234
  19340099.9904  -36594957.75449 -28200091.45147  19340098.0994   19340103.0884
      1846.0014       1438.4434
  19101904.7454  -35336562.12049 -26948104.83447  19101902.4514   19101907.6154
      1964.2594       1530.5914
  20261680.0024  -27250445.80048 -21206229.67547  20261677.9804   20261682.7304
      3020.6534       2353.7544
 00  7 16  2 41 59.9950000  0  8G22G 4G27G20G25G 1G16G19
  19617991.7714  -21500050.95648 -16432936.73947  19617989.1904   19617994.7414
       988.3274        770.1244
  22784479.7194  -10950536.35147  -8243668.77045  22784478.2764   22784481.8044
      1592.1054       1240.5964
  23197371.8534   -7785312.72347  -5749330.86045  23197369.6264   23197376.5894
      3797.6264       2959.1864
  18947856.4714  -42114487.95649 -32534527.37347  18947853.9024   18947858.0794
      -385.7944       -300.6204
  22771976.4974  -20943436.22247 -16290333.63245  22771974.0054   22771977.8084
     -2035.3334      -1585.9774
  19329558.3434  -36650357.35049 -28243259.95747  19329556.2064   19329560.8194
      1839.0884       1433.0564
  19090718.3454  -35395346.51549 -26993910.84747  19090716.0004   19090721.1164
      1946.5004       1516.7524
  20244442.0624  -27341032.60948 -21276816.74147  20244440.0524   20244444.3954
      3010.2474       2345.6454
 00  7 16  2 42 29.9940000  0  8G22G 4G27G20G25G 1G16G19
  19612392.0044  -21529480.87048 -16455869.10247  19612389.3944   19612394.2594
       976.2654        760.7264
  22775420.2244  -10998141.13447  -8280763.40145  22775418.4674   22775423.2274
      1584.2164       1234.4524
  23175685.7274   -7899274.98047  -5838132.50745  23175683.5784   23175689.9544
      3802.7434       2963.1664
  18950090.3934  -42102746.50349 -32525378.20547  18950088.0704   18950092.3754
      -394.3214       -307.2634
  22783577.0744  -20882473.94747 -16242830.54445  22783574.6504   22783578.5374
     -2026.2854      -1578.9174
  19319058.6344  -36705534.66049 -28286255.26047  19319056.5234   19319060.8654
      1842.1434       1435.4364
  19079636.6744  -35453583.62549 -27039290.40747  19079634.0524   19079638.8304
      1938.7574       1510.7204
  20227266.1064  -27431292.73748 -21347149.27447  20227264.0514   20227268.6404
      3009.8974       2345.3744
 00  7 16  2 42 59.9940000  0  8G22G 4G27G20G25G 1G16G19
  19606912.7154  -21558274.74448 -16478305.84647  19606909.8534   19606914.8554
       943.7714        735.4044
  22766459.4724  -11045232.44447  -8317457.93445  22766457.3704   22766462.6474
      1555.7204       1212.2414
  23154022.2384   -8013117.79847  -5926841.07845  23154020.0134   23154026.6644
      3787.3194       2951.1504
  18952426.1324  -42090472.81849 -32515814.30947  18952423.7374   18952427.7494
      -423.3654       -329.8944
  22795178.6534  -20821504.16247 -16195321.58745  22795177.1374   22795180.8064
     -2037.7624      -1587.8664
  19308593.6094  -36760530.64149 -28329109.26447  19308591.3104   19308595.5784
      1824.7714       1421.8984
  19068651.2704  -35511313.90649 -27084275.03247  19068648.5114   19068653.2404
      1910.4734       1488.6814
  20210143.9544  -27521269.78648 -21417261.21747  20210142.0294   20210146.5234
      2989.0864       2329.1574
 00  7 16  2 43 29.9940000  0  8G22G 4G27G20G25G 1G16G19
  19601582.6844  -21586283.94148 -16500131.16347  19601580.1254   19601585.0504
       926.9224        722.2764
  22757623.8174  -11091661.01047  -8353636.02345  22757621.3114   22757627.5034
      1542.9254       1202.2764
  23132409.5264   -8126689.46247  -6015338.34845  23132407.6384   23132414.2724
      3787.6034       2951.3764
  18954891.0284  -42077520.90149 -32505721.92247  18954888.5124   18954892.3494
      -436.5924       -340.2014
  22806808.2664  -20760382.81547 -16147694.56345  22806807.5984   22806811.9794
     -2033.4654      -1584.5144
  19298190.9034  -36815195.58149 -28371705.31747  19298188.6884   19298192.9354
      1823.1174       1420.6114
  19057790.4644  -35568386.29249 -27128747.01647  19057788.0004   19057792.3864
      1897.8714       1478.8604
  20193104.8524  -27610813.13748 -21487035.22747  20193102.6524   20193106.8184
      2983.9784       2325.1774
 00  7 16  2 43 59.9940000  0  8G22G 4G27G20G25G 1G16G19
  19596345.9114  -21613802.22748 -16521573.94947  19596343.5014   19596348.3504
       906.1304        706.0754
  22748858.5734  -11137721.03147  -8389526.95245  22748857.1394   22748862.0594
      1526.2354       1189.2734
  23110792.7484   -8240283.50647  -6103853.08445  23110791.2514   23110798.6554
      3783.9674       2948.5434
  18957428.5214  -42064185.68249 -32495330.85747  18957426.0874   18957430.2814
      -453.7764       -353.5904
  22818412.0904  -20699405.61747 -16100179.86945  22818411.0024   22818415.6924
     -2033.0484      -1584.1924
  19287795.4704  -36869823.08449 -28414272.20447  19287793.2824   19287797.8224
      1817.4224       1416.1724
  19046999.3714  -35625093.42249 -27172934.38747  19046996.9794   19047001.4404
      1881.2554       1465.9134
  20176091.5124  -27700216.49248 -21556700.15447  20176089.5394   20176093.8084
      2974.8894       2318.0944
 00  7 16  2 44 29.9940000  0  8G22G 4G27G20G25G 1G16G19
  19591249.4184  -21640582.24748 -16542441.46747  19591247.1334   19591252.1914
       879.3634        685.2174
  22740211.2824  -11183165.39847  -8424938.14245  22740209.4104   22740214.4064
      1503.5164       1171.5694
  23089220.5054   -8353652.15347  -6192192.15445  23089217.9834   23089225.1924
      3774.2364       2940.9614
  18960085.7554  -42050220.85649 -32484449.19547  18960083.3164   18960087.5714
      -476.9614       -371.6574
  22830035.6044  -20638326.49947 -16052585.74745  22830033.7214   22830038.6944
     -2038.5894      -1588.5124
  19277454.4824  -36924165.23649 -28456616.73047  19277452.4154   19277456.9164
      1805.6584       1407.0054
  19036325.3804  -35681186.90049 -27216643.58847  19036322.8454   19036327.4574
      1858.5764       1448.2424
  20159152.6394  -27789232.37948 -21626063.14947  20159150.5344   20159154.1864
      2959.7454       2306.2934
 00  7 16  2 44 59.9940000  0  8G22G 4G27G20G25G 1G16G19
  19586287.8684  -21666658.12748 -16562760.31447  19586285.3254   19586290.2124
       858.7994        669.1944
  22731674.3014  -11228027.84947  -8459895.89745  22731672.0294   22731677.0484
      1487.0834       1158.7614
  23067683.5744   -8466828.67747  -6280381.54845  23067681.3724   23067688.0884
      3770.7584       2938.2514
  18962856.1654  -42035661.24749 -32473104.06247  18962853.9374   18962857.9494
      -493.8634       -384.8284
  22841671.0544  -20577180.73047 -16004939.70845  22841669.6034   22841674.2444
     -2037.9114      -1587.9814
  19267161.5264  -36978255.27249 -28498764.81547  19267159.3614   19267163.9944
      1800.1634       1402.7254
  19025761.2944  -35736699.06949 -27259899.82047  19025758.9304   19025763.6784
      1842.0634       1435.3734
  20142280.7434  -27877894.46348 -21695150.45447  20142278.5924   20142282.4054
      2950.8754       2299.3834
 00  7 16  2 45 29.9940000  0  8G22G 4G27G20G25G 1G16G19
  19581427.6224  -21692196.36748 -16582660.22047  19581425.2524   19581430.3704
       837.8624        652.8794
  22723217.0214  -11272474.68047  -8494529.78545  22723214.6484   22723218.1894
      1470.1674       1145.5874
  23046151.7414   -8579978.58747  -6368550.20645  23046149.6384   23046155.7804
      3766.8264       2935.1894
  18965708.2204  -42020674.07449 -32461425.76147  18965706.0304   18965710.0134
      -511.0764       -398.2414
  22853287.8364  -20516135.76247 -15957372.19945  22853286.3554   22853290.2764
     -2037.5184      -1587.6754
  19256885.1454  -37032258.72549 -28540845.42847  19256883.0634   19256887.1704
      1794.3054       1398.1604
  19015277.0864  -35791794.48749 -27302831.31547  19015274.5904   19015279.2034
      1825.2214       1422.2514
  20125444.5904  -27966368.72748 -21764091.39447  20125442.5634   20125446.6114
      2941.6374       2292.1844
 00  7 16  2 45 59.9940000  0  8G22G 4G27G20G25G 1G16G19
  19576711.8224  -21716979.29048 -16601971.57147  19576709.0644   19576714.5024
       816.4934        636.2274
  22714879.1114  -11316288.28947  -8528670.23345  22714877.1404   22714881.2724
      1452.9284       1132.1514
  23024666.9464   -8692883.96447  -6456528.33345  23024664.5204   23024670.2734
      3762.4654       2931.7874
  18968683.0934  -42005042.69649 -32449245.48847  18968680.6104   18968684.5724
      -528.7204       -411.9894
  22864926.9764  -20454975.04547 -15909714.45045  22864924.6294   22864928.5194
     -2037.5574      -1587.7134
  19246666.4654  -37085957.70549 -28582688.79947  19246664.4154   19246668.6194
      1787.9274       1393.1904
  19004913.6714  -35846254.77149 -27345267.90047  19004911.1544   19004915.9634
      1807.7954       1408.6714
  20108685.7884  -28054437.76848 -21832716.59547  20108683.5184   20108687.6444
      2931.8904       2284.5894
 00  7 16  2 46 29.9940000  0  8G22G 4G27G20G25G 1G16G19
  19572113.8624  -21741143.24248 -16620800.59347  19572111.0034   19572115.8364
       797.5664        621.4794
  22706636.2244  -11359605.63447  -8562423.98845  22706634.3514   22706639.2394
      1438.0244       1120.5374
  23003200.8684   -8805680.88247  -6544421.90845  23003198.9784   23003205.5644
      3760.5754       2930.3124
  18971753.7394  -41988904.77349 -32436670.50347  18971751.2944   18971755.4244
      -543.9214       -423.8334
  22876561.0974  -20393836.79747 -15862074.22545  22876558.6804   22876563.1524
     -2035.0944      -1585.7824
  19236480.2794  -37139488.40949 -28624401.05347  19236478.0594   19236482.4664
      1784.0254       1390.1494
  18994645.7234  -35900214.67449 -27387314.57547  18994643.3524   18994647.8874
      1792.7984       1396.9844
  20091978.0064  -28142237.85348 -21901132.21347  20091975.7704   20091979.6584
      2924.6594       2278.9524
 00  7 16  2 46 59.9940000  0  8G22G 4G27G20G25G 1G16G19
  19567641.3694  -21764644.33848 -16639113.09047  19567638.8764   19567643.8044
       773.9854        603.1054
  22698496.8374  -11402382.47447  -8595756.58345  22698494.5564   22698499.0404
      1418.6494       1105.4394
  22981765.2644   -8918324.64447  -6632196.14445  22981763.5364   22981770.2984
      3753.9564       2925.1554
  18974929.4594  -41972217.15649 -32423667.18247  18974926.8264   18974930.9014
      -563.7124       -439.2564
  22888197.6894  -20332678.47747 -15814418.37645  22888197.0014   22888200.3174
     -2037.1344      -1587.3774
  19226334.1214  -37192806.07149 -28665947.28647  19226331.8824   19226336.5354
      1775.4064       1383.4334
  18984481.2954  -35953628.73149 -27428935.91347  18984478.6974   18984483.3394
      1773.0754       1381.6194
  20075329.3814  -28229724.64748 -21969303.72347  20075327.4194   20075331.9444
      2912.7214       2269.6534
 00  7 16  2 47 29.9940000  0  8G22G 4G27G20G25G 1G16G19
  19563281.1884  -21787555.46948 -16656965.88747  19563278.7934   19563284.2564
       754.4104        587.8524
  22690444.0784  -11444691.70047  -8628724.80045  22690442.4254   22690447.2124
      1403.0284       1093.2714
  22960345.7924   -9030887.33547  -6719907.23345  22960343.5874   22960350.9224
      3751.3254       2923.1064
  18978195.2264  -41955053.73549 -32410293.10347  18978192.8994   18978196.9794
      -579.4824       -451.5444
  22899826.3884  -20271573.97447 -15766804.49845  22899824.2194   22899828.9174
     -2035.2764      -1585.9294
  19216214.4964  -37245982.70049 -28707383.62047  19216212.2834   19216217.3404
      1770.7924       1379.8384
  18974407.1744  -36006568.43149 -27470187.61847  18974404.5814   18974409.5304
      1757.3394       1369.3554
  20058727.2064  -28316970.84748 -22037287.76047  20058725.2174   20058729.4034
      2904.7624       2263.4514
 00  7 16  2 47 59.9940000  0  8G22G 4G27G20G25G 1G16G19
  19559049.4244  -21809793.73848 -16674294.38147  19559047.0154   19559052.3694
       726.5444        566.1394
  22682497.7664  -11486449.82247  -8661263.59945  22682495.8214   22682501.4544
      1379.1744       1074.6864
  22938956.5164   -9143285.02947  -6807489.73445  22938954.3044   22938962.0124
      3740.4054       2914.5954
  18981567.7664  -41937332.07049 -32396484.02747  18981565.5214   18981569.4284
      -603.4694       -470.2364
  22911459.3854  -20210440.87447 -15719168.32645  22911458.1164   22911462.2484
     -2041.6914      -1590.9324
  19206137.7544  -37298934.29149 -28748644.60647  19206135.8314   19206140.9724
      1757.8464       1369.7494
  18964439.5904  -36058948.79649 -27511003.48147  18964437.0364   18964441.6814
      1733.2354       1350.5734
  20042186.0914  -28403892.77048 -22105019.09147  20042183.9824   20042188.4884
      2888.5294       2250.7994
 00  7 16  2 48 29.9940000  0  8G22G 4G27G20G25G 1G16G19
  19554947.4704  -21831349.61448 -16691091.13847  19554945.0094   19554950.3514
       709.2724        552.6784
  22674658.7074  -11527648.06347  -8693366.13245  22674657.2954   22674660.5684
      1366.0294       1064.4434
  22917601.8684   -9255507.97247  -6894936.04745  22917599.7624   22917605.7744
      3740.0514       2914.3254
  18985047.8374  -41919044.11549 -32382233.68547  18985045.5954   18985049.5624
      -616.8704       -480.6794
  22923100.0594  -20149271.15147 -15671503.63645  22923098.1204   22923102.6844
     -2037.3454      -1587.5434
  19196106.7124  -37351650.95149 -28789722.52147  19196104.3914   19196109.2644
      1755.4614       1367.8924
  18954580.2544  -36110759.49649 -27551375.45047  18954577.8134   18954582.6494
      1719.6684       1340.0004
  20025708.4454  -28490480.76048 -22172490.21947  20025706.7234   20025711.2804
      2882.8644       2246.3854
 00  7 16  2 48 59.9940000  0  8G22G 4G27G20G25G 1G16G19
  19550970.6724  -21852248.53048 -16707375.98847  19550968.1884   19550973.4244
       685.5444        534.1914
  22666920.4254  -11568311.49247  -8725051.95445  22666918.6594   22666923.0554
      1346.3884       1049.1344
  22896275.6754   -9367580.79047  -6982265.38145  22896273.0844   22896278.5054
      3733.1764       2908.9654
  18988630.5774  -41900216.10649 -32367562.52647  18988628.2414   18988632.3494
      -636.6794       -496.1124
  22934741.2374  -20088091.55847 -15623831.22545  22934740.0164   22934744.4574
     -2039.5064      -1589.2314
  19186114.7304  -37404157.23149 -28830636.53147  19186112.7764   19186117.8364
      1746.6014       1360.9884
  18944825.0134  -36162024.60749 -27591322.28547  18944822.2334   18944827.3094
      1699.6654       1324.4134
  20009290.4244  -28576760.12448 -22239720.85847  20009288.4684   20009292.7344
      2870.7474       2236.9464
 00  7 16  2 49 29.9940000  0  8G22G 4G27G20G25G 1G16G19
  19547108.5954  -21872543.28248 -16723190.03747  19547106.0644   19547111.2604
       660.4004        514.5964
  22659274.7104  -11608493.18347  -8756362.37245  22659272.9504   22659276.8824
      1325.3114       1032.7094
  22874967.0384   -9479555.59847  -7069518.38745  22874964.7934   22874970.7894
      3724.8844       2902.4984
  18992306.0934  -41880901.55449 -32352512.23847  18992303.5824   18992307.5684
      -657.9084       -512.6564
  22946375.8064  -20026955.77247 -15576192.92645  22946373.9624   22946378.5944
     -2043.0674      -1591.9984
  19176153.9954  -37456505.18649 -28871427.16847  19176151.5254   19176155.9114
      1736.3074       1352.9674
  18935162.8114  -36212795.30849 -27630883.86647  18935160.5724   18935165.9464
      1678.1444       1307.6444
  19992920.7874  -28662783.45948 -22306751.99547  19992918.7834   19992923.4604
      2857.1964       2226.3854
 00  7 16  2 49 59.9940000  0  8G22G 4G27G20G25G 1G16G19
  19543383.3454  -21892120.91048 -16738445.29847  19543380.9054   19543385.8414
       635.6434        495.3044
  22651740.1294  -11648079.59247  -8787208.91645  22651738.6094   22651744.0864
      1304.6124       1016.5834
  22853699.3774   -9591318.23147  -7156606.04645  22853697.3714   22853703.5914
      3716.9084       2896.2904
  18996095.4954  -41860988.09749 -32336995.26347  18996093.1844   18996097.2434
      -678.6994       -528.8564
  22958023.0484  -19965751.03547 -15528500.91545  22958021.0804   22958025.2544
     -2046.2484      -1594.4764
  19166243.9044  -37508580.43449 -28912005.29147  19166241.7764   19166246.5054
      1726.3844       1345.2364
  18925618.1274  -36262956.40649 -27669970.43447  18925615.6814   18925620.4974
      1656.9224       1291.1094
  19976621.2484  -28748436.93148 -22373494.91647  19976619.3724   19976624.0554
      2844.0024       2216.1044
 00  7 16  2 50 29.9940000  0  8G22G 4G27G20G25G 1G16G19
  19539793.1074  -21910987.89048 -16753146.79547  19539790.3204   19539795.5924
       624.3984        486.5424
  22644321.1394  -11687077.00347  -8817596.48445  22644319.2764   22644322.6844
      1297.4404       1010.9984
  22832470.7054   -9702874.13947  -7243532.62245  22832468.8644   22832474.0324
      3722.4534       2900.6094
  18999997.7054  -41840483.01849 -32321017.28547  18999995.0754   18999999.2044
      -685.9494       -534.5064
  22969682.3804  -19904484.72247 -15480760.90445  22969679.9734   22969683.2084
     -2035.8364      -1586.3634
  19156384.8574  -37560388.47049 -28952375.19547  19156382.9214   19156387.5294
      1729.8814       1347.9584
  18916187.3934  -36312513.17849 -27708586.09547  18916185.0334   18916190.3124
      1649.2064       1285.0964
  19960391.0774  -28833726.54548 -22439954.32047  19960389.1364   19960394.1954
      2844.2934       2216.3314
 00  7 16  2 50 59.9940000  0  8G22G 4G27G20G25G 1G16G19
  19536291.8024  -21929386.03248 -16767482.97747  19536289.4184   19536294.2324
       604.6534        471.1584
  22636965.4044  -11725727.72747  -8847713.91545  22636963.5134   22636968.2554
      1281.7874        998.7934
  22811235.1704   -9814464.72747  -7330486.19045  22811232.8604   22811239.2354
      3719.5774       2898.3694
  19003965.8864  -41819629.18649 -32304767.56147  19003963.4074   19003967.3314
      -701.6834       -546.7654
  22981306.2404  -19843400.30247 -15433162.63245  22981303.9904   22981307.1414
     -2033.8714      -1584.8294
  19146531.8314  -37612170.37749 -28992724.70847  19146529.4524   19146533.9514
      1724.8964       1344.0734
  18906826.3514  -36361706.10849 -27746918.24747  18906823.9754   18906829.4474
      1632.9584       1272.4354
  19944184.8654  -28918893.72149 -22506318.33547  19944182.6664   19944187.6204
      2836.1154       2209.9584
 00  7 16  2 51 29.9940000  0  8G22G 4G27G20G25G 1G16G19
  19532931.2434  -21947045.52648 -16781243.60547  19532928.7904   19532933.4054
       576.1494        448.9464
  22629727.3314  -11763761.96847  -8877350.98345  22629725.5394   22629730.6304
      1257.3444        979.7484
  22790044.9964   -9925819.41347  -7417255.94645  22790042.7574   22790049.1164
      3707.7314       2889.1384
  19008051.8084  -41798158.03849 -32288036.81047  19008049.4594   19008052.9784
      -726.1284       -565.8144
  22992946.5444  -19782228.77847 -15385496.45345  22992944.2934   22992947.7994
     -2040.6124      -1590.0834
  19136734.7914  -37663655.69349 -29032843.13747  19136732.2634   19136736.4724
      1711.0854       1333.3134
  18897586.6534  -36410264.01949 -27784755.57247  18897583.9764   18897588.7894
      1607.8514       1252.8724
  19928052.3304  -29003668.41649 -22572376.51447  19928050.4264   19928055.3124
      2819.1224       2196.7174
 00  7 16  2 51 59.9940000  0  8G22G 4G27G20G25G 1G16G19
  19529681.9564  -21964121.16048 -16794549.27147  19529679.5314   19529684.2034
       556.4374        433.5864
  22622577.8204  -11801334.22247  -8906628.07245  22622575.9734   22622580.8224
      1241.6384        967.5054
  22768871.3424  -10037092.19347  -7503961.90446  22768868.9484   22768874.4464
      3704.7634       2886.8284
  19012225.6144  -41776224.98049 -32270946.12347  19012223.0994   19012227.0144
      -741.7574       -577.9924
  23004574.0824  -19721125.42347 -15337883.41845  23004571.8484   23004575.8204
     -2038.5994      -1588.5124
  19126963.8694  -37714998.11549 -29072850.21247  19126962.0074   19126966.3654
      1706.0674       1329.4044
  18888437.9614  -36458339.90449 -27822217.29847  18888435.4354   18888439.9954
      1591.5264       1240.1504
  19911965.8184  -29088205.02749 -22638249.16247  19911963.6944   19911968.5024
      2810.9324       2190.3374
 00  7 16  2 52 29.9940000  0  8G22G 4G27G20G25G 1G16G19
  19526548.4934  -21980587.01748 -16807379.77247  19526546.0034   19526551.0954
       536.5614        418.0974
  22615520.6444  -11838418.08047  -8935524.58345  22615519.2524   22615523.6934
      1225.8174        955.1784
  22747716.8514  -10148255.62747  -7590582.63946  22747714.5414   22747721.0404
      3701.5084       2884.2874
  19016492.2164  -41753804.47049 -32253475.60247  19016489.9074   19016493.7564
      -757.5594       -590.3064
  23016192.9024  -19660064.72447 -15290303.61045  23016190.8184   23016194.4774
     -2036.7644      -1587.0924
  19117226.8634  -37766170.22449 -29112724.58747  19117224.3674   19117228.5284
      1700.7974       1325.2964
  18879386.0004  -36505906.03049 -27859281.80947  18879383.7464   18879388.7534
      1574.9374       1227.2244
  19895929.3664  -29172476.90549 -22703915.55047  19895927.3534   19895931.9094
      2802.5514       2183.8064
 00  7 16  2 52 59.9940000  0  8G22G 4G27G20G25G 1G16G19
  19523555.7064  -21996315.65748 -16819635.80947  19523552.9544   19523558.3864
       513.3374        400.0014
  22608580.4564  -11874886.31747  -8963941.39545  22608578.7854   22608584.3874
      1206.6464        940.2434
  22726607.8224  -10259181.64448  -7677018.34046  22726606.0054   22726613.1334
      3694.9704       2879.1934
  19020875.5974  -41730770.18649 -32235526.81747  19020873.3674   19020876.9714
      -776.6394       -605.1744
  23027827.9044  -19598920.31847 -15242658.58445  23027826.3454   23027830.5524
     -2038.1164      -1588.1484
  19107545.7284  -37817043.52049 -29152366.10047  19107543.4864   19107547.5644
      1692.1594       1318.5664
  18870455.9254  -36552833.38549 -27895848.57647  18870453.6184   18870458.8544
      1554.9544       1211.6524
  19879968.2384  -29256355.81349 -22769275.68847  19879965.9834   19879970.3434
      2790.7974       2174.6434
 00  7 16  2 53 29.9940000  0  8G22G 4G27G20G25G 1G16G19
  19520669.3564  -22011482.49948 -16831454.09747  19520666.9694   19520671.9674
       492.1764        383.5134
  22601724.8794  -11910914.26047  -8992015.11645  22601723.7484   22601728.8514
      1189.6204        926.9784
  22705511.8314  -10370044.91448  -7763405.14046  22705509.8784   22705516.2964
      3690.4314       2875.6574
  19025342.0524  -41707298.46549 -32217237.17647  19025339.7074   19025343.6604
      -793.6314       -618.4134
  23039446.4784  -19537868.46947 -15195085.65345  23039444.1754   23039448.2234
     -2037.4314      -1587.6124
  19097888.5174  -37867792.51049 -29191910.74847  19097886.2324   19097890.3084
      1685.6104       1313.4614
  18861614.3484  -36599295.79949 -27932053.05347  18861612.0484   18861617.1674
      1537.0744       1197.7214
  19864047.7894  -29340017.34149 -22834466.46247  19864045.4484   19864050.3074
      2781.1594       2167.1374
 00  7 16  2 53 59.9940000  0  8G22G 4G27G20G25G 1G16G19
  19517905.1644  -22026009.22948 -16842773.59547  19517902.4834   19517907.2884
       473.3644        368.8554
  22594967.7464  -11946423.93547  -9019684.98245  22594966.1534   22594970.9514
      1174.8924        915.5044
  22684442.9844  -10480766.32248  -7849681.43046  22684440.3284   22684446.2744
      3688.2294       2873.9434
  19029906.7584  -41683311.87849 -32198546.34847  19029904.2544   19029907.6654
      -808.2634       -629.8164
  23051061.0524  -19476831.79647 -15147524.58045  23051059.0484   23051063.2204
     -2034.4604      -1585.2964
  19088269.9674  -37918337.93249 -29231296.77247  19088267.8184   19088272.0674
      1681.2954       1310.0984
  18852876.7894  -36645213.94349 -27967833.42947  18852874.3564   18852879.5244
      1521.3904       1185.4994
  19848183.4124  -29423382.61849 -22899426.38247  19848181.2384   19848186.2814
      2773.7564       2161.3654
 00  7 16  2 54 29.9940000  0  8G22G 4G27G20G25G 1G16G19
  19515262.8224  -22039894.09348 -16853592.94547  19515260.1454   19515265.3084
       450.0264        350.6714
  22588309.3184  -11981413.18247  -9046949.33445  22588308.1704   22588312.4414
      1155.5354        900.4154
  22663399.9434  -10591343.02448  -7935844.99946  22663397.5804   22663403.5664
      3681.4704       2868.6734
  19034569.2084  -41658809.34449 -32179453.47747  19034566.8364   19034570.5594
      -827.3924       -644.7214
  23062673.3304  -19415808.75847 -15099974.14845  23062671.5374   23062675.7064
     -2035.9354      -1586.4494
  19078691.1644  -37968676.70449 -29270521.76947  19078688.7514   19078692.8304
      1672.4474       1303.2044
  18844243.1304  -36690584.05349 -28003186.76647  18844240.7454   18844245.9634
      1501.1384       1169.7184
  19832376.0824  -29506449.04749 -22964153.42447  19832374.1824   19832378.7584
      2761.8204       2152.0674
 00  7 16  2 54 59.9940000  0  8G22G 4G27G20G25G 1G16G19
  19512746.7844  -22053117.07948 -16863896.54647  19512744.0004   19512749.1484
       428.0604        333.5524
  22581755.5624  -12015861.39847  -9073792.11445  22581753.5674   22581757.5024
      1137.5704        886.4214
  22642388.6474  -10701753.31048  -8021878.88546  22642386.5944   22642393.4614
      3675.9274       2864.3554
  19039333.8364  -41633771.11049 -32159943.18247  19039331.4244   19039335.3474
      -845.1604       -658.5654
  23074286.8534  -19354779.59447 -15052418.93745  23074284.7414   23074288.9844
     -2036.0414      -1586.5304
  19069154.8114  -38018787.24249 -29309568.93947  19069152.8894   19069157.2704
      1664.9004       1297.3264
  18835717.9544  -36735384.07649 -28038095.88447  18835715.6034   18835720.8974
      1482.1774       1154.9414
  19816629.9694  -29589195.39649 -23028631.08047  19816627.9584   19816632.8464
      2751.2644       2143.8434
 00  7 16  2 55 29.9940000  0  8G22G 4G27G20G25G 1G16G19
  19510362.5554  -22065645.03048 -16873658.56147  19510359.8834   19510365.0734
       407.4514        317.4944
  22575308.3114  -12049735.40347  -9100187.44545  22575307.0674   22575312.3594
      1121.0004        873.5074
  22621417.0314  -10811963.27647  -8107756.67446  22621414.6874   22621419.9944
      3671.8514       2861.1834
  19044206.7004  -41608165.16049 -32139990.51947  19044204.1104   19044207.8084
      -861.4914       -671.2914
  23085907.4984  -19293711.63547 -15004833.51445  23085905.1624   23085909.2804
     -2034.7524      -1585.5214
  19059669.8054  -38068635.26149 -29348411.53947  19059667.2474   19059671.6354
      1658.7284       1292.5154
  18827307.9874  -36779579.36049 -28072533.77547  18827305.6194   18827310.5284
      1464.5904       1141.2414
  19800951.3764  -29671588.18349 -23092833.20547  19800949.3494   19800953.9584
      2742.0084       2136.6274
 00  7 16  2 55 59.9940000  0  8G22G 4G27G20G25G 1G16G19
  19508101.1334  -22077529.79549 -16882919.38847  19508098.5154   19508103.4554
       382.8774        298.3464
  22568961.6084  -12083087.41347  -9126176.04245  22568960.1464   22568964.6794
      1100.4564        857.4944
  22600472.5764  -10922024.10047  -8193518.28346  22600470.7224   22600475.8434
      3663.7044       2854.8314
  19049176.7704  -41582044.36249 -32119636.66247  19049174.5454   19049178.6614
      -881.7934       -687.1104
  23097525.4674  -19232657.96247 -14957259.21945  23097523.6814   23097527.4884
     -2037.3934      -1587.5774
  19050223.3704  -38118271.69949 -29387089.29247  19050221.3884   19050225.8324
      1648.4954       1284.5434
  18819003.8464  -36823220.27949 -28106539.68847  18819001.2024   18819005.7284
      1442.9364       1124.3674
  19785329.8604  -29753678.68349 -23156799.80447  19785328.0074   19785332.6524
      2728.7764       2126.3194
 00  7 16  2 56 29.9940000  0  8G22G 4G27G20G25G 1G16G19
  19505975.3334  -22088699.02648 -16891622.65947  19505972.8674   19505977.6614
       364.1764        283.7734
  22562727.9474  -12115845.07847  -9151701.50545  22562726.4764   22562731.0794
      1085.8244        846.0994
  22579571.5164  -11031862.28548  -8279106.36846  22579569.1164   22579575.1734
      3661.3944       2853.0284
  19054258.9694  -41555337.22349 -32098825.91647  19054256.5664   19054260.9734
      -896.1974       -698.3344
  23109154.4584  -19171546.87747 -14909640.13945  23109152.9874   23109156.7904
     -2034.1984      -1585.0894
  19040832.5904  -38167622.91449 -29425544.79347  19040830.2064   19040834.4704
      1644.0954       1281.1124
  18810818.1004  -36866233.08549 -28140056.16147  18810815.8434   18810820.9724
      1427.0954       1112.0234
  19769780.2464  -29835393.94549 -23220473.99847  19769778.1784   19769782.6794
      2721.3974       2120.5684
 00  7 16  2 56 59.9940000  0  8G22G 4G27G20G25G 1G16G19
  19503948.8144  -22099348.99249 -16899921.28747  19503946.4894   19503951.2144
       343.9884        268.0394
  22556570.6084  -12148203.98747  -9176916.24145  22556568.7244   22556574.0114
      1069.6034        833.4544
  22558675.5814  -11141672.72448  -8364672.84146  22558673.0754   22558678.7284
      3657.5714       2850.0524
  19059415.5624  -41528240.43649 -32077711.55047  19059413.0634   19059417.3324
      -912.0354       -710.6774
  23120757.0764  -19110574.22847 -14862128.95145  23120755.4294   23120759.7394
     -2032.3914      -1583.6914
  19031458.3374  -38216883.42649 -29463929.60547  19031456.1744   19031460.3464
      1638.1924       1276.5154
  18802715.8714  -36908812.41549 -28173234.86647  18802713.3654   18802718.3254
      1409.7314       1098.4924
  19754264.5484  -29916929.62049 -23284008.26047  19754262.6334   19754267.2624
      2712.5274       2113.6564
 00  7 16  2 57 29.9940000  0  7G22G 4G27G20G 1G16G19
  19502051.7784  -22109320.55749 -16907691.30047  19502048.9324   19502053.6674
       318.3234        248.0444
  22550519.2764  -12180004.90147  -9201696.16045  22550517.5324   22550522.8434
      1047.9944        816.6194
  22537814.6564  -11251294.78648  -8450092.52246  22537812.3844   22537818.3134
      3648.2194       2842.7594
  19064676.6504  -41500595.11249 -32056169.75447  19064674.0514   19064678.0184
      -933.3634       -727.2954
  19022132.4204  -38265892.37749 -29502118.39747  19022130.2744   19022134.2784
      1626.7474       1267.5954
  18794727.1484  -36950796.63249 -28205949.84247  18794724.5404   18794728.7074
      1386.8384       1080.6544
  19738813.2484  -29998125.39049 -23347277.67047  19738811.2254   19738816.1324
      2698.1554       2102.4574
 00  7 16  2 57 59.9940000  0  7G22G 4G27G20G 1G16G19
  19500281.1154  -22118623.65749 -16914940.45147  19500278.4194   19500283.1734
       301.9894        235.3144
  22544572.2464  -12211257.53747  -9226048.85345  22544570.2754   22544575.1064
      1035.6244        806.9794
  22516988.5854  -11360737.51248  -8535372.46846  22516986.3764   22516992.1784
      3648.2074       2842.7564
  19070039.3144  -41472412.30349 -32034209.13747  19070036.9374   19070040.9894
      -945.3284       -736.6184
  19012852.6364  -38314658.50849 -29540117.96947  19012850.3414   19012854.6444
      1624.5694       1265.8984
  18786849.3094  -36992194.11049 -28238207.62047  18786846.6964   18786851.1944
      1373.1994       1070.0264
  19723424.9854  -30078990.69949 -23410289.58547  19723423.1214   19723427.6344
      2693.0474       2098.4774
 00  7 16  2 58 29.9940000  0  7G22G 4G27G20G 1G16G19
  19498615.5244  -22127376.88849 -16921761.12447  19498612.8564   19498617.6424
       281.3774        219.2564
  22538706.4424  -12242080.74347  -9250066.93945  22538704.4194   22538708.9004
      1019.0384        794.0594
  22496173.9224  -11470118.51748  -8620604.35846  22496172.2084   22496177.3124
      3643.8154       2839.3354
  19075481.6894  -41443811.68749 -32011922.95947  19075479.4484   19075483.5424
      -961.5064       -749.2244
  19003596.2774  -38363299.25349 -29578019.85647  19003594.2404   19003598.8124
      1618.0874       1260.8474
  18779060.1884  -37033122.74649 -28270100.06747  18779057.7824   18779062.8344
      1355.2644       1056.0494
  19708077.5284  -30159643.45549 -23473135.85247  19708075.4064   19708079.6114
      2683.6854       2091.1834
 00  7 16  2 58 59.9940000  0  7G22G 4G27G20G 1G16G19
  19497088.4974  -22135403.14849 -16928015.33547  19497085.6214   19497090.1104
       258.3374        201.3014
  22532956.5384  -12272297.50847  -9273612.50045  22532954.9004   22532959.0944
      1000.0304        779.2404
  22475405.1854  -11579259.67848  -8705649.32146  22475403.0824   22475408.5084
      3637.0064       2834.0234
  19081037.7524  -41414616.72049 -31989173.64947  19081035.2544   19081039.2674
      -980.1354       -763.7404
  18994398.4554  -38411635.98049 -29615684.83747  18994396.0934   18994400.5374
      1609.0934       1253.8404
  18771395.4254  -37073403.12349 -28301487.37547  18771392.9394   18771397.8314
      1334.7914       1040.0974
  19692804.0524  -30239906.23849 -23535678.24547  19692801.9114   19692805.9414
      2671.8414       2081.9534
 00  7 16  2 59 29.9940000  0  7G22G 4G27G20G 1G16G19
  19495687.0044  -22142766.74849 -16933753.18647  19495684.4174   19495688.9724
       239.0574        186.2774
  22527308.5114  -12301971.36647  -9296734.98345  22527307.4114   22527312.7384
       984.7074        767.3064
  22454669.8804  -11688223.82248  -8790556.31246  22454667.7664   22454672.8244
      3633.8764       2831.5934
  19086693.6234  -41384892.19949 -31966011.69547  19086691.3394   19086695.6654
      -994.9274       -775.2674
  18985246.2004  -38459731.22649 -29653161.65447  18985244.1344   18985248.4894
      1603.8764       1249.7744
  18763841.7684  -37113097.91949 -28332418.38747  18763839.3744   18763843.9954
      1318.1194       1027.1044
  19677592.1224  -30319842.09148 -23597965.89247  19677590.3454   19677594.5654
      2663.7874       2075.6764
 00  7 16  2 59 59.9940000  0  7G22G 4G27G20G 1G16G19
  19494398.5604  -22149537.95749 -16939029.43147  19494395.6524   19494400.6474
       211.7424        164.9954
  22521752.1314  -12331172.19047  -9319488.87445  22521750.7254   22521755.1264
       961.3594        749.1064
  22433955.5614  -11797079.70248  -8875379.00746  22433953.0324   22433957.8304
      3622.6654       2822.8534
  19092437.3914  -41354708.92449 -31942492.27547  19092435.0364   19092439.2294
     -1017.8234       -793.1074
  18976126.9384  -38507653.41849 -29690503.62147  18976124.6784   18976129.3954
      1590.4464       1239.3084
  18756386.6924  -37152275.42949 -28362946.32047  18756384.1604   18756388.7974
      1293.2034       1007.6914
  19662430.3644  -30399520.25748 -23660052.75847  19662428.3364   19662432.0324
      2647.5654       2063.0364
 00  7 16  3  4 29.9940000  0  6G 4G27G20G 1G16G19
  22476167.3864  -12570723.01547  -9506151.87845  22476165.7214   22476170.9814
       812.9194        633.4444
  22248862.5984  -12769742.70148  -9633297.34446  22248860.6504   22248866.1834
      3581.6224       2790.8714
  19148409.1474  -41060575.61449 -31713297.65947  19148406.7934   19148411.4564
     -1160.6894       -904.4314
  18895956.9944  -38928949.70749 -30018786.50447  18895954.7304   18895959.1744
      1529.5044       1191.8214
  18694144.8634  -37479358.94949 -28617816.68347  18694142.4484   18694146.9024
      1128.8304        879.6074
  19528574.6774  -31102935.44849 -24208168.32547  19528572.8034   19528577.1214
      2562.4554       1996.7174
 00  7 16  3  4 59.9940000  0  7G22G 4G27G20G 1G16G19
  19488165.9954  -22182288.26149 -16964549.06347  19488163.3314   19488168.3114
        -0.7974         -0.6214
  22471592.6864  -12594766.81547  -9524887.31745  22471591.2884   22471595.8244
       788.3564        614.3074
  22228447.7434  -12877023.81048  -9716892.90346  22228445.6224   22228451.5444
      3568.8904       2780.9504
  19155098.8164  -41025422.43449 -31685905.59447  19155096.4524   19155100.7234
     -1184.4204       -922.9244
  18887264.0734  -38974631.77949 -30054382.92847  18887261.9314   18887265.9214
      1514.4314       1180.0764
  18687771.7504  -37512849.44349 -28643913.17747  18687769.4804   18687773.5274
      1102.3144        858.9474
  19513991.5094  -31179569.23249 -24267882.95147  19513989.7134   19513994.3314
      2544.8954       1983.0354
 00  7 16  3  5 29.9940000  0  7G22G 4G27G20G 1G16G19
  19488202.1924  -22182094.66649 -16964398.21047  19488199.6774   19488204.9314
       -13.2124        -10.2964
  22467112.2704  -12618307.50147  -9543230.71945  22467110.7944   22467115.8854
       779.8864        607.7014
  22208061.3544  -12984153.36848  -9800370.36346  22208058.9124   22208064.8144
      3572.1164       2783.4644
  19161879.8624  -40989789.32249 -31658139.55047  19161877.3744   19161881.4494
     -1192.1084       -928.9144
  18878613.0584  -39020093.56449 -30089807.70747  18878610.7684   18878614.7634
      1515.3434       1180.7874
  18681506.4574  -37545775.62649 -28669569.95547  18681503.9094   18681507.9794
      1091.7684        850.7294
  19499465.0804  -31255907.09749 -24327366.99547  19499463.1324   19499467.6234
      2543.3084       1981.8004
 00  7 16  3  5 59.9940000  0  7G22G 4G27G20G 1G16G19
  19488357.9874  -22181278.63949 -16963762.34747  19488355.4984   19488360.1004
       -42.1184        -32.8194
  22462727.8494  -12641343.35047  -9561180.74145  22462726.7624   22462732.2594
       754.9494        588.2744
  22187703.9864  -13091128.29848  -9883727.35046  22187702.5464   22187708.2564
      3558.7624       2773.0564
  19168751.7404  -40953675.37949 -31629998.83147  19168749.4574   19168753.7634
     -1216.2734       -947.7464
  18870004.4184  -39065331.84049 -30125058.32347  18870002.2414   18870006.4844
      1499.7664       1168.6494
  18675349.0454  -37578133.83049 -28694784.14947  18675346.3804   18675350.5174
      1064.6484        829.5964
  19484995.6914  -31331946.36149 -24386618.35147  19484993.4854   19484998.0724
      2525.1604       1967.6584
 00  7 16  3  6 29.9940000  0  7G22G 4G27G20G 1G16G19
  19488618.8704  -22179906.37749 -16962693.04047  19488616.4314   19488621.3874
       -53.5804        -41.7504
  22458429.6204  -12663940.38347  -9578788.82245  22458427.8464   22458432.4864
       747.3164        582.3224
  22167364.6734  -13198013.25048  -9967014.24046  22167362.4964   22167368.3464
      3562.7564       2776.1744
  19175702.4064  -40917147.36549 -31601535.46547  19175700.2494   19175704.8194
     -1223.0564       -953.0314
  18861425.7134  -39110410.70249 -30160184.71947  18861423.9684   18861428.4424
      1501.4144       1169.9334
  18669286.9704  -37609988.43249 -28719605.92347  18669284.5354   18669288.7084
      1054.8684        821.9754
  19470570.0344  -31407751.91749 -24445687.60047  19470568.0474   19470572.4874
      2524.3594       1967.0324
 00  7 16  3  6 59.9940000  0  7G22G 4G27G20G 1G16G19
  19489014.9504  -22177825.06949 -16961071.24547  19489012.4594   19489017.6474
       -80.5854        -62.7944
  22454240.9174  -12685944.71047  -9595935.08645  22454239.7824   22454245.6094
       724.2114        564.3204
  22147071.7744  -13304653.28548 -10050110.27446  22147069.6564   22147075.7234
      3551.2504       2767.2044
  19182761.8664  -40880052.43649 -31572630.34547  19182759.4544   19182763.6074
     -1245.2834       -970.3504
  18852908.2354  -39155174.61849 -30195065.69647  18852905.7344   18852910.2084
      1487.5324       1159.1164
  18663350.3484  -37641184.52349 -28743914.56947  18663347.8904   18663352.0844
      1029.5684        802.2604
  19456218.4224  -31483169.24349 -24504454.33347  19456216.4994   19456221.2154
      2508.0914       1954.3574
 00  7 16  3  7 29.9940000  0  7G22G 4G27G20G 1G16G19
  19489532.7814  -22175104.05549 -16958950.96947  19489530.3294   19489535.3344
      -102.1284        -79.5804
  22450154.0764  -12707425.86747  -9612673.65145  22450152.2404   22450158.0894
       706.5954        550.5944
  22126812.8034  -13411116.25948 -10133068.33246  22126810.7234   22126816.5004
      3545.1214       2762.4264
  19189915.7004  -40842460.43449 -31543337.89747  19189913.2654   19189916.7744
     -1262.0324       -983.4014
  18844436.3114  -39199691.17449 -30229753.92647  18844434.3034   18844438.5574
      1479.0574       1152.5124
  18657526.4564  -37671789.23849 -28767762.39847  18657524.0384   18657528.4604
      1009.6014        786.7034
  19441928.1284  -31558266.81449 -24562971.91047  19441926.0944   19441930.5344
      2497.2304       1945.8944
 00  7 16  3  7 59.9940000  0  7G22G 4G27G20G 1G16G19
  19490162.8544  -22171794.09949 -16956371.77747  19490160.2924   19490164.9844
      -117.7864        -91.7814
  22446156.4584  -12728434.53547  -9629044.04745  22446154.5374   22446158.9204
       694.7944        541.3974
  22106577.6244  -13517451.83248 -10215927.13446  22106575.6534   22106581.1694
      3544.7654       2762.1524
  19197153.2034  -40804423.36949 -31513698.64147  19197151.1814   19197154.9854
     -1272.8944       -991.8644
  18836003.1754  -39244009.47649 -30264287.67747  18836001.0404   18836004.9334
      1476.3824       1150.4284
  18651805.8074  -37701852.35549 -28791188.21247  18651803.1954   18651807.7524
       995.4794        775.6974
  19427688.5064  -31633094.41149 -24621279.11247  19427686.5944   19427690.9614
      2492.1514       1941.9354
 00  7 16  3  8 29.9940000  0  7G22G 4G27G20G 1G16G19
  19490914.2844  -22167842.38649 -16953292.50647  19490912.0774   19490917.1114
      -139.1704       -108.4454
  22442258.3794  -12748917.93347  -9645005.14445  22442256.4444   22442260.8504
       677.3364        527.7934
  22086377.4334  -13623605.61648 -10298644.28146  22086375.1624   22086381.2974
      3538.7104       2757.4344
  19204486.8354  -40765888.93949 -31483671.83347  19204484.2824   19204488.3454
     -1289.4944      -1004.7994
  18827617.8124  -39288074.71849 -30298624.23947  18827615.6734   18827619.7714
      1467.8884       1143.8094
  18646198.6884  -37731319.52549 -28814149.65447  18646196.2174   18646200.3634
       975.5684        760.1854
  19413511.2594  -31707598.27949 -24679334.05947  19413509.1394   19413513.2214
      2481.3374       1933.5094
 00  7 16  3  8 59.9940000  0  7G22G 4G27G20G 1G16G19
  19491774.1294  -22163326.89749 -16949773.92747  19491771.3544   19491776.5664
      -164.4664       -128.1564
  22438445.1944  -12768953.46447  -9660617.24145  22438443.9984   22438447.9054
       655.8034        511.0174
  22066197.1504  -13729653.55448 -10381278.95546  22066194.9084   22066200.5744
      3528.6754       2749.6134
  19211900.0634  -40726935.28749 -31453318.35547  19211897.4484   19211900.9584
     -1309.9374      -1020.7294
  18819265.7574  -39331962.70149 -30332822.67247  18819263.8714   18819268.4394
      1455.4704       1134.1334
  18640690.3514  -37760266.47649 -28836705.73347  18640687.6324   18640692.0164
       951.6784        741.5684
  19399380.6264  -31781855.10949 -24737196.51847  19399378.5614   19399382.9934
      2466.5844       1922.0134
 00  7 16  3  9 29.9940000  0  7G22G 4G27G20G 1G16G19
  19492749.4044  -22158202.04949 -16945780.54947  19492746.7864   19492751.7724
      -180.6064       -140.7324
  22434727.1894  -12788494.76247  -9675844.25245  22434725.1464   22434730.9104
       643.5474        501.4674
  22046045.0414  -13835548.20348 -10463794.18246  22046043.3674   22046049.2794
      3527.6654       2748.8284
  19219400.4534  -40687516.99749 -31422602.81547  19219398.0364   19219402.1194
     -1321.2524      -1029.5474
  18810957.7034  -39375625.04849 -30366845.29447  18810955.3934   18810959.8394
      1452.0374       1131.4584
  18635289.5144  -37788645.07649 -28858818.93847  18635287.1734   18635291.7344
       936.9134        730.0624
  19385305.8174  -31855817.70449 -24794829.69647  19385303.7914   19385308.3814
      2460.9564       1917.6284
 00  7 16  3  9 59.9930000  0  7G22G 4G27G20G 1G16G19
  19493859.0554  -22152369.69949 -16941235.84347  19493856.4124   19493861.2144
      -203.4644       -158.5454
  22431122.3194  -12807443.05047  -9690609.16845  22431119.9284   22431124.7494
       624.4654        486.6004
  22025943.4914  -13941186.36648 -10546109.55146  22025941.5724   22025946.7714
      3519.9524       2742.8194
  19227007.8524  -40647537.86349 -31391450.25947  19227005.5634   19227010.0424
     -1339.2624      -1043.5814
  18802711.3734  -39418960.03549 -30400612.83547  18802708.8594   18802713.3924
      1441.8564       1123.5254
  18630016.3504  -37816355.06449 -28880411.14647  18630013.9424   18630018.6984
       915.3094        713.2294
  19371306.2594  -31929384.16849 -24852154.20647  19371304.4384   19371309.3104
      2448.5314       1907.9464
 00  7 16  3 10 29.9930000  0  7G22G 4G27G20G 1G16G19
  19495076.4274  -22145971.78449 -16936250.43647  19495073.8294   19495078.7714
      -223.1704       -173.8994
  22427601.6734  -12825941.59247  -9705023.63245  22427599.5144   22427605.4434
       608.6394        474.2614
  22005862.3924  -14046715.80748 -10628340.17746  22005860.0434   22005865.1254
      3515.3584       2739.2374
  19234695.8794  -40607138.25349 -31359970.06347  19234693.3214   19234697.6754
     -1354.0674      -1055.1164
  18794499.5744  -39462110.94949 -30434236.92747  18794497.6304   18794502.0524
      1434.8234       1118.0444
  18624843.6484  -37843538.79249 -28901593.28447  18624841.2094   18624845.6394
       896.8824        698.8704
  19357354.9244  -32002700.81549 -24909284.04547  19357352.8954   19357357.5394
      2439.2334       1900.6994
 00  7 16  3 10 59.9930000  0  7G22G 4G27G20G 1G16G19
  19496403.1244  -22138998.66849 -16930816.83847  19496400.7434   19496405.8944
      -244.6954       -190.6724
  22424168.1724  -12843980.22047  -9719079.70845  22424167.4024   22424172.3444
       590.9874        460.5074
  21985803.3374  -14152121.79048 -10710474.60646  21985801.4864   21985807.0764
      3508.8324       2734.1524
  19242465.0024  -40566310.39549 -31328156.16547  19242462.8524   19242466.9914
     -1370.6874      -1068.0684
  18786326.1004  -39505064.61949 -30467707.32647  18786323.8484   18786328.2534
      1425.8754       1111.0714
  18619773.0854  -37870183.99049 -28922355.78547  18619770.8134   18619775.1874
       876.5864        683.0544
  19343452.9614  -32075754.52149 -24966208.99547  19343451.1644   19343455.7914
      2428.1134       1892.0374
 00  7 16  3 11 29.9930000  0  7G22G 4G27G20G 1G16G19
  19497840.9824  -22131444.33549 -16924930.33547  19497838.3904   19497843.5384
      -266.0854       -207.3404
  22420824.1674  -12861552.20147  -9732772.14845  22420822.6204   22420827.9424
       573.3364        446.7564
  21965770.8044  -14257396.18148 -10792506.49546  21965768.8964   21965774.0794
      3502.3814       2729.1224
  19250316.9524  -40525048.49249 -31296004.05247  19250314.6274   19250319.0414
     -1387.2064      -1080.9394
  18778191.5494  -39547812.44749 -30501017.33147  18778189.3304   18778193.6684
      1416.9184       1104.0934
  18614807.1144  -37896282.47849 -28942692.27647  18614804.5214   18614809.0354
       856.2694        667.2234
  19329603.5094  -32148537.69249 -25022923.15547  19329601.4644   19329605.7694
      2417.0004       1883.3774
 00  7 16  3 11 59.9930000  0  7G22G 4G27G20G 1G16G19
  19499422.8194  -22123134.12949 -16918454.82347  19499419.8634   19499424.6244
      -284.7524       -221.8864
  22417602.8924  -12878482.24547  -9745964.39045  22417601.1854   22417606.2974
       558.5054        435.2024
  21945796.6594  -14362362.16548 -10874298.08346  21945794.6734   21945799.1524
      3498.6264       2726.2004
  19258284.9064  -40483177.87049 -31263377.61947  19258282.6554   19258286.6564
     -1400.9304      -1091.6344
  18770129.6674  -39590177.24849 -30534028.87147  18770127.6294   18770131.8834
      1410.6544       1099.2104
  18609978.1514  -37921657.26049 -28962464.84547  18609975.8134   18609980.2334
       838.6294        653.4774
  19315838.3434  -32220873.73349 -25079288.89247  19315836.2364   19315840.8994
      2408.6484       1876.8684
