     2              OBSERVATION DATA                        RINEX VERSION / TYPE
ASHCAN V.  1.90     SOPAC / SCIGN       20000119 20:18:07UTCPGM / RUN BY / DATE
                                                            COMMENT
     SCIGN - Southern California Integrated GPS Network     COMMENT
                                                            COMMENT
      SOPAC - Scripps Orbit and Permanent Array Center      COMMENT
    IGPP - Institute of Geophysics and Planetary Physics    COMMENT
         SIO - Scripps Institution of Oceanography          COMMENT
        UCSD - University of California, San Diego          COMMENT
                                                            COMMENT
                email: archive@lox.ucsd.edu                 COMMENT
                    ftp://lox.ucsd.edu                      COMMENT
                    http://lox.ucsd.edu                     COMMENT
                                                            COMMENT
DHLG DURMID_HILL__                                          MARKER NAME
PFJ                 SOPAC / SCIGN                           OBSERVER / AGENCY
LP02767             ASHTECH Z-XII3      CC00      1D02      REC # / TYPE / VERS
CR12656             ASH700936D_M    SNOW                    ANT # / TYPE
 -2319099.1300 -4799846.5600  3490090.4600                  APPROX POSITION XYZ
        0.1214        0.0000        0.0000                  ANTENNA: DELTA H/E/N
     1     1                                                WAVELENGTH FACT L1/2
     5    L1    L2    C1    P1    P2                        # / TYPES OF OBSERV
  2000     1     6     0     0   30.000000                  TIME OF FIRST OBS
  2000     1     6    23    59   30.000000                  TIME OF LAST OBS
    30                                                      INTERVAL
                                                            END OF HEADER
 00  1  6  0  0 30.0000000  0  9  2 24  7 26 16  8  4  9  5           .000000000
 -19076129.674 9 -14839016.00148  22000142.670    22000142.0294   22000150.2574
 -11308087.404 9  -8486658.27346  23008072.538    23008072.1344   23008082.4284
 -16769998.538 9 -13049188.16748  21374344.884    21374344.1904   21374351.8574
  -1888826.103 9  -1447212.36046  24373948.777    24373948.8374   24373958.7084
  -1154044.939 9   -515279.68244          .000            .0004   25334852.1654
 -23646132.415 9 -18411079.01949  20382715.463    20382714.9004   20382722.1444
 -21971635.098 9 -17093709.38048  20827378.400    20827378.5164   20827385.7034
 -20869515.073 9 -15946927.12148  21782876.248    21782876.0194   21782883.6154
  -5430945.965 8  -4213004.85545  24360911.067    24360910.3934   24360921.2954
 00  1  6  0  1  0.0000000  0  9  2 24  7 26 16  8  4  9  5           .000000041
 -19033991.038 9 -14806180.70348  22008161.393    22008160.7674   22008168.9954
 -11412230.205 9  -8567808.26146  22988254.621    22988254.2934   22988264.5434
 -16718529.237 9 -13009082.21948  21384139.155    21384138.4694   21384146.1064
  -1816175.397 9  -1390601.49946  24387773.789    24387773.9054   24387783.8054
  -1213100.006 9   -561296.62045  25323599.385    25323598.3184   25323608.4654
 -23588749.227 9 -18366364.85049  20393635.126    20393634.5414   20393641.7954
 -22028227.703 9 -17137807.45548  20816609.095    20816609.2324   20816616.3994
 -20925601.476 9 -15990630.75248  21772203.302    21772203.0784   21772210.6854
  -5514351.713 8  -4277996.05045  24345039.307    24345038.7314   24345049.4534
 00  1  6  0  1 30.0000000  0  9  2 24  7 26 16  8  4  9  5           .000000005
 -18991603.264 9 -14773151.27748  22016227.528    22016226.9134   22016235.1284
 -11516202.312 9  -8648825.25346  22968469.270    22968468.9104   22968479.0944
 -16666849.100 9 -12968811.98548  21393973.586    21393972.8714   21393980.5224
  -1743409.475 9  -1333900.85845  24401620.760    24401620.8194   24401630.6594
  -1271942.772 8   -607148.01246  25312402.004    25312401.2194   25312412.2284
 -23530796.448 9 -18321206.84349  20404663.150    20404662.5764   20404669.8294
 -22084241.917 9 -17181454.83948  20805949.892    20805950.0414   20805957.1874
 -20981173.534 9 -16033933.59848  21761628.205    21761627.9994   21761635.5894
  -5597737.072 9  -4342971.33845  24329171.459    24329170.8864   24329181.7184
 00  1  6  0  2  0.0000000  0  9  2 24  7 26 16  8  4  9  5          -.000000029
 -18948948.558 9 -14739913.85548  22024344.419    22024343.8144   22024352.0754
 -11619974.250 9  -8729686.24046  22948721.930    22948721.6314   22948731.8444
 -16614959.307 9 -12928378.38348  21403847.856    21403847.1854   21403854.8554
  -1670528.591 9  -1277110.62645  24415489.569    24415489.6394   24415499.4724
  -1330588.140 8   -652845.59845  25301242.159    25301241.2454   25301252.6044
 -23472267.515 9 -18275599.88549  20415800.861    20415800.2864   20415807.5324
 -22139676.247 9 -17224650.37148  20795401.054    20795401.1934   20795408.3144
 -21036220.834 9 -16076827.54748  21751153.033    21751152.7904   21751160.4144
  -5681092.706 9  -4407923.45546  24313309.304    24313308.7574   24313319.6264
 00  1  6  0  2 30.0000000  0  9  2 24  7 26 16  8  4  9  5          -.000000044
 -18906004.525 9 -14706450.97248  22032516.415    22032515.8174   22032524.0594
 -11723519.803 9  -8810370.84146  22929017.706    22929017.4424   22929027.6114
 -16562897.906 9 -12887811.05248  21413754.814    21413754.1374   21413761.7964
  -1597533.806 8  -1220231.64845  24429380.040    24429380.1024   24429390.0224
  -1389048.094 8   -698398.72345  25290117.509    25290117.0564   25290127.9894
 -23413176.440 9 -18229554.89149  20427045.496    20427044.9214   20427052.1674
 -22194546.030 9 -17267405.98848  20784959.658    20784959.7924   20784966.9074
 -21090749.885 9 -16119317.66148  21740776.475    21740776.2344   21740783.8274
  -5764432.863 9  -4472863.52446  24297450.080    24297449.5364   24297460.3544
 00  1  6  0  3  0.0000000  0  9  2 24  7 26 16  8  4  9  5          -.000000038
 -18862777.786 9 -14672767.80048  22040742.200    22040741.5924   22040749.8244
 -11826842.195 9  -8890881.56746  22909355.935    22909355.6644   22909365.8204
 -16510692.126 9 -12847131.22648  21423689.277    21423688.6094   21423696.2484
  -1524446.798 8  -1163280.80645  24443288.010    24443288.0934   24443298.0334
  -1447332.026 8   -743814.73145  25279026.344    25279025.7954   25279036.9674
 -23353552.368 9 -18183094.57849  20438391.533    20438390.9764   20438398.2364
 -22248895.473 9 -17309756.15348  20774617.271    20774617.4224   20774624.5324
 -21144779.725 9 -16161418.78948  21730494.890    21730494.6624   21730502.2154
  -5847778.220 9  -4537807.64446  24281589.849    24281589.2364   24281600.0914
 00  1  6  0  3 30.0000000  0  9  2 24  7 26 16  8  4  9  5          -.000000025
 -18819273.932 9 -14638868.69648  22049020.703    22049020.1214   22049028.3614
 -11929956.708 9  -8971230.30146  22889733.710    22889733.4384   22889743.5734
 -16458362.771 9 -12806355.10148  21433647.201    21433646.5054   21433654.1634
  -1451298.083 8  -1106281.89345  24457207.805    24457207.7584   24457217.9434
  -1505462.593 7   -789111.13445  25267964.392    25267963.8534   25267974.6144
 -23293412.854 9 -18136232.61949  20449835.740    20449835.1744   20449842.4254
 -22302744.060 9 -17351716.03648  20764370.209    20764370.3364   20764377.4604
 -21198331.352 9 -16203147.27648  21720304.349    21720304.1164   21720311.6684
  -5931164.200 9  -4602783.41646  24265721.833    24265721.2414   24265732.0394
 00  1  6  0  4  0.0000000  0  9  2 24  7 26 16  8  4  9  5          -.000000013
 -18775484.195 9 -14604746.82948  22057353.645    22057353.0324   22057361.2814
 -12032876.401 9  -9051427.26847  22870148.556    22870148.3074   22870158.3424
 -16405911.338 9 -12765483.85548  21443628.324    21443627.6664   21443635.3574
  -1378109.380 8  -1049251.82545  24471135.212    24471135.1644   24471145.3264
  -1563435.575 7   -834284.68245  25256932.154    25256931.7704   25256942.7664
 -23232767.401 9 -18088976.42549  20461376.200    20461375.6344   20461382.8994
 -22356082.610 9 -17393278.49548  20754220.209    20754220.3424   20754227.4424
 -21251429.317 9 -16244522.27148  21710200.086    21710199.8514   21710207.3544
  -6014620.919 9  -4667814.33946  24249840.296    24249839.7264   24249850.4694
 00  1  6  0  4 30.0000000  0  9  2 24  7 26 16  8  4  9  5          -.000000009
 -18731414.965 9 -14570407.17348  22065739.735    22065739.1264   22065747.3794
 -12135613.582 9  -9131482.02047  22850598.158    22850597.9114   22850607.8614
 -16353324.478 9 -12724507.08248  21453635.288    21453634.6084   21453642.3154
  -1304889.419 8   -992197.40645  24485068.575    24485068.5804   24485078.6594
  -1621233.965 7   -879322.27945  25245933.342    25245932.9034   25245944.0494
 -23171623.463 9 -18041331.79949  20473011.517    20473010.9394   20473018.2154
 -22408911.886 9 -17434444.11348  20744167.088    20744167.2224   20744174.3054
 -21304073.622 9 -16285543.76048  21700182.176    21700181.9374   21700189.4354
  -6098154.230 9  -4732904.98046  24233944.270    24233943.7004   24233954.3674
 00  1  6  0  5  0.0000000  0  9  2 24  7 26 16  8  4  9  5          -.000000020
 -18687079.400 9 -14535859.99248  22074176.528    22074175.9264   22074184.1624
 -12238175.870 9  -9211400.50747  22831080.997    22831080.7824   22831090.6434
 -16300575.985 9 -12683404.36448  21463672.966    21463672.2994   21463679.9774
  -1231639.147 8   -935119.37045  24499007.617    24499007.7104   24499017.6304
  -1678857.481 7   -924223.62944  25234967.835    25234967.5764   25234978.7694
 -23109976.562 9 -17993295.26049  20484742.515    20484741.9384   20484749.2144
 -22461220.488 9 -17475204.01948  20734213.048    20734213.1734   20734220.2384
 -21356255.501 9 -16326204.91848  21690252.272    21690252.0414   21690259.5344
  -6181752.720 9  -4798046.43446  24218035.825    24218035.2144   24218045.8324
 00  1  6  0  5 30.0000000  0  9  2 24  7 26 16  8  4  9  5          -.000000047
 -18642482.916 9 -14501109.49047  22082662.978    22082662.3614   22082670.5614
 -12340554.654 9  -9291176.02646  22811598.859    22811598.6304   22811608.3514
 -16247638.829 9 -12642154.63048  21473746.608    21473745.9354   21473753.6204
  -1158348.832 8   -878010.11145  24512954.278    24512954.4754   24512964.3604
  -1736288.097 7   -968974.63744  25224039.194    25224038.7614   25224049.6254
 -23047806.387 9 -17944850.96949  20496573.085    20496572.5084   20496579.7634
 -22512981.022 9 -17515536.85548  20724363.270    20724363.4124   20724370.4744
 -21407977.637 9 -16366507.82348  21680409.872    21680409.6254   21680417.0894
  -6265403.116 9  -4863228.37346  24202117.475    24202116.8044   24202127.3474
 00  1  6  0  6  0.0000000  0  9  2 24  7 26 16  8  4  9  5          -.000000078
 -18597628.922 9 -14466158.33847  22091198.409    22091197.7824   22091205.9824
 -12442722.861 9  -9370787.49346  22792156.752    22792156.5294   22792166.1714
 -16194500.198 9 -12600747.90948  21483858.516    21483857.8454   21483865.5754
  -1084995.705 8   -820851.92645  24526912.948    24526913.1414   24526923.1844
  -1793490.403 7  -1013547.75554  25213154.162    25213153.3774           .0005
 -22985102.060 9 -17895990.46049  20508505.334    20508504.7574   20508512.0194
 -22564186.884 9 -17555437.48148  20714619.094    20714619.2384   20714626.3014
 -21459218.411 9 -16406435.66048  21670659.045    21670658.8154   21670666.2434
  -6349073.806 9  -4928426.15346  24186195.265    24186194.6664   24186205.0844
 00  1  6  0  6 30.0000000  0  9  2 24  7 26 16  8  4  9  5          -.000000102
 -18552525.849 9 -14431013.09647  22099781.271    22099780.6304   22099788.8594
 -12544672.197 9  -9450228.42546  22772756.306    22772756.0994   22772765.6424
 -16141181.281 9 -12559200.70048  21494004.772    21494004.1014   21494011.8414
  -1011565.525 8   -763633.69445  24540886.315    24540886.5384   24540896.6684
  -1850460.59716  -1057939.75354  25202313.174    25202313.4415           .0005
 -22921864.890 9 -17846714.74549  20520538.998    20520538.4174   20520545.6694
 -22614839.009 9 -17594906.62048  20704980.295    20704980.4304   20704987.4674
 -21509966.913 9 -16445979.89648  21661001.896    21661001.6714   21661009.0684
  -6432731.026 9  -4993613.47445  24170275.670    24170275.0474   24170285.3224
 00  1  6  0  7  0.0000000  0  9  2 24  7 26 16  8  4  9  5          -.000000115
 -18507166.367 9 -14395668.05747  22108412.884    22108412.2644   22108420.4964
 -12646415.226 9  -9529508.61546  22753395.144    22753394.9034   22753404.3904
 -16087698.139 9 -12517525.52848  21504182.249    21504181.5954   21504189.3284
   -938052.328 9   -706350.79445  24554875.550    24554875.6934   24554885.9164
  -1907211.657 7  -1102161.03354  25191513.591    25191513.7724           .0005
 -22858104.178 9 -17797031.07649  20532672.289    20532671.7074   20532678.9514
 -22664935.225 9 -17633942.58748  20695447.296    20695447.4304   20695454.4434
 -21560226.790 9 -16485143.38448  21651437.745    21651437.5124   21651444.8844
  -6516370.813 9  -5058787.24445  24154359.388    24154358.8264   24154368.9524
 00  1  6  0  7 30.0000000  0  9  2 24  7 26 16  8  4  9  5          -.000000111
 -18461542.405 9 -14360116.92447  22117094.856    22117094.2144   22117102.4434
 -12747959.514 9  -9608633.95946  22734071.824    22734071.5904   22734081.0294
 -16034067.709 9 -12475735.58648  21514387.800    21514387.1304   21514394.8444
   -864468.170 9   -649012.57745  24568878.246    24568878.2804   24568888.5854
  -1963726.477 7  -1146198.49254  25180758.479    25180757.9754           .0005
 -22793833.769 9 -17746950.24249  20544902.560    20544901.9904   20544909.2034
 -22714477.126 9 -17672546.62048  20686019.755    20686019.8874   20686026.8844
 -21610007.264 9 -16523933.32048  21641964.825    21641964.6004   21641971.9264
  -6599999.722 9  -5123952.58845  24138445.227    24138444.6934   24138454.7474
 00  1  6  0  8  0.0000000  0  9  2 24  7 26 16  8  4  9  5          -.000000091
 -18415639.968 9 -14324348.80947  22125829.775    22125829.1374   22125837.3584
 -12849318.305 9  -9687614.78047  22714783.791    22714783.5934   22714793.0274
 -15980327.511 9 -12433860.11448  21524614.258    21524613.5804   21524621.2504
   -790832.051 9   -591633.86845  24582890.741    24582890.9084   24582901.1224
  -2020019.674 8  -1190063.27244  25170045.985    25170045.3224   25170057.8294
 -22729077.463 9 -17696490.79049  20557225.272    20557224.6804   20557231.8994
 -22763471.453 9 -17710723.97048  20676696.417    20676696.5414   20676703.5224
 -21659306.196 9 -16562348.02848  21632583.505    21632583.2744   21632590.5914
  -6683622.787 9  -5189113.37845  24122532.191    24122531.6384   24122541.6824
 00  1  6  0  8 30.0000000  0  9  2 24  7 26 16  8  4  9  5          -.000000059
 -18369449.643 9 -14288356.36147  22134619.518    22134618.8824   22134627.1124
 -12950518.058 9  -9766471.68247  22695526.022    22695525.8354   22695535.2044
 -15926481.587 9 -12391902.25748  21534860.780    21534860.0974   21534867.8034
   -717167.807 9   -534233.26246  24596908.751    24596908.9344   24596919.2204
  -2076114.510 8  -1233773.42344  25159371.255    25159371.2704   25159382.4194
 -22663845.637 9 -17645660.79749  20569638.409    20569637.8364   20569645.0794
 -22811914.494 9 -17748471.74948  20667477.987    20667478.1034   20667485.0764
 -21708140.894 9 -16600400.99548  21623290.541    21623290.3284   21623297.6054
  -6767259.796 9  -5254285.02345  24106616.527    24106616.0874   24106625.9854
 00  1  6  0  9  0.0000000  0  9  2 24  7 26 16  8  4  9  5          -.000000023
 -18322974.595 9 -14252142.05247  22143463.421    22143462.7604   22143471.0004
 -13051542.921 9  -9845192.32947  22676301.550    22676301.3334   22676310.7174
 -15872515.489 9 -12349850.75448  21545130.206    21545129.5074   21545137.2444
   -643490.520 9   -476822.48246  24610929.213    24610929.4084   24610939.6784
  -2132002.627 8  -1277322.47544  25148735.792    25148735.5654   25148746.6294
 -22598148.065 9 -17594467.88749  20582140.227    20582139.6414   20582146.8984
 -22859819.483 9 -17785800.26748  20658361.908    20658362.0244   20658368.9754
 -21756511.861 9 -16638092.61348  21614085.770    21614085.5604   21614092.8084
  -6850937.783 8  -5319488.58945  24090693.048    24090692.5304   24090702.5414
 00  1  6  0  9 30.0000000  0  9  2 24  7 26 16  8  4  9  5           .000000006
 -18276227.714 9 -14215715.92747  22152359.056    22152358.4114   22152366.6854
 -13152367.605 9  -9923756.97947  22657115.166    22657114.9564   22657124.3714
 -15818425.849 9 -12307702.98948  21555423.125    21555422.4524   21555430.1944
   -569819.753 9   -419416.80946  24624948.438    24624948.5534   24624958.8844
  -2187692.900 8  -1320717.41654  25138138.134    25138137.4204           .0005
 -22531976.995 9 -17542906.02149  20594732.143    20594731.5844   20594738.8284
 -22907194.302 9 -17822715.66348  20649346.722    20649346.8454   20649353.7794
 -21804410.886 9 -16675416.48648  21604970.859    21604970.6504   21604977.8994
  -6934662.870 9  -5384728.82145  24074760.550    24074760.1114   24074770.0854
 00  1  6  0 10  0.0000000  0  9  2 24  7 26 16  8  4  9  5           .000000027
 -18229222.328 9 -14179088.36447  22161303.888    22161303.2494   22161311.5094
 -13252982.536 9 -10002158.21447  22637968.766    22637968.5614   22637977.9604
 -15764196.646 9 -12265446.47648  21565742.608    21565741.9274   21565749.6314
   -496145.532 9   -362008.41346  24638968.258    24638968.3274   24638978.6954
  -2243199.680 8  -1363969.37444  25127575.537    25127574.6934   25127586.4684
 -22465325.071 9 -17490969.46249  20607415.619    20607415.0534   20607422.3004
 -22954050.241 9 -17859226.74248  20640430.300    20640430.4274   20640437.3234
 -21851822.986 9 -16712360.93648  21595948.623    21595948.3964   21595955.6324
  -7018420.565 8  -5449994.45045  24058821.861    24058821.3064   24058831.2954
 00  1  6  0 10 30.0000000  0  9  2 24  7 26 16  8  4  9  5           .000000031
 -18181982.799 9 -14142278.34947  22170293.291    22170292.6564   22170300.9114
 -13353369.750 9 -10080381.99047  22618865.694    22618865.4754   22618874.9264
 -15709809.109 9 -12223066.58648  21576092.226    21576091.5334   21576099.2314
   -422462.672 9   -304593.30146  24652989.703    24652989.8204   24653000.1784
  -2298524.365 8  -1407079.34354  25117047.536    25117046.5304   25117057.4325
 -22398179.558 9 -17438648.29049  20620192.985    20620192.4084   20620199.6544
 -23000390.440 9 -17895335.94448  20631612.033    20631612.1624   20631619.0344
 -21898728.420 9 -16748910.58248  21587022.756    21587022.5354   21587029.7754
  -7102200.787 8  -5515277.60345  24042878.928    24042878.3724   24042888.2754
 00  1  6  0 11  0.0000000  0  9  2 24  7 26 16  8  4  9  5           .000000017
 -18134513.451 9 -14105289.26047  22179326.429    22179325.7924   22179334.0314
 -13453507.323 9 -10158411.24547  22599810.153    22599809.9274   22599819.3564
 -15655264.708 9 -12180564.46448  21586471.680    21586470.9974   21586478.6764
   -348762.385 9   -247164.60846  24667014.533    24667014.6814   24667024.9524
  -2353654.993 8  -1450038.21144  25106556.429    25106555.9614   25106565.5934
 -22330538.064 9 -17385940.63749  20633064.759    20633064.1674   20633071.3974
 -23046205.277 9 -17931035.77148  20622893.724    20622893.8584   20622900.7154
 -21945107.139 9 -16785049.79948  21578197.126    21578196.8954   21578204.1174
  -7185993.932 8  -5580570.79745  24026933.495    24026932.9814   24026942.8694
 00  1  6  0 11 30.0000000  0  9  2 24  7 26 16  8  4  9  5          -.000000006
 -18086803.068 9 -14068112.34347  22188405.393    22188404.7774   22188412.9934
 -13553399.716 9 -10236249.43147  22580801.211    22580800.9874   22580810.4164
 -15600561.886 9 -12137938.90248  21596881.296    21596880.6114   21596888.2674
   -275034.130 9   -189714.12846  24681044.674    24681044.7784   24681055.0934
  -2408595.617 8  -1492849.00944  25096101.488    25096100.7814   25096110.9194
 -22262396.562 9 -17332843.36948  20646031.631    20646031.0604   20646038.2924
 -23091466.144 9 -17966303.93549  20614280.825    20614280.9604   20614287.8044
 -21990954.940 9 -16820775.31948  21569472.591    21569472.3754   21569479.5684
  -7269779.915 8  -5645858.36845  24010989.434    24010988.9294   24010998.7674
 00  1  6  0 12  0.0000000  0  9  2 24  7 26 16  8  4  9  5          -.000000029
 -18038836.074 9 -14030735.47847  22197533.256    22197532.6284   22197540.8624
 -13653052.561 9 -10313900.94547  22561837.884    22561837.6454   22561847.0904
 -15545713.018 9 -12095199.53648  21607318.704    21607318.0354   21607325.6804
   -201271.917 9   -132237.19446  24695081.220    24695081.4014   24695091.7214
  -2463330.570 9  -1535499.41844  25085685.695    25085684.8624   25085694.8544
 -22193769.736 9 -17279367.92448  20659090.918    20659090.3394   20659097.5894
 -23136159.139 9 -18001129.60049  20605775.994    20605776.1184   20605782.9534
 -22036283.288 9 -16856096.07148  21560846.842    21560846.6174   21560853.7974
  -7353563.582 9  -5711144.15145  23995045.868    23995045.3464   23995055.1394
 00  1  6  0 12 30.0000000  0  9  2 24  7 26 16  8  4  9  5          -.000000049
 -17990590.454 9 -13993141.50247  22206714.127    22206713.4924   22206721.7224
 -13752460.010 9 -10391361.22347  22542921.226    22542921.0304   22542930.4064
 -15490731.164 9 -12052356.53948  21617781.422    21617780.7424   21617788.4134
   -127490.049 8    -74744.92545  24709121.529    24709121.7714   24709132.1114
  -2517839.179 9  -1577973.47545  25075312.982    25075312.1124   25075321.9874
 -22124672.922 9 -17225526.25548  20672239.599    20672238.9974   20672246.2544
 -23180265.480 9 -18035498.13549  20597382.786    20597382.9284   20597389.7424
 -22081102.732 9 -16891020.27148  21552317.938    21552317.7314   21552324.9014
  -7437368.938 9  -5776446.83245  23979098.160    23979097.6274   23979107.3284
 00  1  6  0 13  0.0000000  0  9  2 24  7 26 16  8  4  9  5          -.000000061
 -17942059.108 9 -13955324.87747  22215949.304    22215948.6594   22215956.9234
 -13851634.016 9 -10468639.58747  22524048.989    22524048.7954   22524058.1794
 -15435619.320 9 -12009412.25548  21628268.848    21628268.1814   21628275.8404
    -53688.749 8    -17237.53245  24723165.522    24723165.7484   24723176.0504
  -2572105.848 9  -1620259.12345  25064986.275    25064985.6724   25064995.6614
 -22055120.580 9 -17171329.63148  20685474.937    20685474.3544   20685481.6304
 -23223778.970 9 -18069404.70949  20589102.423    20589102.5614   20589109.3504
 -22125436.488 9 -16925566.01448  21543881.462    21543881.2514   21543888.4144
  -7521208.269 9  -5841775.99146  23963143.955    23963143.4314   23963153.0844
 00  1  6  0 13 30.0000000  0  9  2 24  7 26 16  8  4  9  5          -.000000064
 -17893248.117 9 -13917290.35147  22225237.692    22225237.0794   22225245.3464
 -13950578.174 9 -10545738.84247  22505220.516    22505220.2804   22505229.7304
 -15380383.315 9 -11966371.22548  21638779.911    21638779.2654   21638786.9104
     20119.866 8     40275.55445  24737210.932    24737211.0654   24737221.3164
  -2626128.822 9  -1662354.79245  25054705.900    25054705.2994   25054715.5934
 -21985106.813 9 -17116773.45548  20698798.160    20698797.5714   20698804.8374
 -23266706.790 9 -18102854.91849  20580933.505    20580933.6364   20580940.4034
 -22169294.442 9 -16959741.00648  21535535.565    21535535.3394   21535542.4834
  -7605067.279 9  -5907120.46046  23947185.934    23947185.4294   23947195.1134
 00  1  6  0 14  0.0000000  0  9  2 24  7 26 16  8  4  9  5          -.000000074
 -17844163.188 9 -13879042.36647  22234578.270    22234577.6224   22234585.9004
 -14049304.876 9 -10622668.63347  22486433.393    22486433.1474   22486442.5654
 -15325018.966 9 -11923230.18448  21649315.460    21649314.7814   21649322.4264
     93924.883 8     97785.84545  24751255.620    24751255.7924   24751266.2154
  -2679880.703 9  -1704239.23745  25044477.158    25044476.5804   25044486.8574
 -21914616.308 9 -17061845.79348  20712212.046    20712211.4444   20712218.7234
 -23309057.880 9 -18135855.72649  20572874.326    20572874.4654   20572881.2144
 -22212659.348 9 -16993531.79448  21527283.449    21527283.2224   21527290.3664
  -7688942.387 9  -5972477.48246  23931224.904    23931224.3694   23931234.0904
 00  1  6  0 14 30.0000000  0  9  2 24  7 26 16  8  4  9  5          -.000000087
 -17794810.383 9 -13840585.64547  22243969.814    22243969.1614   22243977.4264
 -14147805.537 9 -10699422.29147  22467689.260    22467689.0434   22467698.4114
 -15269510.705 9 -11879977.01048  21659878.388    21659877.6794   21659885.3094
    167737.541 8    155302.07345  24765301.661    24765302.0394   24765312.4454
  -2733349.430 9  -1745903.05345  25034302.242    25034301.5444   25034311.9744
 -21843631.939 9 -17006533.31048  20725719.888    20725719.3234   20725726.5944
 -23350826.029 9 -18168402.29949  20564926.081    20564926.2084   20564932.9364
 -22255507.833 9 -17026920.18848  21519129.630    21519129.4074   21519136.5244
  -7772803.235 9  -6037823.40646  23915266.614    23915266.0864   23915275.7804
 00  1  6  0 15  0.0000000  0  9  2 24  7 26 16  8  4  9  5          -.000000106
 -17745200.552 9 -13801928.64447  22253410.262    22253409.6054   22253417.8804
 -14246065.719 9 -10775988.55047  22448990.889    22448990.6774   22449000.0244
 -15213849.793 9 -11836604.87648  21670470.284    21670469.5964   21670477.2764
    241565.033 8    212829.86845  24779350.628    24779350.8324   24779361.3914
  -2786519.096 9  -1787333.82945  25024184.306    25024183.7094   25024194.0154
 -21772132.111 9 -16950819.16148  20739325.904    20739325.3444   20739332.6074
 -23392003.184 9 -18200488.35249  20557090.321    20557090.4434   20557097.1924
 -22297826.236 9 -17059895.52748  21511076.673    21511076.4424   21511083.6014
  -7856622.365 9  -6103136.83446  23899316.224    23899315.7584   23899325.3944
 00  1  6  0 15 30.0000000  0  9  2 24  7 26 16  8  4  9  5          -.000000124
 -17695310.341 9 -13763053.17747  22262904.097    22262903.4334   22262911.6884
 -14344063.443 9 -10852350.30447  22430342.533    22430342.2974   22430351.6024
 -15158039.107 9 -11793116.04148  21681090.619    21681089.9444   21681097.6444
    315396.602 8    270360.85145  24793400.416    24793400.5764   24793411.1724
  -2839387.708 9  -1828530.01145  25014123.649    25014122.9934   25014133.2924
 -21700108.150 9 -16894696.60448  20753031.616    20753031.0554   20753038.3194
 -23432598.735 9 -18232121.21549  20549365.200    20549365.3314   20549372.0744
 -22339604.648 9 -17092450.10648  21503126.452    21503126.2364   21503133.3884
  -7940405.362 9  -6168422.12146  23883372.719    23883372.2264   23883381.8314
 00  1  6  0 16  0.0000000  0  9  2 24  7 26 16  8  4  9  5          -.000000132
 -17645122.705 9 -13723945.94247  22272454.517    22272453.8614   22272462.0724
 -14441789.103 9 -10928500.05847  22411745.869    22411745.6514   22411754.9154
 -15102091.553 9 -11749520.54748  21691737.073    21691736.4034   21691744.0924
    389240.035 8    327901.05845  24807452.339    24807452.4994   24807463.2084
  -2891956.068 9  -1869492.25645  25004120.087    25004119.3984   25004129.8064
 -21627583.396 9 -16838183.81348  20766832.659    20766832.0814   20766839.3494
 -23472618.851 9 -18263305.67949  20541749.527    20541749.6734   20541756.4134
 -22380843.283 9 -17124584.07148  21495278.924    21495278.6984   21495285.8484
  -8024179.317 9  -6233700.37146  23867430.973    23867430.4724   23867440.0344
 00  1  6  0 16 30.0000000  0  9  2 24  7 26 16  8  4  9  5          -.000000125
 -17594641.968 9 -13684610.31847  22282060.718    22282060.0614   22282068.2714
 -14539228.307 9 -11004426.60547  22393203.792    22393203.5384   22393212.7424
 -15046031.847 9 -11705837.66448  21702404.875    21702404.1884   21702411.8724
    463086.142 8    385443.34645  24821504.920    24821505.0194   24821515.6594
  -2944264.199 9  -1910251.71945  24994165.998    24994165.4104   24994175.8624
 -21554590.567 9 -16781306.29348  20780722.712    20780722.1554   20780729.4154
 -23512072.446 9 -18294048.70749  20534241.768    20534241.9204   20534248.6324
 -22421578.931 9 -17156326.10648  21487527.123    21487526.8954   21487534.0734
  -8107968.883 9  -6298990.78646  23851486.270    23851485.7804   23851495.2314
 00  1  6  0 17  0.0000000  0  9  2 24  7 26 16  8  4  9  5          -.000000115
 -17543869.144 9 -13645047.09547  22291722.519    22291721.8424   22291730.0634
 -14636394.737 9 -11080140.59647  22374713.502    22374713.2794   22374722.4494
 -14989876.694 9 -11662080.40548  21713090.801    21713090.1404   21713097.8194
    536913.881 8    442971.35545  24835553.914    24835553.9144   24835564.7074
  -2996335.973 9  -1950827.02745  24984256.959    24984256.3304   24984266.8924
 -21481140.116 9 -16724072.18648  20794699.891    20794699.3294   20794706.5904
 -23550974.325 9 -18324361.82249  20526838.964    20526839.0854   20526845.7974
 -22461822.742 9 -17187684.88748  21479868.918    21479868.6864   21479875.8694
  -8191806.575 9  -6364318.73046  23835532.366    23835531.8454   23835541.2924
 00  1  6  0 17 30.0000000  0  9  2 24  7 26 16  8  4  9  5          -.000000100
 -17492793.248 9 -13605247.71547  22301441.993    22301441.2934   22301449.4774
 -14733309.443 9 -11155658.45647  22356271.146    22356270.9264   22356280.0374
 -14933639.789 9 -11618259.44348  21723792.387    21723791.7124   21723799.4104
    610719.642 8    500482.22245  24849598.715    24849598.2714   24849609.6394
  -3048195.584 8  -1991236.97945  24974388.369    24974387.7024   24974398.1904
 -21407253.369 9 -16666498.10948  20808760.051    20808759.4964   20808766.7524
 -23589337.245 9 -18354254.97049  20519538.689    20519538.8194   20519545.5254
 -22501574.770 9 -17218660.46248  21472304.341    21472304.1234   21472311.2724
  -8275708.349 9  -6429696.60546  23819566.299    23819565.7484   23819575.2484
 00  1  6  0 18  0.0000000  0  9  2 24  7 26 16  8  4  9  5          -.000000087
 -17441445.223 9 -13565236.28247  22311213.178    22311212.4594   22311220.6604
 -14829997.684 9 -11230999.84547  22337871.918    22337871.7134   22337880.8364
 -14877317.162 9 -11574371.67948  21734510.271    21734509.6024   21734517.2844
    684507.618 8    557979.23045  24863640.195    24863639.8604   24863650.9824
  -3099851.653 8  -2031488.30845  24964558.552    24964557.7374   24964568.3094
 -21332943.288 9 -16608594.15948  20822900.776    20822900.2164   20822907.4664
 -23627138.911 9 -18383710.77549  20512345.232    20512345.3594   20512352.0734
 -22540836.324 9 -17249253.85148  21464833.123    21464832.8954   21464840.0354
  -8359649.795 9  -6495105.39446  23803592.629    23803592.0464   23803601.5974
 00  1  6  0 18 30.0000000  0  9  2 24  7 26 16  8  4  9  5          -.000000083
 -17389838.430 9 -13525023.21147  22321033.618    22321032.9214   22321041.1704
 -14926463.507 9 -11306167.93147  22319514.967    22319514.7714   22319523.8724
 -14820882.580 9 -11530396.67748  21745249.422    21745248.7484   21745256.4634
    758271.143 8    615457.19145  24877677.115    24877676.7324   24877687.8524
  -3151285.254 8  -2071566.36145  24954771.034    24954770.2324   24954780.6294
 -21258188.837 9 -16550343.95248  20837126.078    20837125.5284   20837132.7834
 -23664363.264 9 -18412716.72849  20505261.600    20505261.7334   20505268.4574
 -22579592.353 9 -17279453.33048  21457458.127    21457457.8914   21457465.0064
  -8443603.519 9  -6560523.75846  23787616.604    23787616.0564   23787625.4754
 00  1  6  0 19  0.0000000  0  9  2 24  7 26 16  8  4  9  5          -.000000082
 -17337964.480 9 -13484601.97447  22330904.919    22330904.2064   22330912.4374
 -15022697.416 9 -11381155.29647  22301202.209    22301201.9994   22301211.1074
 -14764315.859 9 -11486318.71348  21756013.659    21756012.9864   21756020.7164
    832014.846 8    672919.68945  24891710.192    24891709.9474   24891720.9884
  -3202453.146 8  -2111437.30345  24945034.085    24945033.3534   24945043.5974
 -21182975.973 9 -16491736.53848  20851438.613    20851438.0604   20851445.3364
 -23701002.321 9 -18441266.60649  20498289.387    20498289.5294   20498296.2434
 -22617813.459 9 -17309235.98348  21450184.877    21450184.6564   21450191.7474
  -8527541.676 9  -6625929.98746  23771643.550    23771642.9944   23771652.4924
 00  1  6  0 19 30.0000000  0  9  2 24  7 26 16  8  4  9  5          -.000000074
 -17285828.937 9 -13443976.89247  22340825.954    22340825.3084   22340833.5384
 -15118680.073 9 -11455946.88847  22282937.254    22282937.0544   22282946.1154
 -14707601.853 9 -11442125.97148  21766805.909    21766805.2344   21766813.0104
    905738.477 8    730366.53645  24905739.428    24905739.2854   24905750.1954
  -3253337.765 8  -2151087.56245  24935350.945    24935350.2174   24935360.4654
 -21107320.723 9 -16432784.40548  20865835.339    20865834.7834   20865842.0634
 -23737049.327 9 -18469355.14449  20491429.865    20491429.9984   20491436.7214
 -22655505.054 9 -17338606.03048  21443012.408    21443012.1924   21443019.2644
  -8611445.668 9  -6691309.59546  23755677.033    23755676.4984   23755685.9484
 00  1  6  0 20  0.0000000  0  9  2 24  7 26 16  8  4  9  5          -.000000060
 -17233449.334 9 -13403161.64547  22350793.445    22350792.8184   22350801.0534
 -15214392.879 9 -11530528.21147  22264723.653    22264723.4334   22264732.4694
 -14650737.187 9 -11397815.83948  21777626.886    21777626.2334   21777634.0054
    979426.505 9    787785.65545  24919761.915    24919761.9074   24919772.5064
  -3303921.677 8  -2190503.48645  24925725.100    24925724.3604   24925734.3164
 -21031221.405 9 -16373486.25248  20880316.584    20880316.0284   20880323.3184
 -23772514.878 9 -18496990.60449  20484680.996    20484681.1204   20484687.8244
 -22692679.023 9 -17367572.73148  21435938.432    21435938.2194   21435945.2524
  -8695306.645 9  -6756655.68446  23739718.700    23739718.0954   23739727.6484
 00  1  6  0 20 30.0000000  0  9  2 24  7 26 16  8  4  9  5          -.000000044
 -17180813.472 9 -13362146.70547  22360809.734    22360809.1044   22360817.3584
 -15309819.953 9 -11604886.86747  22246564.396    22246564.2044   22246573.1814
 -14593739.663 9 -11353402.17648  21788473.195    21788472.5444   21788480.2994
   1053070.354 9    845170.34945  24933776.056    24933776.0254   24933786.7184
  -3354201.317 8  -2229682.31945  24916156.981    24916156.3844   24916166.3374
 -20954683.305 9 -16313846.18748  20894881.316    20894880.7654   20894888.0484
 -23807429.200 9 -18524196.53249  20478037.007    20478037.1304   20478043.8244
 -22729335.166 9 -17396135.93248  21428962.963    21428962.7284   21428969.7834
  -8779161.981 9  -6821997.36646  23723761.453    23723760.8824   23723770.3654
 00  1  6  0 21  0.0000000  0  9  2 24  7 26 16  8  4  9  5          -.000000027
 -17127921.155 9 -13320931.93847  22370874.782    22370874.1564   22370882.4044
 -15404962.916 9 -11679024.14447  22228459.174    22228458.9884   22228467.9964
 -14536626.503 9 -11308898.40448  21799341.535    21799340.8604   21799348.5904
   1126662.992 9    902515.12345  24947780.423    24947780.4514   24947791.1494
  -3404194.927 8  -2268638.26145  24906643.180    24906642.7014   24906652.7144
 -20877722.564 9 -16253876.79248  20909526.467    20909525.9164   20909533.1974
 -23841802.878 9 -18550981.17949  20471495.848    20471495.9884   20471502.6684
 -22765487.642 9 -17424306.66348  21422083.346    21422083.1014   21422090.1654
  -8863031.991 9  -6887350.48646  23707801.424    23707800.8514   23707810.2904
 00  1  6  0 21 30.0000000  0  9  2 24  7 26 16  8  4  9  5          -.000000024
 -17074772.997 9 -13279517.80947  22380988.568    22380987.9444   22380996.2054
 -15499832.867 9 -11752948.67747  22210405.944    22210405.7364   22210414.7034
 -14479410.287 9 -11264314.33448  21810229.417    21810228.7234   21810236.4704
   1200192.136 9    959810.42245  24961772.558    24961772.5454   24961783.5524
  -3453918.338 8  -2307383.65145  24897180.766    24897180.3514   24897190.4394
 -20800340.698 9 -16193579.24848  20924251.750    20924251.1824   20924258.4754
 -23875630.415 9 -18577340.26649  20465058.674    20465058.8054   20465065.4854
 -22801135.573 9 -17452084.24748  21415299.734    21415299.4974   21415306.5414
  -8946935.598 9  -6952729.78746  23691835.021    23691834.4254   23691843.8034
 00  1  6  0 22  0.0000000  0  9  2 24  7 26 16  8  4  9  5          -.000000041
 -17021350.292 9 -13237889.74247  22391154.551    22391153.9574   22391162.2264
 -15594436.213 9 -11826665.46447  22192403.474    22192403.2794   22192412.2344
 -14422106.318 9 -11219661.87948  21821134.031    21821133.3444   21821141.0844
   1273668.737 9   1017064.77245  24975754.757    24975754.7444   24975765.9154
  -3503356.201 8  -2345906.57945  24887772.866    24887772.4744   24887782.6424
 -20722503.590 9 -16132926.96848  20939063.719    20939063.1184   20939070.4334
 -23908894.264 9 -18603260.11749  20458728.735    20458728.8674   20458735.5344
 -22836257.399 9 -17479451.87448  21408616.276    21408616.0534   21408623.0534
  -9030877.094 9  -7018138.62846  23675861.353    23675860.7434   23675870.0834
 00  1  6  0 22 30.0000000  0  9  2 24  7 26 16  8  4  9  5           .000000037
 -16967665.552 9 -13196057.50547  22401370.444    22401369.8344   22401378.1064
 -15688805.773 9 -11900200.06847  22174445.489    22174445.2714   22174454.2094
 -14364741.701 9 -11174962.17048  21832050.140    21832049.4374   21832057.1644
   1347070.148 8   1074260.51345  24989722.735    24989722.6854   24989733.9744
  -3552542.831 7  -2384233.70645  24878413.036    24878412.5444   24878422.8324
 -20644230.503 9 -16071934.96648  20953958.593    20953958.0174   20953965.3184
 -23941590.644 9 -18628737.78649  20452506.823    20452506.9444   20452513.5984
 -22870867.020 9 -17506420.38748  21402030.301    21402030.0734   21402037.0424
  -9114883.922 9  -7083598.36746  23659875.273    23659874.6704   23659883.9734
 00  1  6  0 23  0.0000000  0  9  2 24  7 26 16  8  4  9  5          -.000000035
 -16913677.299 9 -13153988.76047  22411644.126    22411643.4924   22411651.7724
 -15782904.125 9 -11973523.35147  22156539.100    22156538.8574   22156547.7874
 -14307278.983 9 -11130186.01948  21842984.922    21842984.2374   21842991.9424
   1420424.087 8   1131419.28245  25003681.575    25003681.6114   25003692.8654
  -3601449.848 7  -2422342.93945  24869106.400    24869105.6564   24869116.6714
 -20565486.286 9 -16010575.85148  20968943.127    20968942.5734   20968949.8474
 -23973657.149 9 -18653724.64249  20446404.729    20446404.8684   20446411.5104
 -22904932.405 9 -17532964.81548  21395547.856    21395547.6114   21395554.5814
  -9198886.544 9  -7149054.82946  23643890.005    23643889.4164   23643898.6014
 00  1  6  0 23 30.0000000  0  9  2 24  7 26 16  8  4  9  5          -.000000092
 -16859350.108 9 -13111655.89847  22421982.242    22421981.6254   22421989.8834
 -15876686.140 9 -12046600.12947  22138692.876    22138692.6424   22138701.5474
 -14249687.950 9 -11085309.87748  21853944.127    21853943.4404   21853951.1594
   1493776.546 8   1188576.86445  25017640.161    25017640.1084   25017651.6104
  -3650029.170 7  -2460196.82845  24859862.250    24859861.3264   24859871.7764
 -20486230.453 9 -15948818.07148  20984025.047    20984024.4524   20984031.7404
 -24005048.505 9 -18678185.41649  20440431.138    20440431.2644   20440437.9044
 -22938417.212 9 -17559056.84348  21389175.865    21389175.6324   21389182.6014
  -9282835.326 9  -7214469.33646  23627915.031    23627914.4464   23627923.5794
 00  1  6  0 24  0.0000000  0  9  2 24  7 26 16  8  4  9  5          -.000000122
 -16804701.093 9 -13069072.27347  22432381.637    22432381.0364   22432389.2844
 -15970142.521 9 -12119423.15647  22120908.595    22120908.3744   22120917.3114
 -14191970.095 9 -11040334.91748  21864927.442    21864926.7864   21864934.4294
   1567135.549 8   1245739.56345  25031600.015    25031599.9944   25031611.4874
  -3698283.123 7  -2497797.14145  24850679.919    24850678.9534   24850689.2534
 -20406478.525 9 -15886673.72548  20999201.321    20999200.7564   20999208.0354
 -24035776.109 9 -18702128.98049  20434583.861    20434583.9824   20434590.5984
 -22971336.266 9 -17584708.02848  21382911.566    21382911.3284   21382918.2584
  -9366718.019 9  -7279832.35346  23611952.627    23611952.0664   23611961.1394
 00  1  6  0 24 30.0000000  0  9  2 24  7 26 16  8  4  9  5          -.000000122
 -16749748.675 9 -13026252.22847  22442838.757    22442838.1664   22442846.4244
 -16063269.599 9 -12191989.58247  22103187.051    22103186.8234   22103195.7164
 -14134124.241 9 -10995260.21548  21875935.147    21875934.4964   21875942.1244
   1640482.354 8   1302892.74045  25045557.568    25045557.6204   25045569.0664
  -3746225.444 8  -2535154.62645  24841556.539    24841555.7094   24841565.6904
 -20326277.761 9 -15824179.63848  21014463.034    21014462.4604   21014469.7704
 -24065859.614 9 -18725570.65049  20428859.146    20428859.2854   20428865.8754
 -23003704.807 9 -17609930.24048  21376752.008    21376751.7734   21376758.7254
  -9450543.431 9  -7345150.73246  23596001.117    23596000.5394   23596009.5904
 00  1  6  0 25  0.0000000  0  9  2 24  7 26 16  8  4  9  5          -.000000101
 -16694515.250 9 -12983213.21647  22453349.352    22453348.7304   22453356.9734
 -16156068.398 9 -12264300.19847  22085527.953    22085527.7184   22085536.5784
 -14076170.723 9 -10950101.62448  21886963.320    21886962.6614   21886970.3174
   1713811.819 8   1360032.39745  25059511.811    25059511.7314   25059523.3004
  -3793841.023 8  -2572257.55145  24832495.404    24832494.9414   24832504.8024
 -20245654.306 9 -15761356.18348  21029805.159    21029804.5894   21029811.9054
 -24095322.778 9 -18748528.94149  20423252.452    20423252.5864   20423259.1724
 -23035529.378 9 -17634728.58048  21370695.986    21370695.7454   21370702.6894
  -9534325.352 9  -7410435.22646  23580057.865    23580057.2664   23580066.2634
 00  1  6  0 25 30.0000000  0  9  2 24  7 26 16  8  4  9  5          -.000000081
 -16639018.929 9 -12939969.35147  22463909.947    22463909.2894   22463917.5994
 -16248543.529 9 -12336358.60447  22067930.456    22067930.2204   22067939.0364
 -14018110.632 9 -10904859.98948  21898011.833    21898011.1524   21898018.7914
   1787111.741 8   1417149.02945  25073460.442    25073460.4044   25073471.7834
  -3841119.135 8  -2609097.49645  24823498.461    24823498.1704   24823507.8614
 -20164610.314 9 -15698205.03448  21045227.307    21045226.7334   21045234.0724
 -24124183.927 9 -18771018.12949  20417760.334    20417760.4794   20417767.0674
 -23066795.912 9 -17659092.08748  21364746.082    21364745.8644   21364752.8064
  -9618084.008 9  -7475701.58846  23564119.033    23564118.4504   23564127.4724
 00  1  6  0 26  0.0000000  0  9  2 24  7 26 16  8  4  9  5          -.000000066
 -16583253.522 9 -12896515.80647  22474521.739    22474521.1124   22474529.4004
 -16340691.120 9 -12408161.78347  22050395.254    22050395.0294   22050403.8094
 -13959944.302 9 -10859535.57148  21909080.508    21909079.8204   21909087.4264
   1860363.265 8   1474227.96745  25087399.894    25087399.7354   25087411.2894
  -3888058.808 8  -2645673.74845  24814566.025    24814565.7844   24814575.6324
 -20083155.279 9 -15634733.59448  21060727.695    21060727.1324   21060734.4714
 -24152443.887 9 -18793038.86549  20412382.618    20412382.7524   20412389.3404
 -23097489.573 9 -17683009.20348  21358905.279    21358905.0584   21358911.9944
  -9701824.901 9  -7540954.11746  23548183.568    23548182.9824   23548191.9284
 00  1  6  0 26 30.0000000  0  9  2 24  7 26 16  8  4  9  5          -.000000065
 -16527207.982 9 -12852843.97547  22485186.873    22485186.2394   22485194.5864
 -16432511.902 9 -12479710.30747  22032922.213    22032922.0064   22032930.7514
 -13901669.530 9 -10814126.65248  21920169.790    21920169.1134   21920176.7674
   1933559.543 8   1531263.82245  25101328.550    25101328.4924   25101340.3954
  -3934654.457 8  -2681981.92145  24805699.034    24805698.6034   24805708.6324
 -20001283.315 9 -15570937.27548  21076307.424    21076306.8564   21076314.1974
 -24180093.231 9 -18814583.79949  20407121.137    20407121.2544   20407127.8324
 -23127595.356 9 -17706468.22948  21353176.386    21353176.1444   21353183.0584
  -9785551.931 9  -7606195.82646  23532250.742    23532250.1634   23532259.0574
 00  1  6  0 27  0.0000000  0  9  2 24  7 26 16  8  4  9  5          -.000000068
 -16470877.232 9 -12808949.89447  22495906.293    22495905.6684   22495913.9824
 -16524005.522 9 -12551003.89747  22015511.425    22015511.2094   22015519.9124
 -13843284.625 9 -10768631.91948  21931280.063    21931279.3914   21931287.0274
   2006700.568 8   1588256.60445  25115246.959    25115246.8174   25115258.8054
  -3980908.999 8  -2718024.30845  24796896.949    24796896.6264   24796906.6494
 -19918972.344 9 -15506798.86748  21091970.702    21091970.1334   21091977.4654
 -24207135.394 9 -18835655.60249  20401975.182    20401975.2974   20401981.8734
 -23157110.128 9 -17729466.72748  21347559.884    21347559.6424   21347566.5594
  -9869250.837 9  -7671415.63146  23516323.289    23516322.6994   23516331.5624
 00  1  6  0 27 30.0000000  0  9  2 24  7 26 16  8  4  9  5          -.000000062
 -16414254.438 9 -12764828.25247  22506681.240    22506680.6094   22506688.9644
 -16615175.932 9 -12622045.65047  21998162.096    21998161.9004   21998170.6054
 -13784783.335 9 -10723046.49448  21942412.486    21942411.8044   21942419.4764
   2079772.840 8   1645195.81445  25129152.368    25129152.3104   25129164.1864
  -4026844.337 8  -2753817.97645  24788155.771    24788155.3874   24788165.2074
 -19836229.250 9 -15442323.74348  21107716.226    21107715.6624   21107722.9574
 -24233586.266 9 -18856266.66149  20396941.712    20396941.8414   20396948.4074
 -23186050.556 9 -17752017.68548  21342052.650    21342052.4354   21342059.3774
  -9952921.276 9  -7736613.25546  23500401.240    23500400.6814   23500409.4764
 00  1  6  0 28  0.0000000  0  9  2 24  7 26 16  8  4  9  5          -.000000043
 -16357345.857 9 -12720483.91147  22517510.638    22517509.9924   22517518.3774
 -16706038.688 9 -12692847.67847  21980871.395    21980871.2004   21980879.8544
 -13726181.455 9 -10677382.68648  21953564.070    21953563.3744   21953571.0264
   2152770.416 8   1702076.84645  25143043.379    25143043.3734   25143055.3924
  -4072469.254 8  -2789369.80345  24779473.576    24779473.2084   24779482.8304
 -19753079.486 9 -15377531.73048  21123539.119    21123538.5484   21123545.8354
 -24259457.929 9 -18876426.38349  20392018.518    20392018.6494   20392025.2204
 -23214450.517 9 -17774147.50148  21336648.288    21336648.0864   21336655.0014
 -10036574.866 9  -7801797.75146  23484482.452    23484481.8824   23484490.6564
 00  1  6  0 28 30.0000000  0  9  2 24  7 26 16  8  4  9  5          -.000000013
 -16300158.935 9 -12675922.68047  22528392.984    22528392.3684   22528400.7084
 -16796606.859 9 -12763420.15747  21963636.756    21963636.5414   21963645.2004
 -13667478.924 9 -10631640.44748  21964734.777    21964734.0714   21964741.7344
   2225695.450 8   1758901.36145  25156920.745    25156920.7764   25156932.8214
  -4117789.439 8  -2824684.14645  24770849.379    24770849.1684   24770858.6164
 -19669531.613 9 -15312429.50448  21139437.796    21139437.2224   21139444.4744
 -24284761.588 9 -18896143.50549  20387203.364    20387203.4834   20387210.0404
 -23242337.838 9 -17795877.85048  21331341.501    21331341.2804   21331348.1964
 -10120220.572 9  -7866976.10746  23468565.101    23468564.5414   23468573.3074
 00  1  6  0 29  0.0000000  0  9  2 24  7 26 16  8  4  9  5           .000000026
 -16242699.692 9 -12631149.25947  22539327.141    22539326.5294   22539334.8734
 -16886886.911 9 -12833768.14647  21946456.996    21946456.7654   21946465.3914
 -13608691.654 9 -10585832.17948  21975921.628    21975920.9464   21975928.5764
   2298527.762 8   1815653.58645  25170780.571    25170780.5814   25170792.5814
  -4162803.860 8  -2859760.22245  24762283.400    24762283.0294   24762292.4994
 -19585611.163 9 -15247036.95648  21155407.323    21155406.7374   21155414.0004
 -24309506.933 9 -18915425.57749  20382494.516    20382494.6434   20382501.1734
 -23269731.141 9 -17817223.25848  21326128.702    21326128.4684   21326135.4064
 -10203875.548 9  -7932161.68646  23452645.933    23452645.3524   23452654.1954
 00  1  6  0 29 30.0000000  0  9  2 24  7 26 16  8  4  9  5           .000000059
 -16184974.783 9 -12586168.81947  22550311.808    22550311.2144   22550319.5574
 -16976876.391 9 -12903889.72047  21929332.498    21929332.2604   21929340.8364
 -13549820.558 9 -10539958.59448  21987124.408    21987123.7314   21987131.3364
   2371263.998 8   1872330.94945  25184622.028    25184622.0484   25184633.9784
  -4207504.332 8  -2894591.71245  24753777.100    24753776.7174   24753786.2274
 -19501325.573 9 -15181359.88348  21171446.316    21171445.7634   21171452.9984
 -24333686.927 9 -18934267.11249  20377893.218    20377893.3184   20377899.8784
 -23296633.593 9 -17838186.18648  21321009.300    21321009.0934   21321016.0054
 -10287551.387 9  -7997363.52646  23436722.828    23436722.3254   23436731.1084
 00  1  6  0 30  0.0000000  0  9  2 24  7 26 16  8  4  9  5           .000000068
 -16126989.261 9 -12540985.31047  22561346.099    22561345.4864   22561353.8854
 -17066565.975 9 -12973777.62447  21912265.071    21912264.8154   21912273.3474
 -13490861.289 9 -10494016.29848  21998343.995    21998343.2844   21998350.8874
   2443909.120 8   1928937.31745  25198445.999    25198445.9194   25198457.8194
  -4251881.385 8  -2929171.17145  24745332.430    24745331.7934   24745341.4374
 -19416653.692 9 -15115381.80748  21187558.842    21187558.2894   21187565.5404
 -24357280.477 9 -18952651.67449  20373403.503    20373403.6164   20373410.1674
 -23323020.830 9 -17858747.65048  21315987.986    21315987.7894   21315994.6934
 -10371248.057 9  -8062581.60446  23420795.792    23420795.2714   23420804.0824
 00  1  6  0 30 30.0000000  0  9  2 24  7 26 16  8  4  9  5           .000000058
 -16068728.594 9 -12495587.40347  22572432.756    22572432.1214   22572440.5454
 -17155938.157 9 -13043418.20947  21895258.022    21895257.7594   21895266.2874
 -13431797.901 9 -10447992.87348  22009583.398    22009582.7034   22009590.3374
   2516465.422 8   1985474.53145  25212253.193    25212253.0904   25212264.8734
  -4295933.430 9  -2963497.35445  24736949.568    24736948.9664   24736958.7094
 -19331583.284 9 -15049093.19548  21203747.238    21203746.6724   21203753.9524
 -24380272.170 9 -18970567.25449  20369028.301    20369028.4354   20369034.9774
 -23348861.843 9 -17878883.48148  21311070.618    21311070.4034   21311077.2904
 -10454949.163 9  -8127803.15246  23404867.898    23404867.3984   23404876.1384
 00  1  6  0 31  0.0000000  0  9  2 24  7 26 16  8  4  9  5           .000000030
 -16010184.979 9 -12449969.01447  22583573.237    22583572.6084   22583580.9864
 -17244976.305 9 -13112798.51247  21878314.545    21878314.2784   21878322.8024
 -13372630.440 9 -10401888.34648  22020842.563    22020841.8884   22020849.5624
   2588927.411 8   2041938.25245  25226042.523    25226042.4834   25226053.7714
  -4339650.902 8  -2997562.86245  24728630.439    24728629.9064   24728639.5014
 -19246106.299 9 -14982487.76648  21220012.978    21220012.4114   21220019.7254
 -24402661.985 9 -18988013.83349  20364767.649    20364767.7654   20364774.3164
 -23374119.569 9 -17898564.80948  21306264.208    21306263.9704   21306270.8594
 -10538645.071 9  -8193020.66046  23388941.034    23388940.5234   23388949.2174
 00  1  6  0 31 30.0000000  0  9  2 24  7 26 16  8  4  9  5          -.000000008
 -15951365.568 9 -12404135.71647  22594766.253    22594765.5994   22594773.9784
 -17333675.574 9 -13181914.77147  21861435.580    21861435.3434   21861443.8254
 -13313357.607 9 -10355701.72048  22032121.775    22032121.1204   22032128.7704
   2661306.475 8   2098337.33745  25239815.986    25239816.2794   25239827.1664
  -4383031.592 8  -3031365.93145  24720375.277    24720374.6914   24720384.2604
 -19160206.417 9 -14915552.80948  21236359.201    21236358.6354   21236365.9524
 -24424446.139 9 -19004988.46649  20360622.228    20360622.3644   20360628.8984
 -23398788.459 9 -17917787.30148  21301569.813    21301569.5804   21301576.4664
 -10622315.589 9  -8258218.38346  23373019.065    23373018.4764   23373027.1314
 00  1  6  0 32  0.0000000  0  9  2 24  7 26 16  8  4  9  5          -.000000050
 -15892262.031 9 -12358081.03047  22606013.257    22606012.5934   22606020.9834
 -17422028.743 9 -13250761.33547  21844622.464    21844622.2234   21844630.6844
 -13253988.483 9 -10309440.05448  22043419.383    22043418.7094   22043426.3154
   2733602.597 8   2154671.80545  25253573.570    25253573.6344   25253584.9254
  -4426070.468 9  -3064902.58445  24712185.264    24712184.6814   24712194.1124
 -19073900.316 9 -14848301.31648  21252782.721    21252782.1554   21252789.4844
 -24445610.933 9 -19021480.47849  20356594.679    20356594.8034   20356601.3224
 -23422863.964 9 -17936547.41448  21296988.378    21296988.1524   21296995.0244
 -10705943.890 9  -8323383.20046  23357105.061    23357104.4734   23357113.1084
 00  1  6  0 32 30.0000000  0  9  2 24  7 26 16  8  4  9  5          -.000000075
 -15832864.640 9 -12311797.36147  22617316.191    22617315.5584   22617323.9354
 -17510030.150 9 -13319333.81547  21827876.299    21827876.0864   21827884.5324
 -13194532.819 9 -10263110.96248  22054733.478    22054732.7864   22054740.4054
   2805813.228 9   2210939.65645  25267315.023    25267315.1714   25267326.5604
  -4468753.724 9  -3098162.19145  24704062.905    24704062.3834   24704071.5954
 -18987209.190 9 -14780749.80348  21269279.468    21269278.9154   21269286.2684
 -24466161.319 9 -19037493.73349  20352684.082    20352684.2104   20352690.7084
 -23446356.530 9 -17954853.29548  21292517.886    21292517.6474   21292524.5014
 -10789517.910 9  -8388505.73246  23341201.351    23341200.7634   23341209.4084
 00  1  6  0 33  0.0000000  0  9  2 24  7 26 16  8  4  9  5          -.000000084
 -15773195.993 9 -12265302.33247  22628670.809    22628670.1284   22628678.5294
 -17597679.266 9 -13387631.78347  21811197.160    21811196.9424   21811205.3424
 -13135012.188 9 -10216731.24048  22066059.878    22066059.1854   22066066.8154
   2877935.987 8   2267139.01545  25281039.704    25281039.9394   25281051.3154
  -4511078.218 8  -3131142.22245  24696008.708    24696008.3704   24696017.4004
 -18900137.275 9 -14712901.57048  21285848.729    21285848.1844   21285855.4984
 -24486107.749 9 -19053036.36949  20348888.356    20348888.4884   20348894.9884
 -23469291.157 9 -17972724.41348  21288153.556    21288153.3184   21288160.1854
 -10873036.186 9  -8453584.81746  23325308.244    23325307.6864   23325316.2644
 00  1  6  0 33 30.0000000  0  9  2 24  7 26 16  8  4  9  5          -.000000072
 -15713266.732 9 -12218604.22947  22640074.962    22640074.3234   22640082.7194
 -17684982.782 9 -13455660.45147  21794583.799    21794583.5744   21794591.9284
 -13075435.558 9 -10170307.87948  22077396.905    22077396.2264   22077403.8794
   2949967.405 8   2323267.19145  25294747.002    25294747.1224   25294758.5814
  -4553053.124 9  -3163849.83245  24688021.113    24688020.6994   24688029.7084
 -18812694.906 9 -14644764.67448  21302488.434    21302487.8854   21302495.2234
 -24505446.520 9 -19068105.50349  20345208.280    20345208.4154   20345214.9134
 -23491703.130 9 -17990188.26848  21283888.742    21283888.5014   21283895.3504
 -10956491.599 9  -8518614.92046  23309427.104    23309426.5704   23309435.1444
 00  1  6  0 34  0.0000000  0  9  2 24  7 26 16  8  4  9  5          -.000000035
 -15653066.227 9 -12171694.76747  22651530.707    22651530.0824   22651538.4964
 -17771947.065 9 -13523424.78648  21778035.040    21778034.7904   21778043.1494
 -13015805.334 9 -10123842.75748  22088744.164    22088743.4814   22088751.1004
   3021895.655 8   2379314.97245  25308434.580    25308434.6564   25308446.1874
  -4594697.822 9  -3196300.15445  24680096.327    24680095.8954   24680104.4094
 -18724894.496 9 -14576348.78748  21319196.326    21319195.7684   21319203.1104
 -24524191.938 9 -19082712.28849  20341641.118    20341641.2454   20341647.7434
 -23513598.681 9 -18007249.72048  21279722.164    21279721.9154   21279728.7314
 -11039897.304 9  -8583606.30546  23293555.493    23293554.9384   23293563.4544
 00  1  6  0 34 30.0000000  0  9  2 24  7 26 16  8  4  9  5           .000000022
 -15592607.351 9 -12124583.98147  22663035.650    22663035.0374   22663043.4284
 -17858593.927 9 -13590941.78248  21761546.663    21761546.4154   21761554.7744
 -12956124.702 9 -10077338.35748  22100101.013    22100100.3094   22100107.9374
   3093702.617 8   2435268.25245  25322099.040    25322099.0264   25322110.8484
  -4636022.907 9  -3228501.41045  24672232.312    24672231.8694   24672240.3064
 -18636735.620 9 -14507653.57648  21335972.418    21335971.8444   21335979.1854
 -24542382.882 9 -19096887.01649  20338179.462    20338179.5914   20338186.0634
 -23535001.332 9 -18023927.09248  21275649.362    21275649.1154   21275655.9324
 -11123281.117 9  -8648580.62646  23277688.036    23277687.4724   23277695.9154
 00  1  6  0 35  0.0000000  0  9  2 24  7 26 16  8  4  9  5           .000000082
 -15531900.522 9 -12077279.97947  22674587.819    22674587.1804   22674595.5384
 -17944938.806 9 -13658223.45848  21745115.728    21745115.5104   21745123.8254
 -12896397.803 9 -10030797.90748  22111466.585    22111465.9014   22111473.5514
   3165374.445 8   2491116.24245  25335737.918    25335738.0434   25335749.8134
  -4677041.830 8  -3260464.14845  24664426.591    24664426.1834   24664434.6764
 -18548224.751 9 -14438684.08948  21352815.457    21352814.8944   21352822.2514
 -24560021.614 9 -19110631.45349  20334822.916    20334823.0354   20334829.4944
 -23555925.378 9 -18040231.52548  21271667.608    21271667.3814   21271674.1904
 -11206664.189 9  -8713554.35846  23261820.744    23261820.1774   23261828.6074
 00  1  6  0 35 30.0000000  0  9  2 24  7 26 16  8  4  9  5           .000000135
 -15470922.868 9 -12029764.95247  22686191.486    22686190.8374   22686199.2294
 -18030993.887 9 -13725279.31848  21728739.958    21728739.7174   21728748.0124
 -12836613.990 9  -9984213.10248  22122842.998    22122842.3454   22122850.0094
   3236898.759 8   2546849.24645  25349348.722    25349348.8014   25349360.5444
  -4717749.809 8  -3292184.56745  24656680.027    24656679.4364   24656688.0794
 -18459369.102 9 -14369445.93048  21369724.057    21369723.5094   21369730.8894
 -24577094.931 9 -19123935.30849  20331573.968    20331574.0844   20331580.5304
 -23576365.362 9 -18056158.76748  21267777.970    21267777.7244   21267784.5494
 -11290064.959 9  -8778541.88446  23245950.028    23245949.4244   23245957.8594
 00  1  6  0 36  0.0000000  0  9  2 24  7 26 16  8  4  9  5           .000000162
 -15409664.171 9 -11982030.92747  22697848.601    22697847.9774   22697856.3874
 -18116748.861 9 -13792101.32548  21712421.276    21712421.0444   21712429.3114
 -12776757.354 9  -9937571.55247  22134233.348    22134232.6404   22134240.3144
   3308269.873 8   2602462.86245  25362930.180    25362930.3494   25362942.5404
  -4758121.251 8  -3323642.74645  24648997.531    24648996.9954   24649005.7924
 -18370158.313 9 -14299931.04748  21386700.297    21386699.7264   21386707.1324
 -24593590.507 9 -19136788.98249  20328434.917    20328435.0374   20328441.4654
 -23596292.073 9 -18071686.05448  21263986.042    21263985.7994   21263992.6294
 -11373500.323 9  -8843556.34946  23230072.729    23230072.1364   23230080.5494
 00  1  6  0 36 30.0000000  0  9  2 24  7 26 16  8  4  9  5           .000000155
 -15348125.638 9 -11934078.85547  22709559.036    22709558.4004   22709566.8274
 -18202180.875 9 -13858671.66648  21696164.091    21696163.8684   21696172.1404
 -12716807.952 9  -9890857.72147  22145641.317    22145640.6324   22145648.2674
   3379499.805 8   2657966.43045  25376484.975    25376484.9954   25376497.4214
  -4798107.602 8  -3354800.87845  24641388.241    24641387.6134   24641396.7664
 -18280568.058 9 -14230120.47348  21403748.771    21403748.2234   21403755.6204
 -24609480.418 9 -19149170.71149  20325411.127    20325411.2414   20325417.6694
 -23615671.896 9 -18086787.19848  21260298.145    21260297.9024   21260304.7564
 -11456957.556 9  -8908587.85446  23214191.293    23214190.7304   23214199.0464
 00  1  6  0 37  0.0000000  0  9  2 24  7 26 16  8  4  9  5           .000000116
 -15286281.433 9 -11885888.59147  22721327.631    22721326.9934   22721335.3964
 -18287250.575 9 -13924959.67848  21679975.836    21679975.5954   21679983.8524
 -12656756.996 9  -9844064.75347  22157068.679    22157067.9914   22157075.6204
   3450606.363 8   2713373.86245  25390016.259    25390016.3274   25390028.8034
  -4837695.711 8  -3385648.69445  24633854.783    24633854.0484   24633863.3754
 -18190579.610 9 -14159999.61848  21420873.043    21420872.4694   21420879.8654
 -24624714.488 9 -19161041.39449  20322512.147    20322512.2684   20322518.6944
 -23634452.341 9 -18101421.28848  21256724.336    21256724.1064   21256730.9744
 -11540402.558 9  -8973609.81846  23198312.186    23198311.6534   23198319.9054
 00  1  6  0 37 30.0000000  0  9  2 24  7 26 16  8  4  9  5           .000000062
 -15224119.757 9 -11837450.94447  22733156.612    22733156.0034   22733164.3654
 -18371934.941 9 -13990947.43048  21663860.904    21663860.6814   21663868.8864
 -12596594.459 9  -9797184.84747  22168517.258    22168516.5354   22168524.1864
   3521603.865 8   2768696.31145  25403526.619    25403526.9234   25403539.4034
  -4876869.646 8  -3416173.74245  24626400.020    24626399.4184   24626408.6344
 -18100174.859 9 -14089554.37948  21438076.509    21438075.9494   21438083.3714
 -24639286.362 9 -19172396.08949  20319739.203    20319739.3174   20319745.7404
 -23652598.466 9 -18115561.11148  21253271.199    21253270.9474   21253277.8214
 -11623806.212 9  -9038599.57646  23182440.965    23182440.3814   23182448.6234
 00  1  6  0 38  0.0000000  0  9  2 24  7 26 16  8  4  9  5           .000000008
 -15161660.984 9 -11788781.80547  22745042.161    22745041.5554   22745049.9044
 -18456214.870 9 -14056620.03348  21647822.869    21647822.6444   21647830.8624
 -12536320.408 9  -9750218.03947  22179987.000    22179986.2854   22179993.9244
   3592501.640 8   2823941.05945  25417018.403    25417018.6034   25417030.9164
  -4915624.350 8  -3446372.13345  24619025.085    24619024.6544   24619033.5734
 -18009353.498 9 -14018784.49748  21455359.300    21455358.7344   21455366.1084
 -24653217.363 9 -19183251.40249  20317088.234    20317088.3524   20317094.7514
 -23670097.465 9 -18129196.67648  21249941.154    21249940.9224   21249947.7824
 -11707145.610 9  -9103539.25046  23166581.939    23166581.3004   23166589.5584
 00  1  6  0 38 30.0000000  0  9  2 24  7 26 16  8  4  9  5          -.000000030
 -15098914.005 9 -11739888.08947  22756982.540    22756981.8894   22756990.2644
 -18540093.872 9 -14121980.22148  21631861.188    21631860.9544   21631869.1834
 -12475959.274 9  -9703183.37547  22191473.257    22191472.5434   22191480.2034
   3663299.925 8   2879108.22645  25430491.176    25430491.4874   25430503.8964
  -4953986.107 8  -3476264.32045  24611724.996    24611724.5784   24611733.5834
 -17918138.245 9 -13947707.69248  21472717.015    21472716.4484   21472723.8294
 -24666519.341 9 -19193616.57049  20314556.948    20314557.0554   20314563.4494
 -23686967.305 9 -18142341.98648  21246730.926    21246730.7044   21246737.5404
 -11790401.541 9  -9168413.87946  23150738.788    23150738.1284   23150746.4434
 00  1  6  0 39  0.0000000  0  9  2 24  7 26 16  8  4  9  5          -.000000045
 -15035879.278 9 -11690770.15247  22768977.664    22768976.9754   22768985.3464
 -18623584.333 9 -14187037.65248  21615973.458    21615973.2134   21615981.4224
 -12415531.125 9  -9656096.49247  22202972.309    22202971.6224   22202979.2534
   3733987.007 8   2934188.73845  25443942.567    25443942.7244   25443955.5214
  -4991978.965 8  -3505869.08445  24604495.234    24604494.6934   24604503.7734
 -17826559.377 9 -13876347.54748  21490143.948    21490143.3834   21490150.7284
 -24679204.001 9 -19203500.71249  20312143.081    20312143.1964   20312149.5894
 -23703241.995 9 -18155023.54548  21243633.960    21243633.7284   21243640.5694
 -11873574.721 9  -9233224.04346  23134911.342    23134910.7154   23134918.9634
 00  1  6  0 39 30.0000000  0  9  2 24  7 26 16  8  4  9  5          -.000000039
 -14972585.837 9 -11641450.62047  22781022.070    22781021.3174   22781029.7684
 -18706699.705 9 -14251802.80948  21600157.074    21600156.8234   21600165.0144
 -12355028.667 9  -9608951.70847  22214485.597    22214484.9024   22214492.5084
   3804554.280 8   2989175.85345  25457371.321    25457371.5874   25457384.3564
  -5029589.608 8  -3535175.97945  24597338.245    24597337.6774   24597346.6184
 -17734630.534 9 -13804714.69948  21507637.455    21507636.8934   21507644.2094
 -24691303.995 9 -19212929.26949  20309840.513    20309840.6604   20309847.0424
 -23718961.899 9 -18167272.80448  21240642.600    21240642.3594   21240649.1734
 -11956681.811 9  -9297982.70346  23119096.501    23119095.8734   23119104.1074
 00  1  6  0 40  0.0000000  0  9  2 24  7 26 16  8  4  9  5          -.000000034
 -14909047.617 9 -11591940.34847  22793113.018    22793112.2574   22793120.7184
 -18789444.271 9 -14316279.02548  21584411.258    21584411.0334   21584419.1864
 -12294464.622 9  -9561758.93647  22226010.581    22226009.8644   22226017.5014
   3874990.535 8   3044060.89945  25470775.166    25470775.3594   25470788.2534
  -5066831.795 8  -3564195.78345  24590251.101    24590250.5544   24590259.5594
 -17642375.536 9 -13732827.70048  21525192.976    21525192.4104   21525199.7524
 -24702813.791 9 -19221897.92949  20307650.250    20307650.3864   20307656.7674
 -23734149.839 9 -18179107.54348  21237752.434    21237752.1904   21237758.9944
 -12039747.324 9  -9362708.97746  23103289.607    23103289.0064   23103297.1584
 00  1  6  0 40 30.0000000  0  9  2 24  7 26 16  8  4  9  5          -.000000039
 -14845238.389 9 -11542218.90847  22805255.514    22805254.7604   22805263.3034
 -18871809.731 9 -14380459.83948  21568737.571    21568737.3444   21568745.4674
 -12233840.688 9  -9514519.49547  22237546.868    22237546.1874   22237553.8494
   3945297.669 8   3098845.32345  25484154.433    25484154.4974   25484167.6474
  -5103705.269 8  -3592928.25345  24583234.105    24583233.6624   24583242.6864
 -17549798.876 9 -13660690.05248  21542809.744    21542809.1844   21542816.5454
 -24713702.898 9 -19230382.93849  20305578.128    20305578.2514   20305584.6264
 -23748800.858 9 -18190523.90748  21234964.441    21234964.2004   21234971.0014
 -12122772.583 9  -9427403.88347  23087490.329    23087489.7334   23087497.8344
 00  1  6  0 41  0.0000000  0  9  2 24  7 26 16  8  4  9  5          -.000000061
 -14781157.858 9 -11492286.05447  22817449.678    22817448.9394   22817457.4384
 -18953775.960 9 -14444329.56648  21553139.887    21553139.6624   21553147.7684
 -12173130.847 9  -9467213.11647  22249099.535    22249098.8894   22249106.5314
   4015491.001 8   3153541.03545  25497512.107    25497512.3784   25497525.2734
  -5140179.645 8  -3621349.75645  24576293.184    24576292.8974   24576301.7204
 -17456884.324 9 -13588289.11648  21560490.794    21560490.2234   21560497.5814
 -24723956.306 9 -19238372.59349  20303626.963    20303627.0924   20303633.4584
 -23762893.302 9 -18201505.01448  21232282.733    21232282.4874   21232289.2604
 -12205756.219 9  -9492066.35046  23071698.933    23071698.3164   23071706.5204
 00  1  6  0 41 30.0000000  0  9  2 24  7 26 16  8  4  9  5          -.000000098
 -14716788.804 9 -11442128.36547  22829698.697    22829697.9794   22829706.4994
 -19035323.414 9 -14507872.98048  21537621.870    21537621.6454   21537629.7164
 -12112329.156 9  -9419835.16447  22260669.750    22260669.0694   22260676.6704
   4085581.061 8   3208156.28945  25510850.068    25510850.2854   25510863.2504
  -5176248.714 8  -3649455.40545  24569429.537    24569429.0084   24569437.9474
 -17363620.597 9 -13515616.09248  21578238.289    21578237.7074   21578245.1004
 -24733557.953 9 -19245854.37649  20301799.838    20301799.9764   20301806.3474
 -23776405.122 9 -18212033.68348  21229711.522    21229711.2774   21229718.0554
 -12288688.979 9  -9556689.18146  23055917.214    23055916.6224   23055924.8264
 00  1  6  0 42  0.0000000  0  9  2 24  7 26 16  8  4  9  5          -.000000136
 -14652099.320 9 -11391720.99847  22842008.694    22842008.0374   22842016.5434
 -19116449.688 9 -14571088.20648  21522184.007    21522183.8024   21522191.8494
 -12051438.492 9  -9372387.87947  22272256.879    22272256.1884   22272263.7534
   4155573.264 8   3262695.31945  25524169.261    25524169.5354   25524182.7184
  -5211914.313 8  -3677246.67245  24562642.569    24562642.0074   24562651.0804
 -17270003.148 9 -13442667.44948  21596053.088    21596052.5044   21596059.8974
 -24742489.264 9 -19252813.82049  20300100.255    20300100.3834   20300106.7754
 -23789311.121 9 -18222090.28548  21227255.549    21227255.3274   21227262.1034
 -12371551.468 9  -9621257.26947  23040148.932    23040148.3674   23040156.5754
 00  1  6  0 42 30.0000000  0  9  2 24  7 26 16  8  4  9  5          -.000000154
 -14587088.070 9 -11341062.90747  22854379.998    22854379.3034   22854387.8254
 -19197169.009 9 -14633986.33148  21506823.597    21506823.3764   21506831.4244
 -11990453.823 9  -9324867.35147  22283861.836    22283861.1644   22283868.7214
   4225465.079 8   3317156.07445  25537469.569    25537469.8774   25537482.9084
  -5247156.923 8  -3704708.38245  24555935.805    24555935.3804   24555944.6454
 -17176027.901 9 -13369439.99848  21613935.983    21613935.4044   21613942.7894
 -24750765.772 9 -19259263.02349  20298525.237    20298525.3634   20298531.7574
 -23801611.057 9 -18231674.63548  21224914.935    21224914.6974   21224921.4854
 -12454321.671 9  -9685753.45447  23024398.268    23024397.6924   23024405.8334
 00  1  6  0 43  0.0000000  0  9  2 24  7 26 16  8  4  9  5          -.000000156
 -14521771.034 9 -11290166.52547  22866809.421    22866808.7474   22866817.3114
 -19277495.953 9 -14696578.70848  21491537.842    21491537.6184   21491545.6494
 -11929381.833 9  -9277278.77447  22295483.480    22295482.7684   22295490.3074
   4295240.141 8   3371525.88045  25550747.661    25550747.8554   25550760.6874
  -5281968.717 8  -3731834.36945  24549311.133    24549310.9064   24549320.1624
 -17081701.771 9 -13295939.12948  21631885.673    21631885.1174   21631892.5144
 -24758411.221 9 -19265220.48949  20297070.354    20297070.4714   20297076.8824
 -23813317.742 9 -18240796.70948  21222687.189    21222686.9504   21222693.7214
 -12537010.593 9  -9750186.30847  23008662.995    23008662.4554   23008670.5484
 00  1  6  0 43 30.0000000  0  9  2 24  7 26 16  8  4  9  5          -.000000127
 -14456146.803 9 -11239030.79047  22879297.360    22879296.6724   22879305.2374
 -19357456.025 9 -14758885.21448  21476321.891    21476321.6524   21476329.6554
 -11868247.530 9  -9229641.65047  22307116.928    22307116.2154   22307123.7524
   4364873.589 8   3425785.31645  25563998.633    25563998.8614   25564011.7414
  -5316366.432 8  -3758637.70845  24542765.529    24542765.0674   24542774.3344
 -16987041.933 9 -13222178.22848  21649898.823    21649898.2574   21649905.6474
 -24765451.042 9 -19270706.03849  20295730.707    20295730.8384   20295737.2284
 -23824456.196 9 -18249476.00648  21220567.576    21220567.3274   21220574.1034
 -12619622.013 9  -9814558.78147  22992942.454    22992941.9384   22992950.0204
 00  1  6  0 44  0.0000000  0  9  2 24  7 26 16  8  4  9  5           .000000063
 -14390251.174 9 -11187683.56847  22891836.894    22891836.1814   22891844.7574
 -19437067.282 9 -14820919.91748  21461172.325    21461172.0704   21461180.1084
 -11807057.631 9  -9181961.19447  22318760.940    22318760.2744   22318767.8264
   4434350.418 8   3479922.71445  25577219.936    25577220.0494   25577233.2284
  -5350357.816 8  -3785124.41745  24536297.350    24536296.8454   24536305.9254
 -16892063.201 9 -13148168.84648  21667972.698    21667972.1454   21667979.5484
 -24771906.740 9 -19275736.42049  20294502.228    20294502.3394   20294508.7144
 -23835041.404 9 -18257724.20548  21218553.230    21218553.0014   21218559.7774
 -12702169.614 9  -9878881.52247  22977234.079    22977233.5924   22977241.6564
 00  1  6  0 44 30.0000000  0  9  2 24  7 26 16  8  4  9  5           .000000096
 -14324143.722 9 -11136171.27346  22904416.726    22904415.9834   22904424.5774
 -19516364.694 9 -14882710.07248  21446082.493    21446082.2464   21446090.2854
 -11745868.878 9  -9134281.62947  22330404.786    22330404.1034   22330411.6714
   4503616.823 8   3533896.12745  25590401.304    25590401.3634   25590414.7974
  -5383997.981 8  -3811337.45445  24529895.666    24529895.0874   24529904.2724
 -16796821.636 9 -13073954.65048  21686096.615    21686096.0384   21686103.4264
 -24777828.920 9 -19280351.07149  20293375.257    20293375.3794   20293381.7324
 -23845132.110 9 -18265587.07248  21216632.981    21216632.7614   21216639.5324
 -12784714.566 9  -9943202.20047  22961526.246    22961525.7274   22961533.8054
 00  1  6  0 45  0.0000000  0  9  2 24  7 26 16  8  4  9  5           .000000123
 -14257761.911 9 -11084445.21346  22917048.704    22917048.0184   22917056.6114
 -19595265.995 9 -14944191.56648  21431068.045    21431067.8014   21431075.8464
 -11684617.518 9  -9086553.28847  22342060.553    22342059.8844   22342067.4144
   4572716.270 8   3587739.45445  25603550.751    25603550.7504   25603564.4354
  -5417251.350 8  -3837249.11545  24523567.421    24523567.0884   24523576.3954
 -16701259.545 9 -12999490.70248  21704281.523    21704280.9494   21704288.3644
 -24783155.380 9 -19284501.52149  20292361.634    20292361.7604   20292368.1174
 -23854671.217 9 -18273020.12648  21214817.778    21214817.5574   21214824.3294
 -12867213.092 9 -10007486.72547  22945827.291    22945826.8044   22945834.8124
 00  1  6  0 45 30.0000000  0  9  2 24  7 26 16  8  4  9  5           .000000135
 -14191110.553 9 -11032509.10246  22929732.004    22929731.3074   22929739.9034
 -19673766.512 9 -15005360.76048  21416129.838    21416129.6024   21416137.6424
 -11623299.983 9  -9038773.37147  22353728.867    22353728.1564   22353735.6814
   4641645.887 8   3641450.44745  25616667.950    25616667.9184   25616681.4874
  -5450129.283 8  -3862868.20845  24517310.981    24517310.5994   24517319.9094
 -16605364.044 9 -12924766.95348  21722529.830    21722529.2564   21722536.6794
 -24787874.289 9 -19288178.55249  20291463.633    20291463.7624   20291470.1244
 -23863666.269 9 -18280029.24048  21213106.099    21213105.8524   21213112.6224
 -12949666.908 9 -10071736.40247  22930136.849    22930136.3174   22930144.2894
 00  1  6  0 46  0.0000000  0  9  2 24  7 26 16  8  4  9  5           .000000126
 -14124189.209 9 -10980362.61346  22942466.718    22942466.0214   22942474.6954
 -19751852.442 9 -15066206.89848  21401270.540    21401270.3094   21401278.3284
 -11561898.930 9  -8990928.38747  22365413.011    22365412.3284   22365419.9024
   4710402.101 8   3695026.34845  25629752.194    25629752.3814   25629765.8944
  -5482618.960 8  -3888184.72545  24511128.555    24511127.9994   24511137.3054
 -16509131.362 9 -12849780.47348  21740842.278    21740841.6984   21740849.1264
 -24791969.280 9 -19291369.41849  20290684.359    20290684.4824   20290690.8464
 -23872095.874 9 -18286597.74548  21211501.998    21211501.7534   21211508.5074
 -13032080.645 9 -10135954.84447  22914453.922    22914453.3744   22914461.3554
 00  1  6  0 46 30.0000000  0  9  2 24  7 26 16  8  4  9  5           .000000105
 -14056971.076 9 -10927984.85646  22955257.931    22955257.1864   22955265.8374
 -19829510.912 9 -15126719.95748  21386492.599    21386492.3794   21386500.3884
 -11500405.827 9  -8943011.67247  22377114.737    22377114.0664   22377121.6124
   4778976.370 8   3748460.44445  25642801.717    25642801.7564   25642815.4924
  -5514706.627 8  -3913188.02445  24505022.398    24505021.8074   24505031.1034
 -16412559.928 9 -12774530.01948  21759219.234    21759218.6464   21759226.0894
 -24795436.651 9 -19294071.22749  20290024.535    20290024.6484   20290031.0024
 -23879952.065 9 -18292719.43948  21210006.990    21210006.7584   21210013.5234
 -13114444.306 9 -10200134.27247  22898780.582    22898780.0444   22898787.9834
 00  1  6  0 47  0.0000000  0  9  2 24  7 26 16  8  4  9  5           .000000077
 -13989469.280 9 -10875386.06846  22968103.072    22968102.4134   22968111.0224
 -19906752.249 9 -15186907.96848  21371793.999    21371793.7854   21371801.7614
 -11438816.576 9  -8895020.04047  22388834.826    22388834.1534   22388841.7074
   4847367.077 8   3801751.50245  25655816.355    25655816.3474   25655830.1054
  -5546388.635 8  -3937875.23745  24498993.253    24498992.7414   24499002.1894
 -16315651.008 9 -12699016.59148  21777660.432    21777659.8204   21777667.2674
 -24798287.433 9 -19296292.57449  20289482.051    20289482.1544   20289488.4814
 -23887229.828 9 -18298390.40548  21208622.107    21208621.8674   21208628.6394
 -13196752.009 9 -10264270.09247  22883117.988    22883117.4084   22883125.3134
 00  1  6  0 47 30.0000000  0  9  2 24  7 26 16  8  4  9  5           .000000055
 -13921689.038 9 -10822570.28746  22981001.281    22981000.6254   22981009.1054
 -19983592.466 9 -15246783.42148  21357171.795    21357171.5684   21357179.5254
 -11377151.281 9  -8846969.14347  22400569.344    22400568.6894   22400576.2604
   4915589.168 8   3854911.21845  25668798.874    25668798.7004   25668812.7394
  -5577641.346 8  -3962227.91145  24493045.872    24493045.4974   24493054.8354
 -16218418.564 9 -12623251.06948  21796163.159    21796162.5514   21796170.0144
 -24800529.348 9 -19298039.48149  20289055.377    20289055.4994   20289061.8034
 -23893910.457 9 -18303596.07448  21207350.804    21207350.5674   21207357.3454
 -13278995.518 9 -10328355.90547  22867467.585    22867467.0024   22867474.8714
 00  1  6  0 48  0.0000000  0  9  2 24  7 26 16  8  4  9  5           .000000044
 -13853630.374 9 -10769537.57246  22993952.410    22993951.7984   22993960.2614
 -20060041.650 9 -15306354.17248  21342623.965    21342623.7494   21342631.6814
 -11315423.239 9  -8798869.36547  22412315.764    22412315.1074   22412322.7084
   4983645.391 8   3907941.63045  25681749.779    25681750.0744   25681763.8234
  -5608466.860 8  -3986247.72845  24487180.003    24487179.5884   24487188.8534
 -16120897.100 9 -12547260.34148  21814720.835    21814720.2434   21814727.7214
 -24802186.608 9 -19299330.81649  20288739.974    20288740.0984   20288746.3974
 -23899986.947 9 -18308330.99248  21206194.456    21206194.2274   21206201.0104
 -13361168.409 9 -10392386.67447  22851830.575    22851829.9484   22851837.8804
 00  1  6  0 48 30.0000000  0  9  2 24  7 26 16  8  4  9  5           .000000047
 -13785300.354 9 -10716293.40846  23006955.198    23006954.6074   23006962.9944
 -20136103.433 9 -15365623.04548  21328149.877    21328149.6494   21328157.5784
 -11253658.885 9  -8750741.27947  22424069.160    22424068.4904   22424076.0754
   5051534.317 8   3960841.62545  25694668.979    25694669.2904   25694683.5204
  -5638876.056 8  -4009943.12845  24481393.240    24481392.8154   24481402.2464
 -16023101.586 9 -12471056.06848  21833330.744    21833330.1504   21833337.6334
 -24803278.383 9 -19300181.51149  20288532.170    20288532.3014   20288538.5914
 -23905475.087 9 -18312607.44948  21205150.109    21205149.8804   21205156.6684
 -13443275.758 9 -10456366.37047  22836205.998    22836205.3844   22836213.2854
 00  1  6  0 49  0.0000000  0  9  2 24  7 26 16  8  4  9  5           .000000057
 -13716723.797 9 -10662857.13846  23020004.881    23020004.3024   23020012.6584
 -20211789.010 9 -15424598.76848  21313747.352    21313747.1204   21313755.0434
 -11191877.458 9  -8702599.88847  22435825.747    22435825.0824   22435832.6654
   5119258.168 8   4013613.04044  25707556.557    25707556.7294   25707570.7444
  -5668868.619 8  -4033313.87045  24475685.671    24475685.2264   24475694.8174
 -15925035.321 9 -12394640.81848  21851992.178    21851991.5814   21851999.0554
 -24803809.734 9 -19300595.51449  20288431.000    20288431.1414   20288437.4354
 -23910379.203 9 -18316428.82448  21204216.860    21204216.6264   21204223.4094
 -13525330.626 9 -10520305.17247  22820591.374    22820590.7844   22820598.6394
 00  1  6  0 49 30.0000000  0  9  2 24  7 26 16  8  4  9  5           .000000076
 -13647887.304 9 -10609218.32246  23033104.050    23033103.5044   23033111.8854
 -20287089.301 9 -15483274.26848  21299418.165    21299417.9204   21299425.8354
 -11130082.377 9  -8654447.87247  22447584.928    22447584.2614   22447591.8664
   5186819.496 8   4066257.81144  25720413.411    25720413.3574   25720427.5494
  -5698435.533 8  -4056352.95645  24470059.272    24470058.8514   24470068.2724
 -15826703.375 9 -12318018.54348  21870704.156    21870703.5574   21870711.0364
 -24803771.705 9 -19300565.84749  20288438.207    20288438.3464   20288444.6254
 -23914713.295 9 -18319806.02948  21203392.112    21203391.8874   21203398.6614
 -13607331.493 9 -10584201.89947  22804987.122    22804986.5464   22804994.3084
 00  1  6  0 50  0.0000000  0  9  2 24  7 26 16  8  4  9  5           .000000088
 -13578789.472 9 -10555375.86446  23046252.956    23046252.3814   23046260.7554
 -20361989.694 9 -15541638.15748  21285165.036    21285164.7974   21285172.7084
 -11068261.561 9  -8606275.79347  22459349.052    22459348.3774   22459355.9544
   5254202.881 8   4118763.82544  25733236.413    25733236.3114   25733250.5144
  -5727586.395 8  -4079067.85745  24464512.137    24464511.5614   24464520.9224
 -15728104.648 9 -12241188.39147  21889466.850    21889466.2384   21889473.7514
 -24803157.862 9 -19300087.49749  20288555.025    20288555.1554   20288561.4264
 -23918507.861 9 -18322762.82348  21202669.997    21202669.7774   21202676.5494
 -13689292.236 9 -10648067.35047  22789390.486    22789389.9244   22789397.6194
 00  1  6  0 50 30.0000000  0  9  2 24  7 26 16  8  4  9  5           .000000095
 -13509428.774 9 -10501328.56746  23059451.882    23059451.2344   23059459.6764
 -20436468.182 9 -15599673.28848  21270992.235    21270991.9894   21270999.9114
 -11006409.182 9  -8558079.11047  22471119.166    22471118.5284   22471126.0544
   5321400.344 8   4171124.98444  25746023.739    25746024.0974   25746038.1154
  -5756313.427 8  -4101452.48845  24459045.503    24459044.9354   24459054.2444
 -15629210.917 9 -12164128.36347  21908285.718    21908285.1304   21908292.6224
 -24801947.924 9 -19299144.66249  20288785.241    20288785.3564   20288791.6124
 -23921768.966 9 -18325303.92948  21202049.447    21202049.2074   21202055.9824
 -13771212.857 9 -10711901.53747  22773801.476    22773800.9164   22773808.6414
 00  1  6  0 51  0.0000000  0  9  2 24  7 26 16  8  4  9  5           .000000095
 -13439799.944 9 -10447072.35446  23072701.792    23072701.1124   23072709.5844
 -20510511.620 9 -15657369.42048  21256902.211    21256901.9834   21256909.8644
 -10944509.356 9  -8509845.46747  22482898.304    22482897.6544   22482905.1764
   5388417.556 7   4223345.68944  25758777.153    25758777.8574   25758791.8974
  -5784610.176 8  -4123501.83345  24453660.661    24453660.1734   24453669.5124
 -15530022.992 9 -12086839.09747  21927160.549    21927159.9834   21927167.4524
 -24800128.680 9 -19297727.04349  20289131.420    20289131.5274   20289137.7684
 -23924499.321 9 -18327431.46948  21201529.868    21201529.6564   21201536.4164
 -13853075.787 9 -10775690.75647  22758223.418    22758222.8114   22758230.6354
 00  1  6  0 51 30.0000000  0  9  2 24  7 26 16  8  4  9  5           .000000088
 -13369881.966 9 -10392590.80946  23086006.807    23086006.1104   23086014.5794
 -20584113.856 9 -15714721.75748  21242896.122    21242895.8794   21242903.7554
 -10882554.985 9  -8461569.31847  22494687.804    22494687.1624   22494694.6784
   5455244.980 7   4275418.45844  25771494.702    25771495.5924   25771509.1314
  -5812480.419 8  -4145218.84145  24448357.166    24448356.6454   24448366.0084
 -15430548.618 9 -12009326.61747  21946089.912    21946089.3484   21946096.7864
 -24797691.406 9 -19295827.84649  20289595.194    20289595.2864   20289601.5344
 -23926696.775 9 -18329143.76048  21201111.723    21201111.4964   21201118.2314
 -13934872.889 9 -10839428.68647  22742657.862    22742657.2664   22742665.1424
 00  1  6  0 52  0.0000000  0  9  2 24  7 26 16  8  4  9  5           .000000073
 -13299677.779 9 -10337886.26446  23099366.246    23099365.5424   23099374.0254
 -20657262.209 9 -15771720.42548  21228976.454    21228976.1964   21228984.0504
 -10820546.277 9  -8413250.82347  22506487.651    22506486.9934   22506494.5044
   5521874.050 7   4327336.63044  25784173.976    25784174.4974   25784188.6884
  -5839918.226 8  -4166598.89045  24443136.039    24443135.4094   24443144.7634
 -15330782.327 9 -11931586.67547  21965074.888    21965074.3164   21965081.7204
 -24794629.772 9 -19293442.14049  20290177.751    20290177.8624   20290184.1094
 -23928336.863 9 -18330421.74548  21200799.615    21200799.3924   21200806.1044
 -14016601.230 9 -10903113.04547  22727105.435    22727104.8834   22727112.6734
 00  1  6  0 52 30.0000000  0  9  2 24  7 26 16  8  4  9  5           .000000058
 -13229191.675 9 -10282962.03046  23112779.366    23112778.6774   23112787.1034
 -20729962.330 9 -15828369.81948  21215142.028    21215141.7734   21215149.5924
 -10758482.886 9  -8364889.71547  22518297.900    22518297.2374   22518304.7504
   5588317.151 7   4379109.96944  25796817.764    25796818.8184   25796832.9664
  -5866907.917 8  -4187629.74645  24438000.058    24437999.4954   24438008.6894
 -15230728.251 9 -11853622.48047  21984114.587    21984114.0144   21984121.4004
 -24790937.587 9 -19290565.09849  20290880.363    20290880.4764   20290886.7174
 -23929393.689 9 -18331245.24248  21200598.486    21200598.2414   21200604.9674
 -14098236.813 9 -10966725.11847  22711570.681    22711570.0974   22711577.8204
 00  1  6  0 53  0.0000000  0  9  2 24  7 26 16  8  4  9  5           .000000038
 -13158421.137 9 -10227816.17046  23126246.500    23126245.8034   23126254.3394
 -20802215.964 9 -15884671.30548  21201392.585    21201392.3424   21201400.1624
 -10696348.209 9  -8316473.06547  22530121.767    22530121.1224   22530128.5874
   5654580.680 7   4430743.21344  25809428.047    25809429.3034   25809442.9714
  -5893444.283 8  -4208307.36645  24432950.400    24432949.8114   24432958.8944
 -15130401.068 9 -11775445.47647  22003206.240    22003205.6584   22003213.0434
 -24786609.280 9 -19287192.37449  20291704.011    20291704.1354   20291710.3904
 -23929842.780 9 -18331595.17748  21200512.937    21200512.7114   21200519.4504
 -14179778.785 9 -11030264.24847  22696053.721    22696053.1294   22696060.8664
 00  1  6  0 53 30.0000000  0  9  2 24  7 26 16  8  4  9  5           .000000015
 -13087358.049 9 -10172442.34846  23139769.393    23139768.6824   23139777.2444
 -20874023.602 9 -15940625.26148  21187727.976    21187727.7514   21187735.5744
 -10634130.513 9  -8267991.71547  22541961.420    22541960.7654   22541968.2544
   5720663.74417   4482235.70154  25822003.885    25822004.7945           .0005
  -5919518.128 8  -4228624.59545  24427988.715    24427988.1254   24427997.0704
 -15029789.775 9 -11697047.09347  22022351.971    22022351.3934   22022358.7484
 -24781645.959 9 -19283324.83949  20292648.506    20292648.6224   20292654.8764
 -23929664.258 9 -18331456.06048  21200546.904    21200546.6774   21200553.4194
 -14261232.330 9 -11093734.47447  22680553.571    22680552.9904   22680560.7244
 00  1  6  0 54  0.0000000  0  8  2 24  7 16  8  4  9  5              .000000001
 -13016012.275 9 -10116848.23546  23153346.012    23153345.3234   23153353.9324
 -20945395.049 9 -15996239.32948  21174146.383    21174146.1544   21174153.9954
 -10571828.106 9  -8219444.36747  22553817.218    22553816.5484   22553823.9554
  -5945127.621 8  -4248579.96745  24423115.434    24423114.8604   24423123.7744
 -14928893.092 9 -11618426.32847  22041552.042    22041551.4414   22041558.8344
 -24776064.049 9 -19278975.28449  20293710.689    20293710.8164   20293717.0484
 -23928866.929 9 -18330834.76048  21200698.643    21200698.4024   21200705.1404
 -14342585.886 9 -11157126.79247  22665072.451    22665071.8674   22665079.6284
 00  1  6  0 54 30.0000000  0  8  2 24  7 16  8  4  9  5             -.000000008
 -12944389.061 9 -10061037.94746  23166975.438    23166974.7874   23166983.4214
 -21016351.918 9 -16051530.35748  21160643.701    21160643.4814   21160651.3244
 -10509437.839 9  -8170828.55047  22565689.652    22565688.9894   22565696.4494
  -5970285.774 9  -4268183.65146  24418327.980    24418327.3844   24418336.2394
 -14827723.382 9 -11539592.81047  22060804.006    22060803.4334   22060810.8164
 -24769874.813 9 -19274152.48949  20294888.434    20294888.5514   20294894.7684
 -23927473.741 9 -18329749.15548  21200963.796    21200963.5484   21200970.2844
 -14423838.638 9 -11220440.55847  22649610.532    22649609.9714   22649617.6934
 00  1  6  0 55  0.0000000  0  8  2 24  7 16  8  4  9  5             -.000000010
 -12872483.029 9 -10005007.28646  23180658.682    23180658.0544   23180666.7044
 -21086895.315 9 -16106499.19648  21147219.704    21147219.4954   21147227.3244
 -10446974.424 9  -8122155.74247  22577575.956    22577575.3204   22577582.8084
  -5995005.039 9  -4287445.34946  24413624.053    24413623.4004   24413632.2784
 -14726277.990 9 -11460544.47947  22080108.357    22080107.8004   22080115.2204
 -24763092.782 9 -19268867.77549  20296178.980    20296179.1084   20296185.3144
 -23925507.885 9 -18328217.31548  21201337.866    21201337.6294   21201344.3304
 -14505000.754 9 -11283683.70247  22634165.877    22634165.3134   22634172.9694
 00  1  6  0 55 30.0000000  0  8  2 24  7 16  8  4  9  5              .000000000
 -12800305.912 9  -9948765.37846  23194393.543    23194392.8764   23194401.5214
 -21157036.856 9 -16161154.90948  21133872.200    21133871.9954   21133879.7994
 -10384467.718 9  -8073449.19747  22589470.549    22589469.9364   22589477.4104
  -6019293.796 9  -4306371.57146  24409001.981    24409001.3804   24409010.2364
 -14624568.629 9 -11381290.46647  22099462.988    22099462.4414   22099469.9214
 -24755736.037 9 -19263135.23449  20297578.928    20297579.0484   20297585.2584
 -23923007.251 9 -18326268.76948  21201813.772    21201813.5204   21201820.2324
 -14586064.738 9 -11346850.38747  22618739.883    22618739.3034   22618746.9414
 00  1  6  0 56  0.0000000  0  8  2 24  7 16  8  4  9  5              .000000004
 -12727874.786 9  -9892325.53946  23208176.748    23208176.0644   23208184.7344
 -21226770.477 9 -16215492.75848  21120602.287    21120602.0714   21120609.8534
 -10321937.841 9  -8024724.58847  22601369.568    22601368.9484   22601376.4564
  -6043163.110 9  -4324970.96946  24404459.808    24404459.1554   24404468.0264
 -14522610.281 9 -11301842.42947  22118864.979    22118864.4494   22118871.9754
 -24747792.609 9 -19256945.53249  20299090.496    20299090.6224   20299096.8244
 -23919991.328 9 -18323918.69448  21202387.679    21202387.4534   21202394.1444
 -14667036.603 9 -11409945.28447  22603331.366    22603330.7804   22603338.4194
 00  1  6  0 56 30.0000000  0  8  2 24  7 16  8  4  9  5             -.000000014
 -12655183.203 9  -9835682.74546  23222009.488    23222008.8284   23222017.4204
 -21296060.474 9 -16269484.93048  21107416.806    21107416.6004   21107424.3774
 -10259378.658 9  -7975977.14847  22613274.187    22613273.5364   22613281.0294
  -6066608.491 9  -4343240.03546  24399998.345    24399997.6434   24400006.4964
 -14420399.156 9 -11222197.42847  22138315.101    22138314.5744   22138322.1474
 -24739228.527 9 -19250272.20749  20300720.182    20300720.3044   20300726.5044
 -23916442.094 9 -18321153.05448  21203063.078    21203062.8354   21203069.5324
 -14747921.524 9 -11472972.43947  22587939.409    22587938.8654   22587946.4584
 00  1  6  0 57  0.0000000  0  8  2 24  7 16  8  4  9  5             -.000000042
 -12582207.623 9  -9778818.65946  23235896.318    23235895.6144   23235904.2044
 -21364876.143 9 -16323107.49048  21094321.609    21094321.3854   21094329.1684
 -10196781.483 9  -7927200.10647  22625186.053    22625185.3904   22625192.8234
  -6089604.508 9  -4361158.94346  24395622.184    24395621.6124   24395630.3484
 -14317918.790 9 -11142342.63047  22157816.540    22157815.9934   22157823.5794
 -24730023.616 9 -19243099.53149  20302471.813    20302471.9514   20302478.1394
 -23912330.460 9 -18317949.18148  21203845.488    21203845.2534   21203851.9564
 -14828700.840 9 -11535917.31747  22572567.574    22572567.0174   22572574.5814
 00  1  6  0 57 30.0000000  0  8  2 24  7 16  8  4  9  5             -.000000076
 -12508944.555 9  -9721730.55046  23249837.784    23249837.1234   23249845.7284
 -21433200.831 9 -16376347.47348  21081319.826    21081319.5964   21081327.3624
 -10134119.428 9  -7878372.50647  22637110.270    22637109.5954   22637117.0124
  -6112130.843 9  -4378711.87746  24391335.590    24391335.1004   24391343.7064
 -14215170.244 9 -11062278.85947  22177368.966    22177368.4274   22177375.9864
 -24720175.641 9 -19235425.76649  20304345.805    20304345.9244   20304352.1104
 -23907641.288 9 -18314295.28248  21204737.802    21204737.5464   21204744.2654
 -14909372.632 9 -11598778.41047  22557216.216    22557215.6654   22557223.1774
 00  1  6  0 58  0.0000000  0  8  2 24  7 16  8  4  9  5             -.000000112
 -12435388.306 9  -9664413.99946  23263835.087    23263834.4134   23263843.0004
 -21501031.663 9 -16429202.62848  21068412.014    21068411.7724   21068419.5374
 -10071378.524 9  -7829483.46947  22649049.469    22649048.8004   22649056.1604
  -6134171.224 9  -4395886.14246  24387141.432    24387140.9444   24387149.4244
 -14112147.713 9 -10982001.59447  22196973.512    22196972.9564   22196980.5454
 -24709685.692 9 -19227251.75949  20306341.943    20306342.0824   20306348.2564
 -23902357.161 9 -18310177.77648  21205743.305    21205743.0794   21205749.7934
 -14989940.820 9 -11661558.76247  22541884.505    22541883.9494   22541891.5334
 00  1  6  0 58 30.0000000  0  8  2 24  7 16  8  4  9  5             -.000000122
 -12361538.368 9  -9606868.58046  23277888.176    23277887.5634   23277896.0844
 -21568391.791 9 -16481691.00248  21055593.790    21055593.5564   21055601.3044
 -10008558.399 9  -7780532.69647  22661003.695    22661002.9944   22661010.4064
  -6155711.064 9  -4412670.37846  24383042.474    24383041.9514   24383050.5424
 -14008852.389 9 -10901511.75447  22216629.965    22216629.4284   22216636.9994
 -24698591.286 9 -19218606.74249  20308453.140    20308453.2604   20308459.4344
 -23896477.799 9 -18305596.45548  21206862.145    21206861.8954   21206868.5994
 -15070397.884 9 -11724252.51947  22526574.000    22526573.4184   22526580.9974
 00  1  6  0 59  0.0000000  0  8  2 24  7 16  8  4  9  5             -.000000096
 -12287414.901 9  -9549110.03246  23291993.443    23291992.7994   23292001.3424
 -21635316.646 9 -16533840.19748  21042858.372    21042858.1524   21042865.8894
  -9945686.205 9  -7731541.36547  22672967.826    22672967.1824   22672974.5744
  -6176749.199 9  -4429063.69046  24379038.976    24379038.4844   24379047.0324
 -13905316.216 9 -10820834.24747  22236332.226    22236331.7084   22236339.2794
 -24686947.652 9 -19209533.75349  20310668.805    20310668.9464   20310675.1154
 -23890034.699 9 -18300575.85948  21208088.189    21208087.9564   21208094.6924
 -15150761.131 9 -11786873.18247  22511281.330    22511280.7644   22511288.2994
 00  1  6  0 59 30.0000000  0  8  2 24  7 16  8  4  9  5             -.000000056
 -12213053.017 9  -9491165.68246  23306144.073    23306143.4634   23306151.8874
 -21701827.734 9 -16585666.98248  21030201.745    21030201.5244   21030209.2244
  -9882792.704 9  -7682533.41847  22684936.075    22684935.3864   22684942.7954
  -6197309.829 9  -4445084.91646  24375126.318    24375125.8024   24375134.3084
 -13801569.485 9 -10739992.66247  22256074.640    22256074.1004   22256081.6474
 -24674782.293 9 -19200054.22649  20312983.797    20312983.9244   20312990.1054
 -23883058.758 9 -18295140.06048  21209415.645    21209415.3974   21209422.1414
 -15231060.016 9 -11849443.69047  22496000.954    22496000.3834   22496007.8584
 00  1  6  1  0  0.0000000  0  8  2 24  7 16  8  4  9  5             -.000000012
 -12138459.137 9  -9433040.56446  23320338.890    23320338.1964   23320346.5884
 -21767933.144 9 -16637177.64948  21017622.278    21017622.0434   21017629.7164
  -9819911.047 9  -7633534.70347  22696902.007    22696901.3224   22696908.7874
  -6217410.616 9  -4460747.82946  24371301.243    24371300.6804   24371309.2094
 -13697620.258 9 -10658993.29447  22275855.568    22275855.0264   22275862.5634
 -24662082.043 9 -19190157.89849  20315400.528    20315400.6614   20315406.8514
 -23875545.057 9 -18289285.22848  21210845.454    21210845.2174   21210851.9644
 -15311291.542 9 -11911961.72047  22480733.336    22480732.7934   22480740.2234
 00  1  6  1  0 30.0000000  0  8  2 24  7 16  8  4  9  5              .000000023
 -12063629.280 9  -9374731.57546  23334578.594    23334577.9484   23334586.2244
 -21833616.508 9 -16688359.45148  21005123.058    21005122.8264   21005130.5154
  -9757050.987 9  -7584552.82647  22708863.925    22708863.1914   22708870.6484
  -6237060.895 9  -4476059.68946  24367561.826    24367561.3194   24367569.8324
 -13593476.291 9 -10577842.17847  22295673.567    22295673.0074   22295680.5534
 -24648831.554 9 -19179832.80749  20317921.981    20317922.1354   20317928.3074
 -23867484.065 9 -18283003.93548  21212379.435    21212379.1954   21212385.9064
 -15391452.032 9 -11974424.39247  22465479.257    22465478.7034   22465486.1454
 00  1  6  1  1  0.0000000  0  8  2 24  7 16  8  4  9  5              .000000033
 -11988552.387 9  -9316230.09146  23348865.227    23348864.5874   23348872.8724
 -21898848.032 9 -16739189.16748  20992709.890    20992709.6704   20992717.3314
  -9694187.245 9  -7535568.06447  22720826.461    22720825.7404   22720833.1764
  -6256266.480 9  -4491025.02546  24363907.067    24363906.4794   24363915.0814
 -13489128.982 9 -10496532.61447  22315530.228    22315529.6804   22315537.1884
 -24634991.135 9 -19169048.02849  20320555.743    20320555.8724   20320562.0594
 -23858847.639 9 -18276274.25048  21214022.910    21214022.6584   21214029.3734
 -15471531.480 9 -12036823.90847  22450240.643    22450240.0924   22450247.5234
 00  1  6  1  1 30.0000000  0  8  2 24  7 16  8  4  9  5              .000000018
 -11913208.349 9  -9257520.44446  23363202.756    23363202.0824   23363210.3754
 -21963606.639 9 -16789650.37648  20980386.700    20980386.4614   20980394.1414
  -9631288.295 9  -7486555.87647  22732795.679    22732794.9444   22732802.4674
  -6275025.992 9  -4505642.79146  24360337.288    24360336.6204   24360345.2004
 -13384547.579 9 -10415040.63647  22335431.462    22335430.9134   22335438.3964
 -24620518.955 9 -19157770.96849  20323309.663    20323309.8154   20323315.9744
 -23849610.832 9 -18269076.73348  21215780.594    21215780.3614   21215787.0574
 -15551505.939 9 -12099141.61547  22435021.953    22435021.3884   22435028.8504
 00  1  6  1  2  0.0000000  0  8  2 24  7 16  8  4  9  5             -.000000007
 -11837566.081 9  -9198578.42946  23377596.948    23377596.3074   23377604.6494
 -22027886.967 9 -16839738.90048  20968154.544    20968154.2994   20968161.9684
  -9568320.134 9  -7437489.75547  22744778.060    22744777.3684   22744784.9114
  -6293318.969 9  -4519897.00946  24356856.245    24356855.5404   24356864.1284
 -13279722.489 9 -10333358.77647  22355379.033    22355378.4244   22355385.9574
 -24605397.863 9 -19145988.26449  20326187.087    20326187.2334   20326193.3924
 -23839754.315 9 -18261396.32648  21217656.231    21217656.0124   21217662.7024
 -15631352.510 9 -12161359.67547  22419827.608    22419827.0574   22419834.4634
 00  1  6  1  2 30.0000000  0  8  2 24  7 16  8  4  9  5             -.000000038
 -11761620.529 9  -9139400.06846  23392048.788    23392048.1834   23392056.5894
 -22091685.258 9 -16889451.80848  20956014.101    20956013.8644   20956021.5354
  -9505252.047 9  -7388345.76647  22756779.467    22756778.7904   22756786.2934
  -6311137.353 9  -4533781.43346  24353465.452    24353464.7974   24353473.1004
 -13174646.794 9 -10251481.64647  22375374.251    22375373.6814   22375381.2344
 -24589635.940 9 -19133706.21049  20329186.439    20329186.5874   20329192.7424
 -23829283.602 9 -18253237.32248  21219648.757    21219648.5334   21219655.2374
 -15711073.976 9 -12223480.25147  22404657.111    22404656.5694   22404663.8994
 00  1  6  1  3  0.0000000  0  8  2 24  7 16  8  4  9  5             -.000000063
 -11685375.270 9  -9079988.19046  23406557.663    23406557.0884   23406565.6304
 -22155011.661 9 -16938797.01248  20943963.429    20943963.2164   20943970.8754
  -9442083.162 9  -7339123.24747  22768800.082    22768799.3984   22768806.8814
  -6328474.279 9  -4547290.66845  24350166.278    24350165.6514   24350173.9754
 -13069318.921 9 -10169408.00947  22395417.517    22395416.9164   22395424.4774
 -24573248.223 9 -19120936.52949  20332304.925    20332305.0584   20332311.2024
 -23818219.383 9 -18244615.85248  21221754.166    21221753.9554   21221760.6574
 -15790669.059 9 -12285502.34647  22389510.646    22389510.0754   22389517.4174
 00  1  6  1  3 30.0000000  0  8  2 24  7 16  8  4  9  5             -.000000074
 -11608823.143 9  -9020337.19446  23421125.019    23421124.4134   23421133.0564
 -22217871.017 9 -16987778.28348  20932001.652    20932001.4274   20932009.0844
  -9378846.561 9  -7289847.94747  22780833.592    22780832.9274   22780840.3494
  -6345315.074 9  -4560413.31145  24346961.553    24346960.9404   24346969.3024
 -12963755.105 9 -10087150.51947  22415505.634    22415505.0194   22415512.6084
 -24556250.243 9 -19107691.31949  20335539.485    20335539.6194   20335545.7644
 -23806591.168 9 -18235554.89648  21223966.931    21223966.7044   21223973.4124
 -15870141.288 9 -12347428.71147  22374387.562    22374386.9844   22374394.3894
 00  1  6  1  4  0.0000000  0  8  2 24  7 16  8  4  9  5             -.000000071
 -11531984.410 9  -8960462.85646  23435746.979    23435746.3804   23435755.0204
 -22280267.856 9 -17036399.14648  20920127.934    20920127.7074   20920135.3164
  -9315568.664 9  -7240540.47647  22792874.983    22792874.3514   22792881.7574
  -6361664.675 9  -4573153.23045  24343850.261    24343849.6644   24343858.0574
 -12857981.300 9 -10004729.39747  22435633.758    22435633.1644   22435640.7724
 -24538670.703 9 -19093992.94349  20338884.717    20338884.8634   20338891.0104
 -23794407.273 9 -18226060.94248  21226285.439    21226285.2184   21226291.8984
 -15949494.274 9 -12409262.15147  22359287.106    22359286.5384   22359293.9494
 00  1  6  1  4 30.0000000  0  8  2 24  7 16  8  4  9  5             -.000000058
 -11454891.327 9  -8900390.32946  23450417.350    23450416.7544   23450425.3534
 -22342195.720 9 -17084654.58248  20908343.401    20908343.1654   20908350.7904
  -9252266.147 9  -7191213.81947  22804921.087    22804920.4424   22804927.8564
  -6377523.917 9  -4585511.03645  24340832.356    24340831.6834   24340840.0664
 -12751997.611 9  -9922144.73947  22455801.797    22455801.2124   22455808.8384
 -24520521.107 9 -19079850.37649  20342338.443    20342338.6024   20342344.7404
 -23781684.691 9 -18216147.23448  21228706.500    21228706.2824   21228712.9834
 -16028726.187 9 -12471001.25347  22344209.719    22344209.1664   22344216.5744
 00  1  6  1  5  0.0000000  0  8  2 24  7 16  8  4  9  5             -.000000036
 -11377553.520 9  -8840127.09946  23465134.335    23465133.6574   23465142.2244
 -22403649.573 9 -17132540.64848  20896649.096    20896648.8514   20896656.4764
  -9188956.514 9  -7141881.62047  22816968.516    22816967.8324   22816975.2324
  -6392891.542 9  -4597485.75345  24337908.015    24337907.3084   24337915.6254
 -12645822.602 9  -9839411.00047  22476006.273    22476005.6954   22476013.3534
 -24501812.462 9 -19065272.18149  20345898.598    20345898.7374   20345904.8784
 -23768429.562 9 -18205818.54848  21231228.838    21231228.6364   21231235.3374
 -16107834.885 9 -12532644.33747  22329155.847    22329155.2974   22329162.6694
 00  1  6  1  5 30.0000000  0  8  2 24  7 16  8  4  9  5             -.000000015
 -11299973.819 9  -8779675.39946  23479897.259    23479896.5964   23479905.1194
 -22464628.036 9 -17180056.29748  20885045.219    20885044.9944   20885052.5794
  -9125632.618 9  -7092538.29947  22829018.629    22829017.9504   22829025.3774
  -6407775.917 9  -4609083.92445  24335075.561    24335074.9084   24335083.1204
 -12539458.941 9  -9756530.25447  22496246.565    22496246.0134   22496253.6684
 -24482544.187 9 -19050257.92349  20349565.183    20349565.3294   20349571.4664
 -23754632.719 9 -18195067.75348  21233854.289    21233854.0694   21233860.7574
 -16186827.197 9 -12594196.72947  22314124.082    22314123.5144   22314130.9254
 00  1  6  1  6  0.0000000  0  8  2 24  7 16  8  4  9  5              .000000001
 -11222171.927 9  -8719050.53646  23494702.454    23494701.7874   23494710.2304
 -22525131.021 9 -17227201.43348  20873531.827    20873531.6054   20873539.1804
  -9062281.445 9  -7043173.72847  22841073.900    22841073.2444   22841080.6494
  -6422192.832 9  -4620317.84645  24332332.158    24332331.5574   24332339.5644
 -12432890.286 9  -9673489.78147  22516525.940    22516525.3744   22516533.0474
 -24462716.308 9 -19034807.60549  20353338.326    20353338.4674   20353344.5724
 -23740288.131 9 -18183890.13948  21236583.991    21236583.7694   21236590.4704
 -16265706.794 9 -12655661.28847  22299113.695    22299113.1464   22299120.5704
 00  1  6  1  6 30.0000000  0  8  2 24  7 16  8  4  9  5              .000000012
 -11144129.432 9  -8658238.19646  23509553.401    23509552.7654   23509561.2494
 -22585157.649 9 -17273975.39048  20862109.101    20862108.8934   20862116.4414
  -8998901.332 9  -6993786.60547  22853134.658    22853134.0544   22853141.4034
  -6436132.728 9  -4631180.06045  24329679.454    24329678.8434   24329686.9264
 -12326106.693 9  -9590281.82647  22536846.203    22536845.6864   22536853.3484
 -24442316.110 9 -19018911.33249  20357220.352    20357220.4804   20357226.5764
 -23725402.613 9 -18172291.02848  21239416.550    21239416.3184   21239423.0354
 -16344475.172 9 -12717039.18947  22284124.504    22284123.9624   22284131.3274
 00  1  6  1  7  0.0000000  0  8  2 24  7 16  8  4  9  5              .000000017
 -11065810.271 9  -8597210.28746  23524457.051    23524456.4674   23524464.9464
 -22644707.701 9 -17320377.98648  20850777.106    20850776.8784   20850784.4344
  -8935497.145 9  -6944380.72247  22865200.081    22865199.4224   22865206.8064
  -6449598.503 9  -4641672.82645  24327116.993    24327116.5384   24327124.4324
 -12219116.835 9  -9506913.13847  22557205.736    22557205.2114   22557212.8614
 -24421333.360 9 -19002561.12149  20361213.204    20361213.3254   20361219.4174
 -23709961.845 9 -18160259.25348  21242354.812    21242354.5744   21242361.3034
 -16423138.231 9 -12778335.02547  22269155.429    22269154.8854   22269162.2184
 00  1  6  1  7 30.0000000  0  8  2 24  7 16  8  4  9  5              .000000020
 -10987205.488 9  -8535959.80246  23539415.035    23539414.4734   23539422.9204
 -22703782.301 9 -17366410.09548  20839535.546    20839535.3204   20839542.8714
  -8872069.399 9  -6894956.47947  22877270.025    22877269.3764   22877276.7084
  -6462581.723 9  -4651789.57645  24324646.307    24324645.8084   24324653.7664
 -12111915.873 9  -9423379.94747  22577605.410    22577604.8694   22577612.5424
 -24399758.782 9 -18985749.74449  20365318.676    20365318.7834   20365324.8674
 -23693964.422 9 -18147793.72048  21245399.048    21245398.7974   21245405.5434
 -16501685.902 9 -12839540.93747  22254208.256    22254207.7224   22254215.0714
 00  1  6  1  8  0.0000000  0  8  2 24  7 16  8  4  9  5              .000000027
 -10908321.401 9  -8474491.67946  23554426.172    23554425.5914   23554434.0284
 -22762375.622 9 -17412067.18548  20828385.571    20828385.3494   20828392.8834
  -8808617.817 9  -6845513.66547  22889344.483    22889343.8074   22889351.0944
  -6475071.134 9  -4661521.52545  24322269.587    24322269.0944   24322277.1434
 -12004521.406 9  -9339695.98347  22598041.924    22598041.3424   22598049.0604
 -24377597.844 9 -18968481.46649  20369535.750    20369535.8744   20369541.9344
 -23677403.617 9 -18134889.18748  21248550.481    21248550.2254   21248556.9524
 -16580104.144 9 -12900645.99947  22239285.720    22239285.1734   22239292.4894
 00  1  6  1  8 30.0000000  0  8  2 24  7 16  8  4  9  5              .000000037
 -10829151.639 9  -8412800.97846  23569491.716    23569491.1514   23569499.6134
 -22820483.503 9 -17457346.01448  20817327.977    20817327.7644   20817335.2724
  -8745132.288 9  -6796044.39647  22901425.345    22901424.6544   22901431.9614
  -6487058.158 9  -4670862.02845  24319988.405    24319987.8744   24319996.0584
 -11896959.254 9  -9255881.35247  22618510.364    22618509.8014   22618517.5054
 -24354858.153 9 -18950762.21649  20373862.939    20373863.0684   20373869.1434
 -23660277.133 9 -18121543.87048  21251809.522    21251809.2794   21251815.9744
 -16658389.753 9 -12961647.71547  22224388.442    22224387.9064   22224395.2054
 00  1  6  1  9  0.0000000  0  8  2 24  7 16  8  4  9  5              .000000043
 -10749719.648 9  -8350905.91746  23584607.095    23584606.5174   23584615.0104
 -22878101.047 9 -17502242.75348  20806363.698    20806363.4844   20806370.9844
  -8681598.584 9  -6746537.58347  22913515.408    22913514.7044   22913522.0394
  -6498543.828 9  -4679811.85345  24317802.668    24317802.1454   24317810.3094
 -11789236.534 9  -9171941.60347  22639009.379    22639008.7804   22639016.4764
 -24331543.348 9 -18932594.81549  20378299.615    20378299.7474   20378305.8204
 -23642574.863 9 -18107749.88148  21255178.162    21255177.9074   21255184.5804
 -16736543.163 9 -13022546.41647  22209516.316    22209515.7824   22209523.0114
 00  1  6  1  9 30.0000000  0  8  2 24  7 16  8  4  9  5              .000000049
 -10670063.116 9  -8288835.90146  23599765.217    23599764.6434   23599773.1414
 -22935224.872 9 -17546754.77748  20795493.361    20795493.1404   20795500.6364
  -8618004.479 9  -6696983.71347  22925616.904    22925616.2074   22925623.5534
  -6509522.431 9  -4688366.56345  24315713.532    24315712.9824   24315721.0574
 -11681349.177 9  -9087873.57047  22659539.667    22659539.0684   22659546.7724
 -24307672.262 9 -18913993.95349  20382842.089    20382842.2224   20382848.3264
 -23624296.640 9 -18093507.09848  21258656.392    21258656.1494   21258662.8174
 -16814560.464 9 -13083339.05547  22194670.084    22194669.5104   22194676.7234
 00  1  6  1 10  0.0000000  0  8  2 24  7 16  8  4  9  5              .000000057
 -10590185.546 9  -8226593.65946  23614965.334    23614964.8204   23614973.4044
 -22991863.361 9 -17590888.62048  20784715.403    20784715.1814   20784722.6494
  -8554346.578 9  -6647380.13447  22937730.542    22937729.8604   22937737.2034
  -6520002.354 9  -4696532.69245  24313719.151    24313718.6534   24313726.6144
 -11573295.981 9  -9003676.31647  22680101.484    22680100.8734   22680108.6054
 -24283259.981 9 -18894971.38549  20387487.571    20387487.6964   20387493.8054
 -23605440.183 9 -18078813.75048  21262244.684    21262244.4444   21262251.1034
 -16892454.709 9 -13144035.80847  22179847.233    22179846.6824   22179853.8904
 00  1  6  1 10 30.0000000  0  8  2 24  7 16  8  4  9  5              .000000066
 -10510085.247 9  -8164177.85646  23630207.898    23630207.3284   23630216.0114
 -23048032.255 9 -17634656.54548  20774026.786    20774026.5714   20774034.0444
  -8490643.251 9  -6597741.15547  22949852.834    22949852.1884   22949859.5234
  -6529985.655 9  -4704311.84845  24311819.351    24311818.7994   24311826.6944
 -11465070.682 9  -8919344.94547  22700696.055    22700695.4664   22700703.2294
 -24258304.273 9 -18875525.36249  20392236.462    20392236.5984   20392242.7004
 -23586023.846 9 -18063684.12648  21265939.474    21265939.2274   21265945.9034
 -16970230.457 9 -13204640.23347  22165046.947    22165046.3884   22165053.6084
 00  1  6  1 11  0.0000000  0  8  2 24  7 16  8  4  9  5              .000000078
 -10429754.736 9  -8101582.65146  23645494.284    23645493.6854   23645502.3714
 -23103745.701 9 -17678069.57048  20763424.841    20763424.6204   20763432.0944
  -8426910.989 9  -6548079.62247  22961980.670    22961980.0324   22961987.3954
  -6539475.940 9  -4711706.84345  24310013.398    24310012.8384   24310020.5694
 -11356668.645 9  -8834875.86047  22721324.268    22721323.7154   22721331.4664
 -24232805.694 9 -18855656.32049  20397088.686    20397088.8094   20397094.9144
 -23566054.745 9 -18048123.78348  21269739.437    21269739.1964   21269745.8784
 -17047894.149 9 -13265157.33947  22150268.007    22150267.4394   22150274.6394
 00  1  6  1 11 30.0000000  0  8  2 24  7 16  8  4  9  5              .000000095
 -10349176.307 9  -8038794.26646  23660827.912    23660827.3604   23660835.9574
 -23159008.249 9 -17721131.24748  20752908.693    20752908.4904   20752915.9534
  -8363162.158 9  -6498405.19547  22974111.711    22974111.0444   22974118.4194
  -6548485.100 9  -4718726.90845  24308298.965    24308298.3464   24308306.0384
 -11248101.295 9  -8750277.95647  22741983.972    22741983.4424   22741991.1624
 -24206769.345 9 -18835368.23449  20402043.211    20402043.3494   20402049.4404
 -23545546.503 9 -18032143.32948  21273642.001    21273641.7844   21273648.4644
 -17125440.012 9 -13325582.63647  22135511.449    22135510.8954   22135518.0724
 00  1  6  1 12  0.0000000  0  8  2 24  7 16  8  4  9  5              .000000102
 -10268331.559 9  -7975798.37146  23676212.143    23676211.6004   23676220.2364
 -23213815.619 9 -17763838.24048  20742479.131    20742478.9214   20742486.3964
  -8299408.755 9  -6448727.19647  22986243.653    22986242.9764   22986250.2854
  -6557028.242 9  -4725383.87845  24306673.169    24306672.5504   24306680.3374
 -11139386.381 9  -8665565.07347  22762671.741    22762671.1914   22762678.9504
 -24180177.276 9 -18814647.11949  20407103.498    20407103.6464   20407109.7284
 -23524517.150 9 -18015756.81648  21277643.770    21277643.5344   21277650.2084
 -17202857.536 9 -13385907.92847  22120779.327    22120778.7944   22120785.9354
 00  1  6  1 12 30.0000000  0  8  2 24  7 16  8  4  9  5              .000000088
 -10187221.596 9  -7912595.81246  23691646.864    23691646.2744   23691654.9624
 -23268136.433 9 -17806166.09848  20732142.222    20732142.0074   20732149.4614
  -8235646.298 9  -6399042.14547  22998377.155    22998376.4654   22998383.8274
  -6565101.339 9  -4731674.54345  24305136.885    24305136.2244   24305144.1284
 -11030528.704 9  -8580740.94647  22783386.695    22783386.1404   22783393.8874
 -24153000.475 9 -18793470.36749  20412275.070    20412275.2064   20412281.2784
 -23502959.876 9 -17998958.93548  21281745.953    21281745.7144   21281752.3844
 -17280126.496 9 -13446117.45647  22106075.500    22106074.9534   22106082.0724
 00  1  6  1 13  0.0000000  0  8  2 24  7 16  8  4  9  5              .000000052
 -10105837.637 9  -7849179.73146  23707133.852    23707133.1934   23707141.7494
 -23321929.135 9 -17848082.44048  20721905.752    20721905.5334   20721912.9844
  -8171847.145 9  -6349328.50747  23010517.679    23010517.0414   23010524.4144
  -6572704.303 9  -4737598.89745  24303690.230    24303689.4654   24303697.5554
 -10921519.309 9  -8495798.59247  22804130.531    22804129.9994   22804137.7014
 -24125222.099 9 -18771824.85649  20417561.099    20417561.2164   20417567.3014
 -23480852.283 9 -17981732.23348  21285952.915    21285952.6924   21285959.3464
 -17357228.771 9 -13506197.09847  22091403.366    22091402.8104   22091409.9144
 00  1  6  1 13 30.0000000  0  9  2 24  7 30 16  8  4  9  5          -.000000004
 -10024194.920 9  -7785562.03845  23722669.935    23722669.2184   23722677.7014
 -23375161.736 9 -17889562.34048  20711775.891    20711775.6864   20711783.1044
  -8107996.543 9  -6299574.77147  23022668.043    23022667.3494   23022674.7964
  -1339437.957 9  -1008062.46852          .000            .0004   25528135.0025
  -6579819.231 9  -4743142.95445  24302336.273    24302335.6334   24302343.5784
 -10812348.843 9  -8410730.73447  22824905.026    22824904.4484   22824912.1754
 -24096825.466 9 -18749697.58549  20422964.781    20422964.8964   20422970.9814
 -23458181.085 9 -17964066.35648  21290267.083    21290266.8554   21290273.5434
 -17434134.238 9 -13566123.38648  22076768.721    22076768.1614   22076775.2414
 00  1  6  1 14  0.0000000  0  9  2 24  7 30 16  8  4  9  5          -.000000068
  -9942292.639 9  -7721742.07745  23738255.322    23738254.7284   23738263.1114
 -23427816.403 9 -17930591.90648  20701755.993    20701755.7834   20701763.1974
  -8044078.810 9  -6249768.73047  23034831.125    23034830.4194   23034837.8644
  -1437091.654 9  -1084155.98145  25509543.330    25509542.1614   25509553.2344
  -6586413.232 9  -4748281.09445  24301081.387    24301080.7924   24301088.8654
 -10702997.413 9  -8325521.86847  22845713.992    22845713.4124   22845721.0694
 -24067800.582 9 -18727080.76849  20428488.027    20428488.1324   20428494.2124
 -23434927.373 9 -17945946.57648  21294692.124    21294691.8924   21294698.5774
 -17510833.863 9 -13625889.28148  22062173.229    22062172.6864   22062179.7754
 00  1  6  1 14 30.0000000  0  9  2 24  7 30 16  8  4  9  5          -.000000120
  -9860134.691 9  -7657722.88345  23753889.520    23753889.0154   23753897.2394
 -23479909.281 9 -17971183.71148  20691843.032    20691842.8254   20691850.2234
  -7980088.104 9  -6199905.81947  23047008.153    23047007.4894   23047014.9214
  -1534790.175 8  -1160284.39945  25490951.798    25490952.0614   25490960.7614
  -6592467.322 9  -4752998.52245  24299929.407    24299928.6694   24299936.7344
 -10593448.224 9  -8240158.90247  22866560.526    22866559.9504   22866567.6554
 -24038163.343 9 -18703986.79249  20434127.808    20434127.9084   20434133.9754
 -23411073.082 9 -17927358.81148  21299231.420    21299231.1894   21299237.8854
 -17587337.738 9 -13685502.64448  22047615.004    22047614.4444   22047621.5534
 00  1  6  1 15  0.0000000  0  9  2 24  7 30 16  8  4  9  5          -.000000140
  -9777722.625 8  -7593505.70445  23769571.989    23769571.4084   23769579.6994
 -23531478.326 9 -18011367.33349  20682029.719    20682029.5094   20682036.8994
  -7916026.328 9  -6149987.53247  23059198.764    23059198.0504   23059205.3984
  -1632547.448 8  -1236458.60045  25472348.975    25472348.4404   25472357.7654
  -6597973.568 9  -4757289.04945  24298881.471    24298880.7654   24298888.9144
 -10483704.129 9  -8154644.04947  22887444.198    22887443.6224   22887451.3274
 -24007953.704 9 -18680446.78849  20439876.462    20439876.5684   20439882.6424
 -23386639.957 9 -17908319.99948  21303880.809    21303880.5804   21303887.2874
 -17663653.201 9 -13744969.18548  22033092.573    22033092.0184   22033099.1444
 00  1  6  1 15 30.0000000  0  9  2 24  7 30 16  8  4  9  5          -.000000122
  -9695066.310 8  -7529098.20445  23785300.990    23785300.3604   23785308.6164
 -23582575.130 9 -18051182.98149  20672306.279    20672306.0704   20672313.4634
  -7851927.380 9  -6100040.29147  23071396.407    23071395.7154   23071403.0354
  -1730396.154 8  -1312704.04645  25453728.876    25453728.8514   25453737.9134
  -6602936.590 9  -4761156.31845  24297936.984    24297936.2894   24297944.5954
 -10373787.150 9  -8068994.49047  22908360.783    22908360.1924   22908367.9384
 -23977223.735 9 -18656501.33349  20445724.129    20445724.2504   20445730.3104
 -23361659.470 9 -17888854.67448  21308634.449    21308634.2304   21308640.9204
 -17739817.521 9 -13804317.96648  22018598.958    22018598.4314   22018605.5104
 00  1  6  1 16  0.0000000  0  9  2 24  7 30 16  8  4  9  5          -.000000073
  -9612166.727 8  -7464501.13445  23801076.325    23801075.7784   23801083.9504
 -23633243.029 9 -18090664.41349  20662664.475    20662664.2554   20662671.6364
  -7787818.622 9  -6050085.39347  23083595.866    23083595.2304   23083602.4514
  -1828365.373 8  -1389043.43845  25435085.667    25435085.1574   25435094.8164
  -6607380.183 9  -4764618.79845  24297091.419    24297090.7354   24297098.8524
 -10263726.185 9  -7983232.73047  22929304.725    22929304.1534   22929311.9094
 -23946010.977 9 -18632179.67749  20451663.720    20451663.8484   20451669.9034
 -23336159.926 9 -17868984.88748  21313486.889    21313486.6604   21313493.3054
 -17815867.352 9 -13863577.52548  22004127.108    22004126.5704   22004133.6724
 00  1  6  1 16 30.0000000  0  9  2 24  7 30 16  8  4  9  5          -.000000009
  -9529031.652 9  -7399720.56445  23816896.384    23816895.8374   23816904.1474
 -23683508.585 9 -18129832.33449  20653099.203    20653098.9774   20653106.3284
  -7723722.677 9  -6000140.49046  23095792.900    23095792.2664   23095799.4484
  -1926461.688 8  -1465481.88045  25416418.303    25416417.8514   25416427.4044
  -6611333.039 9  -4767698.89945  24296339.291    24296338.5554   24296346.5294
 -10153549.599 9  -7897380.88247  22950270.623    22950270.0994   22950277.9094
 -23914333.220 9 -18607495.68549  20457691.771    20457691.8854   20457697.9364
 -23310177.039 9 -17848738.46648  21318431.266    21318431.0474   21318437.6884
 -17891822.427 9 -13922763.24848  21989673.248    21989672.7164   21989679.8204
 00  1  6  1 17  0.0000000  0  9  2 24  7 30 16  8  4  9  5           .000000054
  -9445664.415 9  -7334759.10645  23832760.688    23832760.0744   23832768.4324
 -23733358.635 9 -18168676.48649  20643613.047    20643612.8144   20643620.1374
  -7659659.923 9  -5950221.44146  23107983.563    23107982.9364   23107990.1664
  -2024674.330 8  -1542011.05345  25397728.758    25397728.3284   25397738.3144
  -6614800.912 8  -4770401.10545  24295679.220    24295678.4624   24295686.5474
 -10043273.746 9  -7811451.67247  22971255.451    22971254.9214   22971262.7024
 -23882195.435 9 -18582453.23449  20463807.402    20463807.5114   20463813.5424
 -23283728.527 9 -17828129.22248  21323464.244    21323464.0134   21323470.6554
 -17967687.888 9 -13981879.14748  21975236.522    21975236.0014   21975243.0584
 00  1  6  1 17 30.0000000  0  9  2 24  7 30 16  8  4  9  5           .000000094
  -9362069.898 9  -7269620.51245  23848668.224    23848667.5024   23848675.9244
 -23782763.622 9 -18207173.83849  20634211.548    20634211.3234   20634218.6434
  -7595642.762 9  -5900337.92846  23120165.553    23120164.9334   23120172.1684
  -2123003.032 7  -1618630.72245  25379017.523    25379017.3124   25379026.0274
  -6617791.149 9  -4772731.10745  24295110.078    24295109.3964   24295117.3164
  -9932907.539 9  -7725452.07847  22992257.422    22992256.9124   22992264.8024
 -23849564.944 9 -18557026.85949  20470016.761    20470016.8824   20470022.8954
 -23256804.019 9 -17807149.07248  21328587.821    21328587.5664   21328594.2164
 -18043461.040 9 -14040923.11248  21960817.350    21960816.8134   21960823.8554
 00  1  6  1 18  0.0000000  0  9  2 24  7 30 16  8  4  9  5           .000000105
  -9278234.876 9  -7204294.53945  23864621.467    23864620.7474   23864629.2634
 -23831686.286 9 -18245295.34649  20624901.837    20624901.6184   20624908.9314
  -7531647.071 9  -5850471.13946  23132343.459    23132342.8324   23132350.1064
  -2221412.942 7  -1695313.70444  25360290.436    25360290.4574   25360299.3384
  -6620290.599 9  -4774678.70045  24294634.363    24294633.6954   24294641.4284
  -9822442.967 9  -7639375.83147  23013278.213    23013277.6194   23013285.5564
 -23816393.852 9 -18531179.23349  20476328.988    20476329.1124   20476335.1444
 -23229383.188 9 -17785782.17148  21333805.790    21333805.5444   21333812.1974
 -18119104.679 9 -14099866.15948  21946422.816    21946422.2584   21946429.2804
 00  1  6  1 18 30.0000000  0  9  2 24  7 30 16  8  4  9  5           .000000096
  -9194142.721 9  -7138768.20046  23880623.717    23880622.8794   23880631.5664
 -23880084.793 9 -18283008.43149  20615691.874    20615691.6544   20615698.9594
  -7467651.955 9  -5800604.79846  23144521.317    23144520.7124   23144527.9334
  -2319870.421 8  -1772033.88244  25341554.582    25341554.5294   25341563.3204
  -6622280.874 9  -4776229.52145  24294255.586    24294254.8874   24294262.7634
  -9711864.372 9  -7553210.73147  23034320.617    23034320.0024   23034327.9664
 -23782651.087 9 -18504886.15549  20482749.986    20482750.1074   20482756.1334
 -23201433.500 9 -17764003.17748  21339124.433    21339124.1924   21339130.8464
 -18194583.916 9 -14158681.09848  21932059.559    21932059.0224   21932066.0484
 00  1  6  1 19  0.0000000  0  9  2 24  7 30 16  8  4  9  5           .000000074
  -9109796.711 9  -7073044.05146  23896674.271    23896673.4874   23896682.1604
 -23927935.753 9 -18320294.85149  20606586.092    20606585.8774   20606593.1834
  -7403641.034 9  -5750726.14346  23156702.262    23156701.6094   23156708.8644
  -2418364.811 8  -1848782.92844  25322811.664    25322811.2744   25322820.3834
  -6623746.531 9  -4777371.53445  24293976.651    24293976.0514   24293983.8964
  -9601159.613 9  -7466947.31446  23055387.087    23055386.4784   23055394.4464
 -23748323.037 9 -18478137.00849  20489282.363    20489282.5054   20489288.5214
 -23172926.534 9 -17741789.94048  21344549.066    21344548.8274   21344555.4724
 -18269878.166 9 -14217351.89548  21917731.501    21917730.9614   21917737.9844
 00  1  6  1 19 30.0000000  0  9  2 24  7 30 16  8  4  9  5           .000000038
  -9025195.133 9  -7007120.76446  23912773.402    23912772.5724   23912781.2744
 -23975232.260 9 -18357149.23449  20597585.829    20597585.6084   20597592.8814
  -7339574.262 9  -5700803.97146  23168893.670    23168893.0294   23168900.3364
  -2516880.269 8  -1925548.47844  25304064.661    25304064.8094   25304073.9264
  -6624684.319 9  -4778102.25645  24293798.077    24293797.6244   24293805.1984
  -9490325.675 9  -7380583.25346  23076478.088    23076477.4874   23076485.4384
 -23713384.326 9 -18450912.02749  20495930.988    20495931.1024   20495937.1134
 -23143850.947 9 -17719133.62648  21350081.891    21350081.6664   21350088.3294
 -18344964.736 9 -14275860.86048  21903442.925    21903442.3934   21903449.4214
 00  1  6  1 20  0.0000000  0  9  2 24  7 30 16  8  4  9  5           .000000008
  -8940333.082 9  -6940994.50246  23928922.179    23928921.4024   23928929.9724
 -24021974.906 9 -18393572.03349  20588690.959    20588690.7364   20588697.9844
  -7275433.572 9  -5650824.20646  23181099.287    23181098.7094   23181105.9244
  -2615403.482 8  -2002320.05244  25285316.525    25285316.4404   25285325.3544
  -6625082.372 8  -4778412.39445  24293722.345    24293721.8664   24293729.3694
  -9379353.804 9  -7294111.68146  23097595.425    23097594.7984   23097602.6864
 -23677849.236 9 -18423222.33049  20502693.075    20502693.2014   20502699.1834
 -23114195.655 9 -17696025.58548  21355725.128    21355724.8894   21355731.5614
 -18419841.782 9 -14334206.55948  21889194.325    21889193.8064   21889200.7834
 00  1  6  1 20 30.0000000  0  9  2 24  7 30 16  8  4  9  5          -.000000024
  -8855232.580 9  -6874682.42146  23945116.282    23945115.5514   23945124.0264
 -24068160.823 9 -18429561.01749  20579902.049    20579901.8214   20579909.0564
  -7211214.831 9  -5600783.60446  23193319.774    23193319.1594   23193326.3314
  -2713944.012 8  -2079105.04044  25266564.908    25266564.9624   25266573.3684
  -6624947.293 8  -4778307.09745  24293748.031    24293747.5494   24293754.9774
  -9268240.586 9  -7207529.99246  23118739.594    23118738.9704   23118746.8954
 -23641739.258 9 -18395084.67249  20509564.613    20509564.7244   20509570.6964
 -23083961.898 9 -17672466.79848  21361478.377    21361478.1664   21361484.8274
 -18494526.494 9 -14392402.38648  21874982.254    21874981.7254   21874988.7034
 00  1  6  1 21  0.0000000  0 10  2 24  7 30 10 16  8  4  9  5       -.000000058
  -8769903.786 9  -6808192.47346  23961353.888    23961353.1014   23961361.6754
 -24113795.080 9 -18465120.14149  20571218.103    20571217.8824   20571225.0884
  -7146900.945 9  -5550668.88746  23205558.250    23205557.5974   23205564.7904
  -2812512.911 8  -2155911.95445  25247808.012    25247808.1454   25247816.6584
   -825727.657 9   -628433.54342          .000            .0004           .0004
  -6624278.168 8  -4777785.68845  24293875.310    24293874.7104   24293882.2974
  -9156982.207 9  -7120835.18146  23139911.369    23139910.7534   23139918.5544
 -23605057.304 9 -18366501.31949  20516544.939    20516545.0514   20516551.0184
 -23053164.100 9 -17648468.49748  21367339.007    21367338.7894   21367345.4654
 -18569029.185 9 -14450456.37648  21860804.773    21860804.2604   21860811.2444
 00  1  6  1 21 30.0000000  0 10  2 24  7 30 10 16  8  4  9  5       -.000000094
  -8684335.783 9  -6741516.13446  23977636.824    23977636.1584   23977644.6884
 -24158874.585 9 -18500246.99049  20562639.756    20562639.5314   20562646.7254
  -7082497.545 9  -5500484.40346  23217813.811    23217813.1924   23217820.3454
  -2911115.665 8  -2232745.16845  25229044.586    25229044.8564   25229053.2074
   -915257.073 9   -698196.46852          .000            .0004           .0005
  -6623066.732 9  -4776841.67545  24294105.842    24294105.3714   24294112.8884
  -9045586.296 9  -7034033.19146  23161109.343    23161108.7484   23161116.5034
 -23567808.220 9 -18337476.04949  20523633.175    20523633.2944   20523639.2704
 -23021819.122 9 -17624043.82648  21373303.799    21373303.5704   21373310.2184
 -18643346.135 9 -14508365.64148  21846662.698    21846662.1814   21846669.1654
 00  1  6  1 22  0.0000000  0 10  2 24  7 30 10 16  8  4  9  5       -.000000122
  -8598512.581 9  -6674640.93145  23993968.450    23993967.8424   23993976.3584
 -24203401.470 9 -18534943.22349  20554166.529    20554166.3174   20554173.4984
  -7018030.133 9  -5450250.04846  23230081.572    23230080.8804   23230088.1404
  -3009766.240 8  -2309615.48745  25210271.919    25210272.5124   25210280.4284
  -1005012.105 9   -768134.92144          .000            .0004   25557301.8274
  -6621309.933 9  -4775472.69145  24294440.180    24294439.6404   24294447.0154
  -8934056.351 9  -6947126.76446  23182332.820    23182332.2654   23182340.0314
 -23530014.255 9 -18308026.19349  20530825.147    20530825.2754   20530831.2244
 -22989934.508 9 -17599198.65048  21379371.247    21379370.9994   21379377.6734
 -18717479.334 9 -14566131.72348  21832555.573    21832555.0574   21832562.0104
 00  1  6  1 22 30.0000000  0 10  2 24  7 30 10 16  8  4  9  5       -.000000142
  -8512432.126 8  -6607565.27645  24010348.990    24010348.5014   24010356.9774
 -24247387.918 9 -18569218.34349  20545796.180    20545795.9614   20545803.1324
  -6953510.681 9  -5399975.13346  23242359.164    23242358.4904   23242365.6684
  -3108477.563 8  -2386533.09045  25191487.676    25191487.8774   25191496.6194
  -1094988.718 9   -838246.20145  25540170.835    25540167.6404   25540179.4294
  -6619011.848 9  -4773681.93145  24294877.525    24294877.0064   24294884.2064
  -8822401.128 9  -6860122.71046  23203580.133    23203579.5664   23203587.2274
 -23491678.736 9 -18278154.35049  20538120.158    20538120.2754   20538126.2154
 -22957529.789 9 -17573948.20748  21385537.602    21385537.3714   21385544.0394
 -18791421.963 9 -14623749.29948  21818484.707    21818484.1884   21818491.1654
 00  1  6  1 23  0.0000000  0 10  2 24  7 30 10 16  8  4  9  5       -.000000149
  -8426089.846 8  -6540285.59645  24026779.331    24026778.8074   24026787.4164
 -24290851.109 9 -18603085.72549  20537525.396    20537525.1674   20537532.3124
  -6888970.058 9  -5349683.72246  23254640.749    23254640.0974   23254647.2964
  -3207255.620 8  -2463502.68445  25172690.716    25172690.9494   25172699.6244
  -1185184.380 8   -908528.29645  25523006.760    25523004.9714   25523016.2384
  -6616162.015 8  -4771461.22645  24295419.851    24295419.3914   24295426.5004
  -8710633.943 9  -6773031.41346  23224848.737    23224848.1724   23224855.8694
 -23452801.401 9 -18247860.31349  20545518.232    20545518.3344   20545524.2804
 -22924625.929 9 -17548308.82448  21391799.007    21391798.7764   21391805.4074
 -18865161.431 9 -14681208.57848  21804452.552    21804452.0224   21804458.9604
 00  1  6  1 23 30.0000000  0 10  2 24  7 30 10 16  8  4  9  5       -.000000133
  -8339483.520 8  -6472800.18445  24043260.022    24043259.3874   24043267.9334
 -24333804.916 9 -18636556.18749  20529351.541    20529351.3164   20529358.4634
  -6824436.721 9  -5299397.99446  23266921.161    23266920.4564   23266927.6124
  -3306093.008 8  -2540518.52145  25153882.427    25153882.6214   25153891.3014
  -1275620.454 8   -978997.84145  25505797.064    25505795.9854   25505806.9184
  -6612761.884 8  -4768811.74345  24296066.887    24296066.3144   24296073.5064
  -8598762.772 9  -6685859.09546  23246137.150    23246136.5744   23246144.2834
 -23413401.106 9 -18217158.77149  20553015.863    20553015.9734   20553021.8784
 -22891215.945 9 -17522275.05448  21398156.687    21398156.4654   21398163.1094
 -18938690.425 9 -14738503.84448  21790460.420    21790459.8794   21790466.7844
 00  1  6  1 24  0.0000000  0 10  2 24  7 30 10 16  8  4  9  5       -.000000097
  -8252640.262 8  -6405130.11945  24059785.747    24059785.1584   24059793.7514
 -24376274.855 9 -18669649.60749  20521269.743    20521269.5314   20521276.6664
  -6759924.879 9  -5249129.01846  23279197.334    23279196.6074   23279203.7874
  -3405005.061 8  -2617592.57945  25135059.928    25135060.2514   25135068.9454
  -1366313.370 8  -1049667.68345  25488538.532    25488537.5234   25488548.6994
  -6608839.610 9  -4765755.37345  24296813.126    24296812.5874   24296819.9744
  -8486798.012 9  -6598613.84246  23267443.408    23267442.8054   23267450.5674
 -23373509.874 9 -18186074.68249  20560606.916    20560607.0284   20560612.9174
 -22857296.010 9 -17495843.92048  21404611.446    21404611.1964   21404617.8444
 -19012028.525 9 -14795650.36248  21776504.607    21776504.0504   21776510.9654
 00  1  6  1 24 30.0000000  0 10  2 24  7 30 10 16  8  4  9  5       -.000000051
  -8165595.628 8  -6337303.15745  24076349.659    24076349.2504   24076357.7174
 -24418268.593 9 -18702371.96249  20513278.591    20513278.3734   20513285.5044
  -6695439.499 9  -5198880.64546  23291468.487    23291467.8224   23291474.9864
  -3503991.647 8  -2694724.78045  25116223.257    25116223.4514   25116232.3054
  -1457245.453 8  -1120523.98545  25471234.501    25471233.6334   25471244.8184
  -6604398.640 9  -4762294.85345  24297658.182    24297657.6824   24297665.0834
  -8374754.035 9  -6511306.87046  23288764.664    23288764.0934   23288771.8574
 -23333133.890 9 -18154612.86449  20568290.203    20568290.3094   20568296.2094
 -22822869.990 9 -17469018.43748  21411162.503    21411162.2614   21411168.8924
 -19085182.448 9 -14852653.36248  21762583.857    21762583.3174   21762590.1844
 00  1  6  1 25  0.0000000  0 10  2 24  7 30 10 16  8  4  9  5       -.000000003
  -8078356.276 8  -6269324.46245  24092950.732    24092950.2684   24092958.6254
 -24459789.298 9 -18734725.72249  20505377.407    20505377.2134   20505384.3214
  -6630978.762 9  -5148651.49146  23303734.988    23303734.3504   23303741.5194
  -3603047.559 8  -2771911.03445  25097373.383    25097373.6504   25097382.3824
  -1548424.211 7  -1191572.62745  25453883.902    25453882.7564   25453894.1624
  -6599452.514 8  -4758440.69645  24298599.419    24298599.0214   24298606.1484
  -8262646.076 9  -6423950.04346  23310098.082    23310097.5364   23310105.3924
 -23292279.600 9 -18122778.33749  20576064.484    20576064.6074   20576070.5034
 -22787929.341 9 -17441791.94248  21417811.444    21417811.1984   21417817.8424
 -19158162.248 9 -14909520.68848  21748696.201    21748695.6314   21748702.5234
 00  1  6  1 25 30.0000000  0 10  2 24  7 30 10 16  8  4  9  5        .000000044
  -7990916.771 8  -6201189.77245  24109589.933    24109589.4194   24109597.5884
 -24500838.690 9 -18766712.23049  20497565.954    20497565.7414   20497572.8494
  -6566519.813 9  -5098423.73046  23316001.123    23316000.4604   23316007.6224
  -3702183.468 8  -2849159.69145  25078508.420    25078508.6404   25078517.2174
  -1639847.097 7  -1262811.56345  25436486.936    25436485.4774   25436497.0904
  -6594018.223 8  -4754206.13945  24299633.389    24299632.9244   24299640.2504
  -8150490.810 9  -6336556.36846  23331440.498    23331439.9614   23331447.9194
 -23250961.378 9 -18090582.30849  20583927.060    20583927.2044   20583933.0874
 -22752460.890 9 -17414154.18148  21424560.780    21424560.5464   21424567.2164
 -19230975.968 9 -14966258.59648  21734840.193    21734839.6344   21734846.4994
 00  1  6  1 26  0.0000000  0 10  2 24  7 30 10 16  8  4  9  5        .000000077
  -7903282.872 8  -6132903.63445  24126266.091    24126265.7034   24126273.8994
 -24541405.249 9 -18798322.50549  20489846.403    20489846.1954   20489853.2744
  -6502050.916 9  -5048188.21346  23328269.086    23328268.4764   23328275.6194
  -3801415.789 8  -2926483.57845  25059625.080    25059625.3524   25059633.8834
  -1731492.606 6  -1334223.93544  25419047.236    25419046.2404   25419057.1874
  -6588092.908 9  -4749588.98645  24300760.788    24300760.2544   24300767.8324
  -8038299.063 9  -6249134.25746  23352789.887    23352789.3514   23352797.3254
 -23209167.534 9 -18058015.66149  20591880.181    20591880.3084   20591886.1994
 -22716478.492 9 -17386115.93748  21431408.011    21431407.7954   21431414.4604
 -19303629.150 9 -15022871.40848  21721014.702    21721014.1454   21721021.0264
 00  1  6  1 26 30.0000000  0 10  2 24  7 30 10 16  8  4  9  5        .000000092
  -7815441.589 9  -6064455.84445  24142981.692    24142981.4124   24142989.4734
 -24581471.370 9 -18829542.82749  20482222.037    20482221.8234   20482228.9254
  -6437555.785 9  -4997932.25846  23340542.124    23340541.4694   23340548.6994
  -3900733.720 8  -3003874.18945  25040725.468    25040725.6074   25040734.1194
  -1823347.82217  -1405799.64854  25401567.291    25401566.8425           .0005
  -6581659.780 9  -4744576.10445  24301985.018    24301984.3974   24301991.9204
  -7926070.833 9  -6161683.71946  23374146.227    23374145.6664   23374153.6704
 -23166874.976 9 -18025060.41149  20599928.169    20599928.3064   20599934.1954
 -22679986.918 9 -17357680.94048  21438352.138    21438351.9084   21438358.5884
 -19376107.356 9 -15079347.88048  21707222.480    21707221.9334   21707228.8124
 00  1  6  1 27  0.0000000  0  9  2 24  7 10 16  8  4  9  5           .000000097
  -7727371.103 9  -5995829.49645  24159741.096    24159740.7194   24159748.7834
 -24621023.283 9 -18860362.46649  20474695.531    20474695.3144   20474702.4214
  -6373020.014 9  -4947644.63446  23352822.905    23352822.2084   23352829.4014
  -1915420.104 7  -1477544.42654  25384046.648    25384045.9104           .0005
  -6574718.503 9  -4739167.25945  24303306.007    24303305.3614   24303312.7444
  -7813791.270 9  -6074193.18346  23395512.303    23395511.7344   23395519.7884
 -23124079.504 9 -17991713.27149  20608071.869    20608072.0094   20608077.8924
 -22642986.920 9 -17328849.76448  21445392.962    21445392.7444   21445399.4274
 -19448402.448 9 -15135681.65648  21693465.182    21693464.6474   21693471.4664
 00  1  6  1 27 30.0000000  0  9  2 24  7 10 16  8  4  9  5           .000000091
  -7639077.027 9  -5927028.92745  24176542.977    24176542.6574   24176550.7244
 -24660047.479 9 -18890770.89849  20467269.417    20467269.2044   20467276.3334
  -6308444.199 9  -4897325.81246  23365111.172    23365110.4704   23365117.7384
  -2007699.65117  -1549450.70044          .000            .0005   25366497.1554
  -6567262.545 8  -4733357.38545  24304724.750    24304724.2004   24304731.4984
  -7701449.105 9  -5986653.85146  23416890.314    23416889.7754   23416897.7904
 -23080777.369 9 -17957971.33049  20616311.996    20616312.1244   20616318.0074
 -22605489.879 9 -17299631.28248  21452528.445    21452528.2144   21452534.8754
 -19520501.801 9 -15191862.91148  21679745.126    21679744.5654   21679751.3754
 00  1  6  1 28  0.0000000  0  9  2 24  7 10 16  8  4  9  5           .000000069
  -7550570.322 9  -5858062.66645  24193385.289    24193384.8784   24193393.0604
 -24698522.054 9 -18920751.05249  20459947.909    20459947.7034   20459954.8164
  -6243825.446 9  -4846973.53146  23377407.676    23377406.9884   23377414.3594
  -2100182.637 8  -1621515.44244  25348887.944    25348886.5524   25348897.7144
  -6559273.815 9  -4727132.35045  24306244.962    24306244.4274   24306251.7094
  -7589029.441 9  -5899054.13146  23438283.098    23438282.4954   23438290.5674
 -23036944.889 9 -17923816.13349  20624653.000    20624653.1404   20624659.0164
 -22567497.579 9 -17270026.88548  21459758.177    21459757.9494   21459764.5714
 -19592397.834 9 -15247885.73348  21666063.716    21666063.1474   21666069.9574
 00  1  6  1 28 30.0000000  0  9  2 24  7 10 16  8  4  9  5           .000000042
  -7461832.505 9  -5788916.31745  24210271.598    24210271.1994   24210279.3574
 -24736439.080 9 -18950296.75749  20452732.538    20452732.3284   20452739.4164
  -6179150.458 9  -4796577.42846  23389714.949    23389714.2284   23389721.5564
  -2192871.027 8  -1693740.10444  25331250.065    25331248.8014   25331259.7314
  -6550750.826 9  -4720491.03145  24307866.807    24307866.1054   24307873.4904
  -7476516.203 9  -5811381.51346  23459693.690    23459693.0534   23459701.1774
 -22992579.420 9 -17889245.61849  20633095.477    20633095.5854   20633101.4734
 -22529001.745 9 -17240030.12448  21467083.679    21467083.4274   21467090.0604
 -19664077.495 9 -15303739.95848  21652423.498    21652422.9394   21652429.7044
 00  1  6  1 29  0.0000000  0  9  2 24  7 10 16  8  4  9  5           .000000005
  -7372862.439 9  -5719588.98245  24227202.096    24227201.5484   24227209.8914
 -24773791.576 9 -18979402.56749  20445624.582    20445624.3594   20445631.4144
  -6114423.395 9  -4746140.75946  23402032.107    23402031.4204   23402038.7464
  -2285760.519 8  -1766121.45844  25313573.873    25313572.2294   25313583.6324
  -6541701.012 9  -4713439.20445  24309588.893    24309588.2824   24309595.6644
  -7363902.367 9  -5723630.48646  23481123.439    23481122.8074   23481130.8274
 -22947673.130 9 -17854253.68349  20641640.855    20641640.9694   20641646.8754
 -22489994.226 9 -17209634.65248  21474506.568    21474506.3394   21474512.9584
 -19735543.247 9 -15359427.50048  21638823.998    21638823.4244   21638830.1534
 00  1  6  1 29 30.0000000  0  9  2 24  7 10 16  8  4  9  5          -.000000036
  -7283658.942 9  -5650079.77545  24244176.996    24244176.4064   24244184.7544
 -24810577.604 9 -19008066.97349  20438624.387    20438624.1654   20438631.2504
  -6049643.309 9  -4695662.75546  23414359.335    23414358.6074   23414365.9444
  -2378831.695 8  -1838644.26944  25295863.102    25295861.4294   25295872.5054
  -6532112.225 9  -4705967.36845  24311413.625    24311413.0594   24311420.2014
  -7251186.919 9  -5635800.26946  23502572.508    23502571.8884   23502579.8424
 -22902218.931 9 -17818834.80449  20650290.443    20650290.5714   20650296.4804
 -22450453.797 9 -17178823.92748  21482030.865    21482030.6204   21482037.2504
 -19806793.986 9 -15414947.50448  21625265.377    21625264.8214   21625271.5254
 00  1  6  1 30  0.0000000  0  9  2 24  7 10 16  8  4  9  5          -.000000071
  -7194208.736 8  -5580378.31645  24261198.812    24261198.0934   24261206.6164
 -24846802.953 9 -19036294.48449  20431730.891    20431730.6674   20431737.7714
  -5984813.059 9  -4645145.68446  23426696.051    23426695.3364   23426702.6944
  -2472079.479 8  -1911304.61644  25278118.713    25278117.6214   25278128.2004
  -6521981.084 9  -4698072.91845  24313341.440    24313340.8354   24313348.0354
  -7138369.481 9  -5547890.59946  23524040.946    23524040.2764   23524048.2864
 -22856231.010 9 -17783000.03849  20659041.665    20659041.8034   20659047.7234
 -22410372.315 9 -17147591.60048  21489658.098    21489657.8504   21489664.4924
 -19877829.369 9 -15470299.69448  21611747.723    21611747.1694   21611753.8634
 00  1  6  1 30 30.0000000  0  9  2 24  7 10 16  8  4  9  5          -.000000092
  -7104512.377 8  -5510485.07945  24278267.478    24278266.7264   24278275.3044
 -24882492.523 9 -19064104.50649  20424939.346    20424939.1194   20424946.2454
  -5919952.117 9  -4594604.68946  23439038.664    23439037.9414   23439045.2894
  -2565502.965 8  -1984101.74345  25260340.810    25260339.8134   25260350.5244
  -6511323.658 9  -4689768.38945  24315369.428    24315368.8504   24315376.2384
  -7025452.777 9  -5459903.56446  23545528.285    23545527.6814   23545535.6074
 -22809733.271 9 -17746768.01449  20667889.888    20667890.0084   20667895.9244
 -22369759.807 9 -17115945.49248  21497386.390    21497386.1494   21497392.8224
 -19948648.547 9 -15525483.42148  21598271.265    21598270.6884   21598277.3724
 00  1  6  1 31  0.0000000  0  9  2 24  7 10 16  8  4  9  5          -.000000098
  -7014593.689 8  -5440418.59945  24295378.415    24295377.7304   24295386.2914
 -24917661.756 9 -19091509.07349  20418246.844    20418246.6324   20418253.7334
  -5855085.171 9  -4544059.02046  23451382.427    23451381.6764   23451389.1084
  -2659094.556 8  -2057029.77545  25242530.820    25242529.6114   25242540.4064
  -6500136.840 9  -4681051.35745  24317498.238    24317497.7364   24317505.0154
  -6912452.254 9  -5371851.22046  23567031.572    23567030.9044   23567038.9084
 -22762742.316 9 -17710151.66849  20676831.941    20676832.0574   20676837.9544
 -22328627.786 9 -17083894.56548  21505213.562    21505213.3314   21505219.9804
 -20019252.130 9 -15580499.14648  21584835.801    21584835.2504   21584841.9064
 00  1  6  1 31 30.0000000  0  9  2 24  7 10 16  8  4  9  5          -.000000079
  -6924456.721 8  -5370182.00445  24312530.904    24312530.2754   24312538.8124
 -24952333.635 9 -19118526.09149  20411648.993    20411648.7804   20411655.8614
  -5790220.183 9  -4493514.87646  23463725.784    23463725.1124   23463732.5484
  -2752857.052 8  -2130090.92245  25224688.156    25224686.8444   25224697.7444
  -6488405.451 9  -4671909.96545  24319730.606    24319730.1114   24319737.3684
  -6799391.946 9  -5283752.28046  23588546.208    23588545.5804   23588553.6314
 -22715292.234 9 -17673177.56049  20685861.386    20685861.5164   20685867.3964
 -22287009.484 9 -17051464.72048  21513133.223    21513132.9784   21513139.6374
 -20089636.530 9 -15635344.08748  21571442.061    21571441.5024   21571448.1254
 00  1  6  1 32  0.0000000  0  9  2 24  7 10 16  8  4  9  5          -.000000045
  -6834111.911 8  -5299783.45045  24329722.908    24329722.2634   24329730.9794
 -24986521.159 9 -19145165.68949  20405143.326    20405143.1034   20405150.1684
  -5725367.741 9  -4442980.51046  23476066.801    23476066.1284   23476073.5504
  -2846816.289 8  -2203305.38745  25206808.019    25206806.6714   25206817.7294
  -6476144.673 9  -4662356.10345  24322063.737    24322063.3064   24322070.4834
  -6686293.003 9  -5195623.26346  23610068.254    23610067.6304   23610075.7394
 -22667393.924 9 -17635854.18249  20694976.119    20694976.2364   20694982.1214
 -22244945.734 9 -17018687.77148  21521137.637    21521137.3974   21521144.0554
 -20159801.427 9 -15690017.98848  21558090.098    21558089.5254   21558096.1394
 00  1  6  1 32 30.0000000  0 10  2 24  7 10 16  8  4  9  5 30        .000000027
  -6743571.059 8  -5229232.15945  24346952.247    24346951.5964   24346960.3054
 -25020227.427 9 -19171430.28449  20398729.191    20398728.9844   20398736.0464
  -5660537.359 9  -4392463.32946  23488403.619    23488402.9274   23488410.3534
  -2940986.796 8  -2276684.48145  25188887.658    25188886.3774   25188897.3404
  -6463359.055 9  -4652393.21545  24324496.789    24324496.2024   24324503.3224
  -6573175.718 9  -5107479.93846  23631593.731    23631593.1584   23631601.1954
 -22619049.567 9 -17598183.23449  20704175.691    20704175.8084   20704181.6994
 -22202452.418 9 -16985576.09548  21529223.866    21529223.6394   21529230.2724
 -20229758.867 9 -15744530.23248  21544777.558    21544776.9914   21544783.6244
   -395442.513 9   -288393.10642          .000            .0004           .0004
 00  1  6  1 33  0.0000000  0 10  2 24  7 10 16  8  4  9  5 30        .000000044
  -6652837.851 8  -5158531.00245  24364218.080    24364217.5634   24364225.9204
 -25053448.352 9 -19197316.68849  20392407.429    20392407.2104   20392414.2594
  -5595739.272 9  -4341971.31546  23500734.334    23500733.6514   23500740.9844
  -3035383.281 8  -2350239.69145  25170924.294    25170923.1334   25170934.0764
  -6450053.905 9  -4642025.53345  24327028.584    24327027.9994   24327035.0904
  -6460066.707 9  -5019343.06546  23653117.577    23653117.0384   23653125.1064
 -22570275.633 9 -17560177.55549  20713457.042    20713457.1824   20713463.0554
 -22159540.872 9 -16952138.53148  21537389.679    21537389.4364   21537396.0774
 -20299527.058 9 -15798895.01848  21531501.075    21531500.5234   21531507.1704
   -495260.165 9   -366171.45252          .000            .0004           .0005
 00  1  6  1 33 30.0000000  0 10  2 24  7 10 16  8  4  9  5 30        .000000055
  -6561855.184 8  -5087635.48245  24381531.372    24381530.9374   24381539.3864
 -25086127.170 9 -19222780.67049  20386188.855    20386188.6554   20386195.6784
  -5530925.022 9  -4291466.69246  23513068.072    23513067.4324   23513074.6934
  -3129968.016 8  -2423941.64345  25152925.110    25152924.0644   25152934.8724
  -6436206.810 9  -4631235.53645  24329663.690    24329663.0654   24329670.0754
  -6346923.412 9  -4931179.47846  23674648.128    23674647.5524   23674655.5804
 -22521022.314 9 -17521798.32849  20722829.660    20722829.7844   20722835.6554
 -22116155.496 9 -16918331.74548  21545645.665    21545645.4104   21545652.0574
 -20369073.381 9 -15853086.92348  21518266.781    21518266.2344   21518272.8594
   -595106.929 9   -443971.95952          .000            .0004           .0005
 00  1  6  1 34  0.0000000  0 10  2 24  7 10 16  8  4  9  5 30        .000000052
  -6470635.023 8  -5016554.85045  24398890.088    24398889.7504   24398898.1004
 -25118249.517 9 -19247811.03649  20380076.158    20380075.9474   20380082.9574
  -5466105.323 9  -4240957.83946  23525403.005    23525402.2934   23525409.6034
  -3224732.879 8  -2497784.07345  25134891.531    25134890.5584   25134901.4514
  -6421841.421 9  -4620041.69445  24332397.286    24332396.5234   24332403.7434
  -6233735.384 8  -4842981.03846  23696187.092    23696186.4824   23696194.5444
 -22471272.146 9 -17483031.94449  20732296.824    20732296.9204   20732302.7674
 -22072260.055 9 -16884127.50148  21553998.644    21553998.4074   21554005.0874
 -20438391.595 9 -15907101.07548  21505075.960    21505075.4364   21505082.0224
   -694948.434 8   -238221.22442          .000            .0004           .0004
 00  1  6  1 34 30.0000000  0 10  2 24  7 10 16  8  4  9  5 30        .000000047
  -6379175.634 8  -4945287.78945  24416294.280    24416293.8324   24416302.3444
 -25149808.489 9 -19272402.41649  20374070.687    20374070.4654   20374077.4614
  -5401272.712 9  -4190438.92546  23537740.195    23537739.5724   23537746.8244
  -3319642.188 8  -2571739.11545  25116830.574    25116829.5914   25116840.3474
  -6406952.679 8  -4608440.05045  24335230.327    24335229.7414   24335236.9374
  -6120487.083 9  -4754735.66046  23717737.414    23717736.7834   23717745.0034
 -22421026.672 9 -17443879.61349  20741858.203    20741858.3104   20741864.1414
 -22027828.176 9 -16849505.25848  21562453.761    21562453.5444   21562460.2054
 -20507480.850 9 -15960936.82548  21491928.689    21491928.1484   21491934.7414
   -794756.181 8   -315993.02052          .000            .0004           .0005
 00  1  6  1 35  0.0000000  0  9  2 24  7 10 16  8  4  9  5           .000000044
  -6287496.219 8  -4873849.26445  24433740.320    24433739.7344   24433748.4304
 -25180816.565 9 -19296564.52549  20368170.034    20368169.7994   20368176.7774
  -5336416.952 9  -4139901.97246  23550081.771    23550081.0884   23550088.4804
  -3414684.211 8  -2645797.65945  25098744.346    25098743.5124   25098754.1294
  -6391543.563 9  -4596432.92445  24338162.588    24338161.9614   24338169.1314
  -6007180.495 9  -4666444.83846  23739299.026    23739298.4054   23739306.6394
 -22370280.220 9 -17404336.90949  20751514.899    20751514.9954   20751520.8524
 -21982863.543 9 -16814467.88348  21571010.261    21571010.0214   21571016.6914
 -20576336.872 9 -16014590.83548  21478825.816    21478825.2694   21478831.8584
 00  1  6  1 35 30.0000000  0  9  2 24  7 10 16  8  4  9  5           .000000043
  -6195627.724 8  -4802263.39045  24451222.359    24451221.7424   24451230.5354
 -25211301.009 9 -19320318.60949  20362369.045    20362368.8154   20362375.7864
  -5271532.090 9  -4089342.35146  23562428.954    23562428.3004   23562435.6824
  -3509857.692 8  -2719958.69145  25080633.219    25080632.3604   25080642.9884
  -6375623.520 9  -4584027.65445  24341191.932    24341191.1954   24341198.6824
  -5893820.592 9  -4578112.47046  23760870.745    23760870.1724   23760878.4004
 -22319029.946 9 -17364401.61349  20761267.460    20761267.5634   20761273.4124
 -21937377.534 9 -16779024.23648  21579665.984    21579665.7584   21579672.3884
 -20644958.946 9 -16068062.54548  21465767.430    21465766.8794   21465773.4694
 00  1  6  1 36  0.0000000  0  9  2 24  7 10 16  8  4  9  5           .000000046
  -6103597.046 8  -4730551.13945  24468735.241    24468734.5974   24468743.2584
 -25241282.021 9 -19343680.40949  20356663.798    20356663.5754   20356670.5514
  -5206608.793 9  -4038752.75946  23574783.501    23574782.8074   23574790.1304
  -3605170.560 8  -2794228.35045  25062495.573    25062494.7464   25062505.2714
  -6359179.092 9  -4571213.79145  24344321.128    24344320.6484   24344328.0874
  -5780425.935 9  -4489753.04746  23782448.944    23782448.4044   23782456.7204
 -22267283.593 9 -17324079.76649  20771114.453    20771114.5564   20771120.4104
 -21891396.142 9 -16743194.57848  21588415.948    21588415.7114   21588422.3254
 -20713350.281 9 -16121354.46648  21452752.929    21452752.3894   21452759.0114
 00  1  6  1 36 30.0000000  0  9  2 24  7 10 16  8  4  9  5           .000000045
  -6011402.461 9  -4658711.17545  24486279.268    24486278.4424   24486287.1964
 -25270767.910 9 -19366656.40149  20351052.831    20351052.6094   20351059.5454
  -5141623.998 9  -3988115.24046  23587149.607    23587148.9274   23587156.2934
  -3700635.729 7  -2868616.66145  25044328.998    25044328.2334   25044338.6424
  -6342202.781 9  -4557985.47945  24347551.734    24347551.0924   24347558.6104
  -5667020.120 9  -4401384.91346  23804029.433    23804028.9034   23804037.2024
 -22215044.064 9 -17283373.62249  20781055.291    20781055.3954   20781061.2534
 -21844947.220 9 -16707000.60548  21597254.883    21597254.6424   21597261.2474
 -20781531.941 9 -16174483.00048  21439778.367    21439777.8314   21439784.4254
 00  1  6  1 37  0.0000000  0  9  2 24  7 10 16  8  4  9  5           .000000028
  -5919046.053 8  -4586745.12545  24503854.166    24503853.3754   24503861.9964
 -25299753.615 9 -19389242.63849  20345537.004    20345536.7784   20345543.6864
  -5076581.219 9  -3937432.55846  23599526.852    23599526.1084   23599533.4614
  -3796283.364 7  -2943147.07645  25026127.602    25026126.8134   25026137.1094
  -6324695.034 9  -4544343.04845  24350883.250    24350882.5554   24350890.0274
  -5553623.900 9  -4313024.24546  23825608.119    23825607.5754   23825615.8234
 -22162305.694 9 -17242278.77549  20791091.110    20791091.1974   20791097.0304
 -21798046.214 9 -16670454.36748  21606179.866    21606179.6434   21606186.2184
 -20849492.284 9 -16227439.07848  21426845.905    21426845.3644   21426851.9394
 00  1  6  1 37 30.0000000  0 10  2 24  7  6 10 16  8  4  9  5       -.000000003
  -5826512.992 8  -4514641.45345  24521462.600    24521461.7654   24521470.4744
 -25328219.375 9 -19411423.72949  20340120.146    20340119.9184   20340126.8164
  -5011493.872 9  -3886715.14346  23611912.646    23611911.8744   23611919.1264
   -373179.372 8   -276281.02452          .000            .0004           .0005
  -3892124.924 8  -3017828.57045  25007889.468    25007888.4204   25007898.7124
  -6306651.973 9  -4530283.49045  24354316.706    24354316.0084   24354323.3784
  -5440237.274 9  -4224671.06346  23847184.880    23847184.2984   23847192.5344
 -22109079.734 9 -17200803.99049  20801219.653    20801219.7354   20801225.5634
 -21750681.509 9 -16633546.79948  21615193.094    21615192.8534   21615199.4154
 -20917220.490 9 -16280214.26948  21413957.642    21413957.0964   21413963.6624
 00  1  6  1 38  0.0000000  0 11  2 24  7  6 10 16  8  4  9  5 30    -.000000042
  -5733768.911 8  -4442373.33945  24539111.193    24539110.4574   24539119.0734
 -25356143.869 9 -19433183.05449  20334806.267    20334806.0374   20334812.9354
  -4946373.162 9  -3835971.72846  23624304.682    23624303.9344   23624311.1244
   -444833.469 9   -332115.26945  25551886.112    25551886.8274   25551897.5204
  -3988160.177 8  -3092660.98645  24989614.369    24989613.5314   24989623.7404
  -6288054.695 9  -4515792.07745  24357855.760    24357855.0184   24357862.3854
  -5326858.775 9  -4136324.20646  23868760.137    23868759.5824   23868767.7934
 -22055369.438 9 -17158951.80149  20811440.387    20811440.4704   20811446.2834
 -21702848.328 9 -16596274.19348  21624295.384    21624295.1624   21624301.7264
 -20984708.613 9 -16332802.39148  21401115.080    21401114.5274   21401121.0444
   -254975.054 8   -169208.02742          .000            .0004           .0004
 00  1  6  1 38 30.0000000  0 11  2 24  7  6 10 16  8  4  9  5 30    -.000000076
  -5640794.228 8  -4369925.53245  24556803.700    24556802.9304   24556811.6604
 -25383512.328 9 -19454509.10649  20329598.158    20329597.9424   20329604.8354
  -4881238.609 9  -3785217.53646  23636699.401    23636698.6344   23636705.8514
   -516446.729 8   -387917.67945  25538258.723    25538259.7014   25538270.2884
  -4084378.939 7  -3167636.39545  24971304.389    24971303.4574   24971313.7494
  -6268895.263 9  -4500862.62045  24361501.605    24361500.7644   24361508.2794
  -5213471.498 9  -4047970.49546  23890337.079    23890336.5154   23890344.6684
 -22001185.800 9 -17116730.77549  20821751.140    20821751.2324   20821757.0744
 -21654548.166 9 -16558637.69848  21633486.613    21633486.3994   21633492.9724
 -21051930.383 9 -16385182.96148  21388323.189    21388322.6324   21388329.1274
   -354951.201 9   -247111.67152          .000            .0004           .0005
 00  1  6  1 39  0.0000000  0 11  2 24  7  6 10 16  8  4  9  5 30    -.000000093
  -5547594.022 8  -4297301.98545  24574539.107    24574538.1704   24574546.9744
 -25410316.992 9 -19475395.83949  20324497.402    20324497.1734   20324504.0574
  -4816107.872 9  -3734466.31246  23649093.342    23649092.5944   23649099.7504
   -588025.269 8   -443693.01045  25524638.265    25524637.9914   25524649.2294
  -4180768.280 8  -3242744.70945  24952962.012    24952961.2344   24952971.4834
  -6249166.633 9  -4485489.64545  24365255.769    24365255.1354   24365262.4284
  -5100057.827 9  -3959596.23546  23911919.029    23911918.3644   23911926.6254
 -21946553.177 9 -17074159.89249  20832147.342    20832147.4544   20832153.2894
 -21605782.444 9 -16520638.43348  21642766.431    21642766.2154   21642772.8014
 -21118871.928 9 -16437345.17248  21375584.586    21375584.0414   21375590.5454
   -454916.56419   -325006.54545          .000            .0005   24566497.9434
 00  1  6  1 39 30.0000000  0 11  2 24  7  6 10 16  8  4  9  5 30    -.000000025
  -5454164.604 8  -4224499.82145  24592318.160    24592317.5224   24592326.3134
 -25436567.765 9 -19495850.96649  20319502.032    20319501.8024   20319508.6844
  -4750980.010 9  -3683717.32246  23661486.697    23661485.8944   23661493.2364
   -659556.275 8   -499431.24745  25511026.452    25511026.5144   25511037.1714
  -4277300.242 8  -3317964.19145  24934592.558    24934591.7824   24934601.7064
  -6228877.571 9  -4469679.95145  24369116.777    24369116.1224   24369123.3514
  -4986624.711 8  -3871206.84645  23933504.535    23933504.0104   23933512.1574
 -21891491.714 9 -17031254.84749  20842625.188    20842625.2814   20842631.1364
 -21556551.082 9 -16482276.32948  21652134.865    21652134.6594   21652141.2564
 -21185549.507 9 -16489301.69648  21362896.262    21362895.7354   21362902.2324
   -554873.720 9   -402895.11746  24547467.037    24547467.3624   24547476.1794
 00  1  6  1 40  0.0000000  0 11  2 24  7  6 10 16  8  4  9  5 30    -.000000027
  -5360515.456 8  -4151526.47245  24610139.011    24610138.5054   24610147.0764
 -25462276.209 9 -19515883.49949  20314609.812    20314609.5894   20314616.4794
  -4685843.552 9  -3632961.62446  23673881.703    23673881.0134   23673888.2634
   -731034.524 8   -555128.30645  25497424.554    25497424.4014   25497435.1244
  -4373960.160 8  -3393283.41645  24916198.617    24916197.7264   24916207.6764
  -6208040.823 9  -4453443.49645  24373081.773    24373081.1274   24373088.5444
  -4873181.925 8  -3782809.87745  23955092.043    23955091.5354   23955099.6774
 -21836005.203 9 -16988018.59848  20853183.946    20853184.0514   20853189.8494
 -21506865.903 9 -16443560.59848  21661589.676    21661589.4444   21661596.0444
 -21251973.139 9 -16541060.34148  21350256.256    21350255.7064   21350262.1884
   -654837.856 9   -480789.13346  24528444.811    24528445.3214   24528452.9784
 00  1  6  1 40 30.0000000  0 11  2 24  7  6 10 16  8  4  9  5 30    -.000000025
  -5266662.904 8  -4078394.63245  24627998.593    24627998.0824   24628006.7754
 -25487439.821 9 -19535491.49249  20309821.304    20309821.1034   20309827.9794
  -4620674.185 9  -3582180.29946  23686283.004    23686282.3884   23686289.6574
   -802449.124 8   -610775.74845  25483834.857    25483834.7484   25483845.1804
  -4470730.453 8  -3468688.65845  24897783.684    24897782.7844   24897792.6024
  -6186677.243 9  -4436796.52145  24377146.996    24377146.5124   24377153.7754
  -4759729.264 8  -3694405.24045  23976681.350    23976680.8104   23976688.9034
 -21780100.109 9 -16944456.18248  20863822.338    20863822.4464   20863828.2224
 -21456723.255 9 -16404488.39748  21671131.505    21671131.2784   21671137.8664
 -21318144.688 9 -16592622.55248  21337664.183    21337663.6334   21337670.1424
   -754807.850 9   -558687.69245  24509421.253    24509421.4214   24509429.4354
 00  1  6  1 41  0.0000000  0 11  2 24  7  6 10 16  8  4  9  5 30    -.000000022
  -5172601.687 8  -4005100.20445  24645897.831    24645897.2204   24645905.9764
 -25512068.802 9 -19554682.88749  20305134.596    20305134.3784   20305141.2544
  -4555463.652 9  -3531366.89646  23698692.284    23698691.5774   23698698.8074
   -873797.841 8   -666371.82745  25470257.644    25470257.4684   25470267.8814
  -4567600.575 9  -3544171.69545  24879349.773    24879348.7664   24879358.6184
  -6164798.986 9  -4419748.49545  24381310.395    24381309.7814   24381317.1054
  -4646281.167 8  -3606004.19745  23998269.665    23998269.1144   23998277.4514
 -21723763.696 9 -16900557.67248  20874542.791    20874542.9054   20874548.6724
 -21406106.152 9 -16365046.49448  21680763.594    21680763.3804   21680769.9524
 -21384079.187 9 -16644000.05648  21325117.286    21325116.7394   21325123.2154
   -854782.703 9   -636590.07445  24490396.725    24490397.2814   24490404.7244
 00  1  6  1 41 30.0000000  0 11  2 24  7  6 10 16  8  4  9  5 30    -.000000020
  -5078327.111 8  -3931639.51845  24663837.654    24663837.2514   24663845.7484
 -25536183.784 9 -19573473.76249  20300545.658    20300545.4554   20300552.3214
  -4490217.519 9  -3480525.74646  23711108.144    23711107.5124   23711114.8224
   -945091.939 8   -721925.32945  25456690.660    25456690.6404   25456700.9224
  -4664571.044 9  -3619732.92745  24860896.796    24860895.8304   24860905.6484
  -6142409.999 9  -4402302.50245  24385570.700    24385570.1914   24385577.6314
  -4532844.630 9  -3517612.13145  24019855.955    24019855.3714   24019863.6594
 -21666979.598 9 -16856310.31948  20885348.414    20885348.5344   20885354.2934
 -21355017.797 9 -16325237.38448  21690485.373    21690485.1594   21690491.7324
 -21449769.629 9 -16695187.38048  21312616.771    21312616.2134   21312622.6684
   -954759.081 8   -714493.65445  24471371.805    24471372.0424   24471379.6934
 00  1  6  1 42  0.0000000  0 11  2 24  7  6 10 16  8  4  9  5 30    -.000000015
  -4983861.077 8  -3858029.71145  24681813.920    24681813.4164   24681822.1864
 -25559789.253 9 -19591867.61749  20296053.671    20296053.4654   20296060.3154
  -4424949.726 9  -3429667.72646  23723528.077    23723527.4944   23723534.8834
  -1016347.703 8   -777448.95845  25443130.966    25443130.8284   25443141.3774
  -4761660.822 8  -3695387.16745  24842421.152    24842420.0214   24842429.8984
  -6119507.526 8  -4384456.39845  24389928.880    24389928.3934   24389935.6874
  -4419412.773 8  -3429223.67845  24041441.305    24041440.8274   24041448.9574
 -21609751.830 9 -16811717.25148  20896238.499    20896238.6254   20896244.3964
 -21303475.693 9 -16285074.70548  21700293.513    21700293.3004   21700299.8554
 -21515210.779 9 -16746180.45648  21300163.734    21300163.1844   21300169.6324
  -1054725.467 8   -792389.46445  24452348.776    24452349.0514   24452356.3244
 00  1  6  1 42 30.0000000  0 11  2 24  7  6 10 16  8  4  9  5 30    -.000000004
  -4889207.668 7  -3784273.91345  24699825.838    24699825.2274   24699834.0864
 -25582887.310 9 -19609866.08049  20291658.235    20291658.0184   20291664.8574
  -4359678.185 9  -3378806.78346  23735948.781    23735948.2254   23735955.6294
  -1087581.562 7   -832955.54645  25429575.382    25429575.3424   25429585.9754
  -4858886.750 9  -3771147.53045  24823919.623    24823918.3794   24823928.1374
  -6096089.786 9  -4366208.77545  24394385.193    24394384.6294   24394391.9574
  -4305982.424 9  -3340836.42645  24063026.445    24063026.0344   24063034.1404
 -21552088.819 9 -16766785.02748  20907211.406    20907211.5194   20907217.2834
 -21251499.799 9 -16244574.00748  21710184.180    21710183.9424   21710190.5274
 -21580405.911 9 -16796981.82848  21287757.483    21287756.9234   21287763.3724
  -1154673.646 8   -870271.07845  24433329.179    24433329.3494   24433336.8704
 00  1  6  1 43  0.0000000  0 11  2 24  7  6 10 16  8  4  9  5 30     .000000008
  -4794375.287 8  -3710378.59845  24717871.953    24717871.1044   24717879.9304
 -25605479.663 9 -19627470.48849  20287359.025    20287358.8044   20287365.6274
  -4294423.411 9  -3327958.90746  23748366.476    23748365.8084   23748373.2194
  -1158785.501 7   -888438.88445  25416025.387    25416025.4734   25416035.6634
  -4956267.148 8  -3847028.26045  24805388.611    24805387.3784   24805396.8094
  -6072141.062 8  -4347547.40645  24398942.397    24398941.8454   24398949.2354
  -4192557.551 9  -3252453.45745  24084610.580    24084610.1514   24084618.2254
 -21493981.985 9 -16721506.96848  20918268.762    20918268.8844   20918274.6524
 -21199098.879 9 -16203742.12048  21720155.695    21720155.4694   21720162.0604
 -21645345.139 9 -16847583.79448  21275399.919    21275399.3774   21275405.8164
  -1254612.282 8   -948145.22245  24414311.376    24414311.4244   24414319.0204
 00  1  6  1 43 30.0000000  0 11  2 24  7  6 10 16  8  4  9  5 30     .000000020
  -4699386.526 8  -3636361.42445  24735947.565    24735946.8004   24735955.7254
 -25627546.686 9 -19644665.55349  20283159.808    20283159.6114   20283166.4094
  -4229173.787 9  -3277115.03646  23760783.015    23760782.3534   23760789.7894
  -1229949.563 6   -943891.14744  25402483.075    25402482.6594   25402493.4484
  -5053808.855 8  -3923034.66145  24786826.811    24786825.8784   24786835.2444
  -6047662.001 9  -4328472.77445  24403600.671    24403600.0894   24403607.3494
  -4079136.592 9  -3164073.54746  24106193.950    24106193.5294   24106201.6764
 -21435441.659 9 -16675891.12348  20929408.619    20929408.7224   20929414.4954
 -21146285.117 9 -16162588.53648  21730205.831    21730205.6124   21730212.1964
 -21710020.159 9 -16897979.88748  21263092.662    21263092.1184   21263098.5624
  -1354546.281 8  -1026015.80045  24395294.475    24395294.6784   24395302.1554
 00  1  6  1 44  0.0000000  0 11  2 24  7  6 10 16  8  4  9  5 30     .000000026
  -4604238.712 8  -3562220.29845  24754053.576    24754052.9064   24754061.9374
 -25649049.843 9 -19661421.23449  20279067.884    20279067.6844   20279074.4954
  -4163910.891 9  -3226260.82846  23773202.131    23773201.4954   23773208.8954
  -1301052.282 7   -999295.57154  25388951.962    25388951.2474           .0005
  -5151508.339 8  -3999164.01045  24768235.075    24768234.0394   24768243.5564
  -6022655.568 9  -4308987.23045  24408359.304    24408358.6854   24408365.9004
  -3965724.377 9  -3075700.43346  24127775.687    24127775.1694   24127783.3064
 -21376466.999 9 -16629936.82948  20940631.154    20940631.2634   20940637.0494
 -21093052.663 9 -16121108.69948  21740335.616    21740335.3694   21740341.9614
 -21774432.633 9 -16948171.39448  21250835.348    21250834.7934   21250841.2304
  -1454480.737 8  -1103886.69145  24376277.462    24376277.7154   24376285.1694
 00  1  6  1 44 30.0000000  0 11  2 24  7  6 10 16  8  4  9  5 30     .000000025
  -4508909.417 8  -3487937.76845  24772194.204    24772193.5074   24772202.4644
 -25669984.639 9 -19677734.04149  20275084.134    20275083.9224   20275090.7234
  -4098621.583 9  -3175386.04646  23785626.379    23785625.7244   23785633.0694
  -1372088.871 7  -1054648.52944  25375433.894    25375433.5234   25375444.4004
  -5249343.320 8  -4075398.92845  24749617.654    24749616.6074   24749626.0304
  -5997112.593 9  -4289083.57145  24413219.938    24413219.4004   24413226.5324
  -3852320.789 9  -2987334.03646  24149355.641    24149355.1494   24149363.2754
 -21317041.004 9 -16583630.85248  20951939.540    20951939.6544   20951945.4364
 -21039381.196 9 -16079286.77848  21750548.952    21750548.7084   21750555.3174
 -21838564.139 9 -16998143.97048  21238631.484    21238630.9424   21238637.3834
  -1554424.936 8  -1181765.21145  24357258.595    24357258.7914   24357266.4174
 00  1  6  1 45  0.0000000  0 11  2 24  7  6 10 16  8  4  9  5 30     .000000015
  -4413388.501 8  -3413505.92545  24790371.236    24790370.5244   24790379.3664
 -25690350.017 9 -19693603.13949  20271208.687    20271208.4644   20271215.2764
  -4033289.618 9  -3124478.02246  23798058.683    23798057.9984   23798065.3564
  -1443050.735 8  -1109943.40645  25361930.323    25361929.6914   25361941.0824
  -5347286.651 8  -4151718.29445  24730979.653    24730978.4604   24730988.0334
  -5971034.098 9  -4268762.62845  24418182.552    24418182.0854   24418189.1734
  -3738932.885 9  -2898979.88346  24170932.757    24170932.2914   24170940.3694
 -21257155.247 9 -16536966.60948  20963335.429    20963335.5454   20963341.3254
 -20985246.538 9 -16037103.93148  21760850.447    21760850.1974   21760856.7874
 -21902396.633 9 -17047883.54248  21226484.517    21226483.9714   21226490.4214
  -1654382.415 8  -1259654.07645  24338237.289    24338237.3694   24338244.9914
 00  1  6  1 45 30.0000000  0 11  2 24  7  6 10 16  8  4  9  5 30     .000000001
  -4317666.281 8  -3338917.21545  24808586.647    24808585.9144   24808594.6704
 -25710143.132 9 -19709026.31749  20267442.164    20267441.9524   20267448.7734
  -3967898.435 9  -3073523.84646  23810502.137    23810501.4434   23810508.8454
  -1513949.667 8  -1165189.22445  25348438.765    25348438.2314   25348449.4964
  -5445313.215 8  -4228102.52345  24712325.692    24712324.5544   24712333.9314
  -5944427.561 8  -4248030.25245  24423245.539    24423245.0104   24423252.3294
  -3625557.785 9  -2810635.71746  24192507.449    24192506.9364   24192515.0914
 -21196816.279 9 -16489949.22348  20974817.522    20974817.6364   20974823.4294
 -20930640.776 9 -15994553.98948  21771241.565    21771241.3334   21771247.9144
 -21965934.738 9 -17097393.72748  21214393.594    21214393.0614   21214399.5174
  -1754347.702 8  -1337548.98845  24319214.426    24319214.5194   24319222.0524
 00  1  6  1 46  0.0000000  0 11  2 24  7  6 10 16  8  4  9  5 30    -.000000011
  -4221723.730 8  -3264156.79645  24826843.914    24826843.2144   24826851.7884
 -25729385.032 9 -19724019.97949  20263780.544    20263780.3374   20263787.1414
  -3902455.024 9  -3022528.97646  23822955.631    23822954.9524   23822962.3314
  -1584792.445 8  -1220391.32345  25334957.896    25334957.4844   25334968.3074
  -5543415.845 8  -4304546.01145  24693657.159    24693656.0884   24693665.4584
  -5917283.322 8  -4226878.86045  24428410.902    24428410.4134   24428417.6554
  -3512194.279 9  -2722300.57146  24214079.890    24214079.3624   24214087.5224
 -21136023.137 9 -16442577.93048  20986386.048    20986386.1774   20986391.9754
 -20875553.677 9 -15951628.97748  21781724.281    21781724.0964   21781730.6334
 -22029172.590 9 -17146669.94448  21202359.867    21202359.3024   21202365.7494
  -1854310.987 8  -1415442.33345  24300191.965    24300192.0984   24300199.7124
 00  1  6  1 46 30.0000000  0 11  2 24  7  6 10 16  8  4  9  5 30    -.000000014
  -4125577.475 8  -3189237.62145  24845139.961    24845139.2784   24845147.8554
 -25748122.515 9 -19738620.58449  20260214.891    20260214.6654   20260221.4804
  -3836976.344 9  -2971506.63046  23835415.913    23835415.1564   23835422.5304
  -1655586.754 8  -1275555.66945  25321486.170    25321485.7604   25321496.6454
  -5641601.343 8  -4381054.10045  24674972.829    24674971.8934   24674981.2864
  -5889602.599 9  -4205309.43446  24433678.386    24433677.7574   24433685.1334
  -3398849.292 9  -2633979.83446  24235648.830    24235648.2404   24235656.4674
 -21074791.490 9 -16394864.94348  20998038.013    20998038.1414   20998043.9524
 -20819990.354 9 -15908332.88248  21792297.664    21792297.4564   21792304.0064
 -22092112.021 9 -17195713.62448  21190382.847    21190382.2844   21190388.7184
  -1954269.033 9  -1493331.61145  24281170.517    24281170.5554   24281178.2734
 00  1  6  1 47  0.0000000  0 11  2 24  7  6 10 16  8  4  9  5 30    -.000000017
  -4029249.782 8  -3114177.10345  24863470.508    24863469.9894   24863478.7024
 -25766362.611 9 -19752833.62049  20256743.889    20256743.6684   20256750.4924
  -3771470.300 9  -2920462.95046  23847881.261    23847880.5164   23847887.8504
  -1726335.795 8  -1330684.72545  25308023.115    25308022.8404   25308033.2264
  -5739888.666 8  -4457641.52245  24656269.109    24656268.4014   24656277.5484
  -5861400.921 8  -4183334.06045  24439044.948    24439044.2824   24439051.6934
  -3285550.688 8  -2545695.24946  24257208.779    24257208.1944   24257216.4074
 -21013146.255 9 -16346829.68248  21009768.718    21009768.8404   21009774.6544
 -20763973.337 9 -15864683.26148  21802957.319    21802957.1174   21802963.6974
 -22154774.855 9 -17244541.78048  21178458.463    21178457.9094   21178464.3314
  -2054213.524 9  -1571210.32345  24262151.717    24262151.7224   24262159.4384
 00  1  6  1 47 30.0000000  0 11  2 24  7  6 10 16  8  4  9  5 30    -.000000017
  -3932752.223 8  -3038984.20645  24881833.361    24881832.9064   24881841.7724
 -25784107.035 9 -19766660.41149  20253367.180    20253366.9664   20253373.7864
  -3705952.169 9  -2869409.85446  23860348.887    23860348.1754   23860355.4964
  -1797050.982 8  -1385787.38945  25294566.500    25294566.1874   25294576.3334
  -5838297.260 8  -4534323.42645  24637542.473    24637541.6254   24637551.0344
  -5832675.613 9  -4160950.68646  24444511.115    24444510.5374   24444518.0184
  -3172310.112 8  -2457455.89845  24278757.718    24278757.1374   24278765.4614
 -20951100.016 9 -16298481.94648  21021575.695    21021575.8164   21021581.6424
 -20707525.959 9 -15820698.29148  21813698.878    21813698.6714   21813705.2854
 -22217165.883 9 -17293158.13548  21166585.816    21166585.2484   21166591.6414
  -2154130.433 9  -1649067.54846  24243138.146    24243138.1354   24243145.8484
 00  1  6  1 48  0.0000000  0 11  2 24  7  6 10 16  8  4  9  5 30    -.000000018
  -3836089.565 8  -2963662.66945  24900227.678    24900227.2014   24900235.9154
 -25801364.223 9 -19780107.54749  20250083.253    20250083.0194   20250089.8274
  -3640437.930 9  -2818359.80246  23872815.753    23872815.2134   23872822.4134
  -1867736.898 8  -1440867.19445  25281115.299    25281115.0484   25281125.0674
  -5936838.467 8  -4611108.65045  24618790.723    24618789.8564   24618799.2504
  -5803418.613 8  -4138152.99946  24450078.611    24450077.9834   24450085.3974
  -3059142.064 8  -2369273.03345  24300292.850    24300292.2184   24300300.7914
 -20888659.872 9 -16249827.27648  21033457.614    21033457.7304   21033463.5454
 -20650657.885 9 -15776385.51348  21824520.536    21824520.3294   21824526.9574
 -22279286.119 9 -17341563.49048  21154764.700    21154764.1524   21154770.5474
  -2254013.768 9  -1726898.59246  24224130.974    24224131.0134   24224138.6954
 00  1  6  1 48 30.0000000  0 11  2 24  7  6 10 16  8  4  9  5 30    -.000000024
  -3739270.702 8  -2888219.33845  24918651.722    24918651.4464   24918660.3254
 -25818113.657 9 -19793159.02749  20246895.912    20246895.6964   20246902.4944
  -3574931.175 9  -2767315.58146  23885281.336    23885280.6754   23885287.9484
  -1938395.063 8  -1495925.32945  25267669.464    25267669.2664   25267679.2074
  -6035501.299 8  -4687988.67845  24600015.815    24600014.8344   24600024.2074
  -5773636.569 8  -4114946.17846  24455745.945    24455745.3604   24455752.7774
  -2946048.995 8  -2281148.61845  24321813.672    24321813.0704   24321821.6424
 -20825825.339 9 -16200865.28648  21045414.630    21045414.7434   21045420.5384
 -20593388.878 9 -15731760.31748  21835418.476    21835418.2544   21835424.8474
 -22341136.260 9 -17389758.37348  21142994.989    21142994.4304   21143000.8284
  -2353867.152 9  -1804706.29946  24205129.483    24205129.5484   24205137.1584
 00  1  6  1 49  0.0000000  0 11  2 24  7  6 10 16  8  4  9  5 30    -.000000034
  -3642295.699 8  -2812654.31944  24937105.420    24937104.8434   24937114.2924
 -25834325.703 9 -19805791.76249  20243810.835    20243810.6024   20243817.4044
  -3509427.178 9  -2716273.50546  23897746.353    23897745.7054   23897752.9644
  -2009029.754 9  -1550965.18245  25254228.105    25254227.9214   25254237.8464
  -6134273.368 8  -4764953.80145  24581220.098    24581219.1564   24581228.4164
  -5743329.625 8  -4091330.38445  24461512.992    24461512.4474   24461520.0274
  -2833022.037 8  -2193075.70645  24343322.001    24343321.2784   24343329.9304
 -20762596.508 9 -16151596.05448  21057446.653    21057446.7534   21057452.5274
 -20535724.251 9 -15686826.84148  21846391.703    21846391.4884   21846398.0694
 -22402724.488 9 -17437749.16848  21131275.104    21131274.5534   21131280.9374
  -2453693.983 9  -1882493.32146  24186133.035    24186133.1584   24186140.6164
 00  1  6  1 49 30.0000000  0 11  2 24  7  6 10 16  8  4  9  5 30    -.000000038
  -3545157.425 8  -2736962.04354  24955590.170    24955589.4264           .0005
 -25849993.874 9 -19818000.70349  20240829.268    20240829.0464   20240835.8484
  -3443919.514 9  -2665228.56146  23910212.080    23910211.3654   23910218.6254
  -2079624.439 9  -1605973.82945  25240794.252    25240794.0724   25240803.9074
  -6233140.757 8  -4841993.16945  24562406.136    24562405.2314   24562414.5934
  -5712486.423 8  -4067296.66345  24467382.295    24467381.7144   24467389.1054
  -2720016.526 8  -2105019.52445  24364826.118    24364825.6624   24364834.3494
 -20698965.589 9 -16102013.51148  21069555.192    21069555.3204   21069561.0794
 -20477647.416 9 -15641572.17148  21857443.344    21857443.1474   21857449.7044
 -22464044.389 9 -17485530.88348  21119606.264    21119605.7214   21119612.0944
  -2553494.372 9  -1960259.72846  24167141.633    24167141.7564   24167149.1954
 00  1  6  1 50  0.0000000  0 11  2 24  7  6 10 16  8  4  9  5 30    -.000000036
  -3447860.678 8  -2661146.26954  24974105.099    24974104.6944           .0005
 -25865117.942 9 -19829785.66949  20237951.258    20237951.0384   20237957.8374
  -3378399.910 9  -2614174.32346  23922680.053    23922679.2834   23922686.5954
  -2150169.504 9  -1660943.79945  25227369.898    25227369.4774   25227379.1504
  -6332086.844 8  -4919093.88345  24543577.207    24543576.2964   24543585.7264
  -5681102.771 8  -4042841.85145  24473354.253    24473353.7794   24473361.1884
  -2607014.041 8  -2016965.63945  24386329.841    24386329.3364   24386337.8124
 -20634921.890 9 -16052109.31948  21081742.267    21081742.3844   21081748.1604
 -20419157.376 9 -15595995.52348  21868573.649    21868573.4324   21868579.9944
 -22525101.423 9 -17533107.76148  21107987.523    21107986.9654   21107993.3294
  -2653277.864 9  -2038012.94846  24148153.335    24148153.5324   24148160.9934
 00  1  6  1 50 30.0000000  0 11  2 24  7  6 10 16  8  4  9  5 30    -.000000031
  -3350414.735 7  -2585214.39144  24992648.497    24992647.8714   24992656.6624
 -25879704.422 9 -19841151.73549  20235175.510    20235175.2904   20235182.0814
  -3312862.260 9  -2563106.02946  23935151.536    23935150.8004   23935157.9414
  -2220665.858 9  -1715875.80945  25213954.686    25213954.2524   25213964.0364
  -6431109.086 8  -4996253.93645  24524733.777    24524732.9714   24524742.2534
  -5649191.527 8  -4017975.92245  24479426.666    24479426.2064   24479433.7414
  -2494018.196 9  -1928916.90845  24407832.334    24407831.7604   24407840.1454
 -20570464.875 9 -16001883.06348  21094007.996    21094008.1424   21094013.9174
 -20360255.125 9 -15550097.67348  21879782.345    21879782.1224   21879788.7034
 -22585894.927 9 -17580479.29348  21096418.856    21096418.3044   21096424.6724
  -2753046.086 9  -2115754.28846  24129167.882    24129168.0654   24129175.5414
 00  1  6  1 51  0.0000000  0 11  2 24  7  6 10 16  8  4  9  5 30    -.000000020
  -3252815.47017  -2509163.06244  25011221.146    25011220.2745   25011229.1024
 -25893766.070 9 -19852108.84749  20232499.673    20232499.4524   20232506.2224
  -3247295.783 9  -2512015.25846  23947628.315    23947627.6624   23947634.7724
  -2291111.064 8  -1770767.93745  25200549.197    25200549.0434   25200558.5354
  -6530212.437 9  -5073477.21745  24505874.989    24505874.2264   24505883.3724
  -5616748.158 8  -3992695.35045  24485600.501    24485600.0324   24485607.4964
  -2381044.567 8  -1840885.52145  24429330.594    24429330.0964   24429338.4234
 -20505600.711 9 -15951339.54748  21106351.231    21106351.3674   21106357.1514
 -20300935.312 9 -15503874.45448  21891070.480    21891070.2674   21891076.8734
 -22646419.756 9 -17627641.47048  21084901.338    21084900.7874   21084907.1424
  -2852794.760 8  -2193480.39045  24110186.167    24110186.2964   24110193.8054
 00  1  6  1 51 30.0000000  0 11  2 24  7  6 10 16  8  4  9  5 30    -.000000011
  -3155060.25816  -2432990.31754  25029823.652    25029822.0925           .0005
 -25907312.826 9 -19862664.74249  20229921.777    20229921.5574   20229928.3154
  -3181709.468 9  -2460909.04045  23960108.950    23960108.3024   23960115.5334
  -2361514.562 8  -1825627.60445  25187151.666    25187151.7174   25187160.7694
  -6629401.028 9  -5150766.94245  24486999.996    24486999.2034   24487008.2504
  -5583776.826 8  -3967003.37945  24491874.656    24491874.1084   24491881.6334
  -2268126.408 9  -1752897.37645  24450818.264    24450817.7704   24450826.1984
 -20440330.942 9 -15900479.97948  21118771.696    21118771.8284   21118777.5874
 -20241210.150 9 -15457335.38348  21902435.855    21902435.6294   21902442.2244
 -22706658.700 9 -17674580.88048  21073438.237    21073437.6834   21073444.0244
  -2952528.061 9  -2271194.52745  24091207.430    24091207.5344   24091215.0994
 00  1  6  1 52  0.0000000  0 11  2 24  7  6 10 16  8  4  9  5 30    -.000000011
  -3057143.643 7  -2356691.77854  25048456.800    25048455.1064           .0005
 -25920339.631 9 -19872815.47749  20227442.825    20227442.6134   20227449.3804
  -3116103.608 9  -2409787.58645  23972593.409    23972592.6294   23972599.8564
  -2431881.695 8  -1880458.91345  25173761.077    25173761.0304   25173770.0834
  -6728665.064 9  -5228115.47145  24468110.704    24468109.8404   24468118.8234
  -5550274.122 8  -3940897.35745  24498249.973    24498249.4854   24498257.0264
  -2155310.286 9  -1664988.73145  24472286.520    24472285.9894   24472294.4394
 -20374648.459 9 -15849298.81848  21131270.667    21131270.7864   21131276.5504
 -20181090.889 9 -15410489.21648  21913876.183    21913875.9794   21913882.5344
 -22766589.041 9 -17721279.81948  21062033.865    21062033.3084   21062039.6544
  -3052244.780 9  -2348895.77145  24072231.911    24072231.9914   24072239.4544
 00  1  6  1 52 30.0000000  0 11  2 24  7  6 10 16  8  4  9  5 30    -.000000022
  -2959048.596 8  -2280254.08444  25067123.506    25067121.9024   25067130.6424
 -25932836.331 9 -19882553.15049  20225064.764    20225064.5594   20225071.3214
  -3050478.891 8  -2358651.43945  23985081.339    23985080.5944   23985087.8864
  -2502206.763 8  -1935257.46745  25160378.448    25160378.0444   25160387.5624
  -6828008.293 8  -5305525.71845  24449206.256    24449205.4074   24449214.1504
  -5516249.396 8  -3914384.56745  24504724.688    24504724.1624   24504731.8544
  -2042605.887 9  -1577167.11645  24493733.479    24493732.9424   24493741.3724
 -20308567.328 9 -15797807.01848  21143845.477    21143845.5904   21143851.3624
 -20120569.160 9 -15363329.44548  21925393.150    21925392.9364   21925399.4864
 -22826187.095 9 -17767719.83548  21050692.685    21050692.1494   21050698.4784
  -3151936.328 9  -2426577.40345  24053261.175    24053261.1844   24053268.5784
 00  1  6  1 53  0.0000000  0 11  2 24  7  6 10 16  8  4  9  5 30    -.000000045
  -2860770.081 8  -2203673.45045  25085825.293    25085823.9754   25085832.8594
 -25944778.181 9 -19891858.47049  20222792.299    20222792.0924   20222798.8314
  -2984831.190 8  -2307497.38945  23997573.526    23997572.7454   23997580.1154
  -2572487.197 8  -1990021.27545  25147004.393    25147004.3014   25147013.3544
  -6927425.571 8  -5382993.65445  24430287.628    24430286.8354   24430295.6334
  -5481698.888 8  -3887462.08445  24511299.368    24511298.7814   24511306.6214
  -1929995.394 9  -1489418.66545  24515162.578    24515161.9764   24515170.4814
 -20242091.920 9 -15746007.98948  21156495.284    21156495.4134   21156501.1904
 -20059648.789 9 -15315859.04348  21936985.879    21936985.6714   21936992.2324
 -22885435.378 9 -17813887.29749  21039418.089    21039417.5544   21039423.8664
  -3251598.546 8  -2504236.16845  24034295.979    24034296.1534   24034303.2744
 00  1  6  1 53 30.0000000  0 11  2 24  7  6 10 16  8  4  9  5 30    -.000000070
  -2762311.646 8  -2126952.65445  25104561.166    25104560.2644   25104568.9714
 -25956159.356 9 -19900726.89849  20220626.562    20220626.3524   20220633.0644
  -2919151.936 9  -2256318.73145  24010071.965    24010071.0644   24010078.3894
  -2642717.987 8  -2044746.40045  25133639.760    25133639.6434   25133648.6424
  -7026913.598 8  -5460516.73645  24411355.523    24411354.7814   24411363.5904
  -5446633.371 8  -3860138.29245  24517971.987    24517971.4424   24517979.3234
  -1817450.421 8  -1401721.28145  24536579.122    24536578.6304   24536587.1244
 -20175215.841 9 -15693896.74948  21169221.349    21169221.4934   21169227.2694
 -19998322.501 9 -15268072.33548  21948655.857    21948655.6224   21948662.2084
 -22944326.599 9 -17859776.53449  21028211.444    21028210.9034   21028217.2224
  -3351210.833 8  -2581856.03545  24015340.274    24015340.2964   24015347.4594
 00  1  6  1 54  0.0000000  0 11  2 24  7  6 10 16  8  4  9  5 30    -.000000084
  -2663674.847 8  -2050092.83645  25123331.112    25123330.2404   25123339.0564
 -25966985.738 9 -19909163.02349  20218566.343    20218566.1384   20218572.8614
  -2853423.532 8  -2205101.80145  24022579.758    24022578.7354   24022586.1264
  -2712890.977 8  -2099426.52445  25120286.089    25120285.8984   25120294.8924
  -7126475.502 8  -5538097.36645  24392409.411    24392408.8074   24392417.4324
  -5411062.507 8  -3832420.69745  24524741.031    24524740.3564   24524748.0534
  -1704941.566 8  -1314052.05845  24557988.880    24557988.3494   24557996.8564
 -20107955.041 9 -15641485.72948  21182020.626    21182020.7824   21182026.5374
 -19936594.609 9 -15219972.69448  21960402.297    21960402.0704   21960408.6844
 -23002870.805 9 -17905395.36849  21017070.828    21017070.2854   21017076.6144
  -3450751.024 9  -2659419.72045  23996398.305    23996398.1894   23996405.5114
 00  1  6  1 54 30.0000000  0 11  2 24  7  6 10 16  8  4  9  5 30    -.000000089
  -2564872.010 8  -1973103.63145  25142132.635    25142131.9244   25142140.5834
 -25977254.052 9 -19917164.29049  20216612.320    20216612.1114   20216618.8614
  -2787644.355 9  -2153845.28245  24035097.126    24035096.1294   24035103.3264
  -2783015.355 8  -2154068.74345  25106941.750    25106941.5064   25106950.5954
  -7226109.999 8  -5615734.55445  24373449.578    24373448.9134   24373457.3884
  -5375001.293 8  -3804321.04245  24531603.142    24531602.5154   24531610.3294
  -1592450.683 8  -1226396.84445  24579395.184    24579394.6194   24579403.1824
 -20040323.457 9 -15588785.78448  21194890.490    21194890.6424   21194896.3804
 -19874466.959 9 -15171561.55248  21972224.844    21972224.6354   21972231.2004
 -23061088.703 9 -17950759.93549  21005992.324    21005991.7944   21005998.1174
  -3550219.309 9  -2736927.39645  23977469.986    23977469.9934   23977477.1994
 00  1  6  1 55  0.0000000  0 11  2 24  7  6 10 16  8  4  9  5 30    -.000000081
  -2465923.315 8  -1896000.78245  25160961.983    25160961.2394   25160970.0034
 -25986973.584 9 -19924737.93149  20214762.738    20214762.5314   20214769.2544
  -2721806.131 8  -2102542.78245  24047625.642    24047624.6454   24047632.0684
  -2853092.924 8  -2208674.50045  25093606.291    25093605.9684   25093615.0504
  -7325806.729 8  -5693420.23445  24354478.034    24354477.2874   24354485.6314
  -5338446.340 8  -3775836.65145  24538559.248    24538558.8094   24538566.3384
  -1479983.873 8  -1138760.40945  24600796.810    24600796.2634   24600804.8984
 -19972314.497 9 -15535791.78148  21207832.218    21207832.3434   21207838.0564
 -19811944.392 9 -15122842.67848  21984122.518    21984122.3094   21984128.8914
 -23118999.565 9 -17995885.25149  20994972.254    20994971.7134   20994978.0294
  -3649613.141 9  -2814377.06045  23958555.874    23958555.9774   23958563.1624
 00  1  6  1 55 30.0000000  0 11  2 24  7  6 10 16  8  4  9  5 30    -.000000060
  -2366824.706 9  -1818781.11645  25179819.819    25179819.0844   25179827.8714
 -25996165.207 9 -19931900.21849  20213013.639    20213013.4124   20213020.1164
  -2655914.514 9  -2051198.65545  24060164.425    24060163.4364   24060170.9054
  -2923114.247 8  -2263236.44545  25080281.625    25080281.3234   25080290.2804
  -7425563.413 8  -5771152.60145  24335494.955    24335493.9684   24335502.6224
  -5301392.022 8  -3746963.12345  24545610.481    24545609.8984   24545617.3874
  -1367570.486 8  -1051165.57745  24622188.368    24622187.8244   24622196.4334
 -19903931.303 9 -15482506.17148  21220845.143    21220845.2644   21220850.9714
 -19749028.248 9 -15073817.12248  21996095.078    21996094.8704   21996101.4364
 -23176616.095 9 -18040781.21549  20984008.143    20984007.5944   20984013.9204
  -3748936.362 9  -2891771.71245  23939655.252    23939655.3714   23939662.5124
 00  1  6  1 56  0.0000000  0 11  2 24  7  6 10 16  8  4  9  5 30    -.000000052
  -2267572.229 8  -1741441.55845  25198706.855    25198706.1884   25198715.0474
 -26004820.957 9 -19938644.93849  20211366.502    20211366.2724   20211372.9634
  -2589991.242 9  -1999829.85545  24072709.241    24072708.3104   24072715.6964
  -2993080.035 8  -2317755.11645  25066967.426    25066967.1894   25066976.1394
  -7525366.412 8  -5848921.05045  24316502.952    24316501.8774   24316510.6214
  -5263814.417 8  -3717681.86745  24552760.983    24552760.4394   24552768.0794
  -1255238.767 8   -963634.36845  24643564.478    24643563.8964   24643572.4144
 -19835178.994 9 -15428932.93648  21233928.256    21233928.3974   21233934.1174
 -19685716.650 9 -15024483.42348  22008142.856    22008142.6404   22008149.1974
 -23233932.844 9 -18085443.58649  20973101.098    20973100.5454   20973106.8834
  -3848207.839 9  -2969126.06646  23920764.592    23920764.7094   23920771.7344
 00  1  6  1 56 30.0000000  0 11  2 24  7  6 10 16  8  4  9  5 30    -.000000037
  -2168162.982 8  -1663979.84645  25217623.777    25217623.2234   25217632.0964
 -26012945.306 9 -19944975.58049  20209820.436    20209820.2134   20209826.9244
  -2524048.084 9  -1948445.59545  24085257.734    24085256.9744   24085264.2754
  -3063000.229 8  -2372238.24345  25053661.842    25053661.6414   25053670.6954
  -7625209.793 8  -5926720.94645  24297503.170    24297502.1494   24297511.0104
  -5225702.492 8  -3687984.26245  24560013.243    24560012.7874   24560020.5774
  -1143006.894 8   -876180.98845  24664921.629    24664920.9504   24664929.4674
 -19766047.085 9 -15375063.90848  21247083.608    21247083.7404   21247089.4784
 -19621997.453 9 -14974832.11748  22020268.174    22020267.9564   22020274.5164
 -23290949.445 9 -18129872.08249  20962251.170    20962250.6164   20962256.9504
  -3947445.475 9  -3046454.07046  23901880.298    23901880.3634   23901887.3714
 00  1  6  1 57  0.0000000  0 11  2 24  7  6 10 16  8  4  9  5 30    -.000000014
  -2068593.346 8  -1586393.11645  25236571.182    25236570.6464   25236579.4644
 -26020568.084 9 -19950915.38349  20208369.865    20208369.6374   20208376.3504
  -2458083.348 9  -1897044.49446  24097810.420    24097809.7634   24097816.9854
  -3132870.003 7  -2426682.06145  25040365.980    25040365.7654   25040374.5184
  -7725108.783 8  -6004564.18545  24278492.916    24278491.8704   24278500.8134
  -5187053.924 8  -3657868.47545  24567368.066    24567367.5154   24567375.2294
  -1030883.899 8   -788812.45145  24686257.766    24686257.1204   24686265.7694
 -19696543.399 9 -15320905.18148  21260309.683    21260309.8044   21260315.5564
 -19557876.464 9 -14924867.72548  22032470.003    22032469.7994   22032476.3614
 -23347661.916 9 -18174063.58749  20951459.129    20951458.5774   20951464.8874
  -4046637.269 9  -3123746.33446  23883004.640    23883004.7304   23883011.8574
 00  1  6  1 57 30.0000000  0 11  2 24  7  6 10 16  8  4  9  5 30    -.000000028
  -1968844.701 8  -1508666.95545  25255552.716    25255552.3754   25255561.4254
 -26027685.753 9 -19956461.60049  20207015.396    20207015.1844   20207021.8764
  -2392085.535 9  -1845617.61946  24110369.378    24110368.7494   24110375.8744
  -3202676.685 8  -2481076.72345  25027081.985    25027081.7034   25027091.0754
  -7825057.361 8  -6082446.08245  24259473.177    24259472.3064   24259481.2064
  -5147855.099 8  -3627323.91945  24574827.362    24574826.8724   24574834.5954
   -918853.564 8   -701516.12945  24707576.393    24707575.7614   24707584.4314
 -19626661.202 9 -15266451.51348  21273607.837    21273607.9684   21273613.7084
 -19493349.453 9 -14874586.95648  22044749.143    22044748.8984   22044755.4494
 -23404038.854 9 -18217993.63949  20940730.948    20940730.3944   20940736.6784
  -4145767.327 9  -3200990.51246  23864140.758    23864140.8884   23864147.9184
 00  1  6  1 58  0.0000000  0 11  2 24  7  6 10 16  8  4  9  5 30     .000000004
  -1868954.363 8  -1430830.35345  25274561.199    25274560.6364   25274569.9114
 -26034328.262 9 -19961637.56149  20205751.381    20205751.1604   20205757.8284
  -2326078.797 9  -1794183.80446  24122930.119    24122929.5434   24122936.5974
  -3272463.129 7  -2535455.60745  25013801.804    25013801.5944   25013810.8254
  -7925081.541 9  -6160386.88545  24240439.115    24240438.3244   24240447.0414
  -5108146.047 8  -3596381.78645  24582383.755    24582383.3904   24582390.8924
   -806926.122 8   -614299.96845  24728875.349    24728874.9254   24728883.4294
 -19556420.850 9 -15211718.75848  21286974.120    21286974.2444   21286979.9634
 -19428447.446 9 -14824013.97548  22057099.635    22057099.3684   22057105.9404
 -23460100.812 9 -18261678.25249  20930062.690    20930062.1594   20930068.4254
  -4244860.005 9  -3278205.57346  23845284.000    23845284.1344   23845291.1874
 00  1  6  1 58 30.0000000  0 11  2 24  7  6 10 16  8  4  9  5 30     .000000032
  -1768944.360 8  -1352900.48645  25293592.380    25293591.9614   25293601.7984
 -26040517.907 9 -19966460.64149  20204573.520    20204573.3054   20204579.9594
  -2260055.795 9  -1742737.32046  24135493.903    24135493.3064   24135500.3924
  -3342229.652 8  -2589819.00245  25000525.612    25000525.4174   25000534.8004
  -8025193.838 9  -6238396.33946  24221388.345    24221387.5324   24221396.3154
  -5067955.821 8  -3565064.70945  24590031.812    24590031.2664   24590038.8544
   -695101.834 8   -527164.17645  24750154.737    24750154.4544   24750162.9294
 -19485835.635 9 -15156717.28348  21300406.051    21300406.1664   21300411.8604
 -19363193.426 9 -14773166.70348  22069517.083    22069516.8314   22069523.4124
 -23515855.547 9 -18305123.47249  20919452.937    20919452.3944   20919458.6294
  -4343909.978 9  -3355387.34346  23826435.373    23826435.5124   23826442.5824
 00  1  6  1 59  0.0000000  0 11  2 24  7  6 10 16  8  4  9  5 30     .000000053
  -1668838.031 7  -1274895.58944  25312642.133    25312642.0024   25312651.2734
 -26046247.315 9 -19970925.09349  20203483.212    20203483.0004   20203489.6584
  -2194025.155 9  -1691284.87046  24148059.081    24148058.4674   24148065.5744
  -3411970.447 8  -2644162.39445  24987254.350    24987254.1344   24987263.3194
  -8125380.752 9  -6316463.93046  24202323.383    24202322.5714   24202331.2884
  -5027294.881 8  -3533380.82545  24597769.276    24597768.6704   24597776.1744
   -583395.434 8   -440120.23045  24771411.832    24771411.4584   24771419.8934
 -19414909.927 9 -15101450.49048  21313902.747    21313902.8724   21313908.5424
 -19297607.649 9 -14722060.91848  22081997.630    22081997.3714   22082003.9824
 -23571290.341 9 -18348319.38949  20908904.036    20908903.4874   20908909.7204
  -4442918.130 9  -3432536.53546  23807594.760    23807594.9254   23807602.0114
 00  1  6  1 59 30.0000000  0 11  2 24  7  6 10 16  8  4  9  5 30     .000000049
  -1568646.198 7  -1196824.03354  25331708.208    25331707.1164           .0005
 -26051494.547 9 -19975013.82849  20202484.685    20202484.4714   20202491.1244
  -2128015.488 9  -1639848.77346  24160620.284    24160619.6714   24160626.8384
  -3481711.096 8  -2698505.67545  24973983.140    24973982.9714   24973992.0834
  -8225624.914 9  -6394576.13846  24183247.591    24183246.6574   24183255.3844
  -4986174.254 8  -3501338.75645  24605594.228    24605593.6124   24605601.1674
   -471821.790 8   -353179.71245  24792643.736    24792643.1604   24792651.5774
 -19343638.043 9 -15045913.94948  21327465.335    21327465.4634   21327471.1414
 -19231699.705 9 -14670704.09748  22094539.469    22094539.1994   22094545.8444
 -23626404.773 9 -18391265.67049  20898416.074    20898415.5084   20898421.7344
  -4541912.337 9  -3509674.84046  23788756.797    23788756.9064   23788763.9744
 00  1  6  2  0  0.0000000  0 11  2 24  7  6 10 16  8  4  9  5 30     .000000028
  -1468348.81516  -1118670.25953          .000            .0005           .0005
 -26056221.733 9 -19978697.33049  20201585.138    20201584.9244   20201591.5574
  -2062017.531 9  -1588421.80946  24173179.274    24173178.6364   24173185.8514
  -3551444.212 8  -2752843.09145  24960713.303    24960713.1484   24960722.1854
  -8325888.503 9  -6472703.46746  24164167.955    24164166.9864   24164175.6944
  -4944575.138 8  -3468923.82545  24613510.464    24613509.7224   24613517.1954
   -360368.045 8   -266332.66345  24813852.786    24813852.0474   24813860.5614
 -19272010.411 9 -14990100.20048  21341095.589    21341095.7174   21341101.4114
 -19165452.460 9 -14619082.88648  22107145.842    22107145.6014   22107152.2444
 -23681194.341 9 -18433958.81349  20887989.943    20887989.3864   20887995.6014
  -4640875.210 9  -3586788.71846  23769924.756    23769924.9134   23769931.9634
 00  1  6  2  0 30.0000000  0 10 24  7  6 10 16  8  4  9  5 30        .000000002
 -26060403.098 9 -19981955.51649  20200789.403    20200789.1854   20200795.8274
  -1996021.178 9  -1536996.08046  24185738.000    24185737.3634   24185744.5344
  -3621152.064 8  -2807160.84745  24947448.312    24947448.1914   24947457.1234
  -8426139.078 9  -6550820.64746  24145090.799    24145089.7934   24145098.4594
  -4902476.640 8  -3436119.76245  24621521.369    24621520.6964   24621528.3834
   -249032.552 8   -179577.71545  24835039.322    24835038.6404   24835046.8834
 -19200026.008 9 -14934008.44748  21354793.767    21354793.8844   21354799.5914
 -19098855.271 9 -14567188.98948  22119818.897    22119818.6884   22119825.3174
 -23735643.396 9 -18476386.62449  20877628.604    20877628.0694   20877634.2654
  -4739785.577 9  -3663861.64146  23751102.723    23751102.9044   23751109.9534
 00  1  6  2  1  0.0000000  0 10 24  7  6 10 16  8  4  9  5 30       -.000000031
 -26064016.817 9 -19984771.38549  20200101.729    20200101.5114   20200108.1624
  -1930027.453 9  -1485572.40346  24198296.130    24198295.5694   24198302.7044
  -3690844.475 8  -2861466.58445  24934186.297    24934186.1224   24934194.9694
  -8526368.012 9  -6628920.98446  24126017.719    24126016.7364   24126025.3984
  -4859864.694 8  -3402915.62445  24629630.081    24629629.4024   24629637.0914
   -137802.634 9    -92905.02045  24856205.835    24856205.2774   24856213.1694
 -19127671.253 9 -14877628.11248  21368562.442    21368562.5724   21368568.2794
 -19031891.819 9 -14515009.69448  22132561.670    22132561.4564   22132568.0854
 -23789748.629 9 -18518546.51749  20867332.669    20867332.1274   20867338.3424
  -4838639.154 9  -3740890.29046  23732291.416    23732291.5274   23732298.7324
 00  1  6  2  1 30.0000000  0 10 24  7  6 10 16  8  4  9  5 30       -.000000062
 -26067059.357 9 -19987142.17649  20199522.718    20199522.4924   20199529.1444
  -1864018.374 9  -1434136.76246  24210857.202    24210856.6334   24210863.8634
  -3760505.470 8  -2915747.85345  24920930.249    24920929.9594   24920938.8684
  -8626584.378 9  -6707011.54446  24106947.063    24106946.0894   24106954.7894
  -4816718.640 8  -3369295.28845  24637840.714    24637839.8994   24637847.4284
    -26646.281 9     -6289.64945  24877358.338    24877357.6544   24877365.5324
 -19054945.007 9 -14820958.29948  21382401.806    21382401.8914   21382407.6134
 -18964543.881 9 -14462530.79248  22145377.587    22145377.3644   22145384.0074
 -23843498.667 9 -18560429.63849  20857104.367    20857103.8174   20857110.0124
  -4937406.279 9  -3817851.55646  23713496.553    23713496.7284   23713503.8194
 00  1  6  2  2  0.0000000  0 10 24  7  6 10 16  8  4  9  5 30       -.000000078
 -26069543.600 9 -19989077.93049  20199049.972    20199049.7494   20199056.3964
  -1797973.826 9  -1382673.48146  24223425.048    24223424.4524   24223431.6554
  -3830107.316 9  -2969983.02746  24907685.477    24907685.2284   24907693.9274
  -8726794.378 8  -6785097.15046  24087877.659    24087876.7104   24087885.3004
  -4773018.925 8  -3335243.54745  24646156.351    24646155.5724   24646163.2104
     84441.938 9     80272.59745  24898497.776    24898497.0294   24898504.8184
 -18981860.690 9 -14764009.47148  21396309.255    21396309.3634   21396315.0914
 -18896814.962 9 -14409755.01648  22158265.985    22158265.7624   22158272.4534
 -23896890.398 9 -18602033.55449  20846944.270    20846943.7214   20846949.9124
  -5036067.993 9  -3894730.66946  23694721.789    23694721.8854   23694729.1214
 00  1  6  2  2 30.0000000  0 10 24  7  6 10 16  8  4  9  5 30       -.000000088
 -26071490.319 9 -19990594.82949  20198679.542    20198679.3254   20198685.9574
  -1731893.464 8  -1331182.29345  24235999.723    24235999.0274   24236006.3534
  -3899653.985 9  -3024175.19746  24894451.197    24894451.0304   24894459.6034
  -8827027.253 8  -6863200.59246  24068803.870    24068802.9254   24068811.5384
  -4728773.751 8  -3300766.76045  24654575.861    24654575.1734   24654582.7124
    195450.703 9    166772.93245  24919622.064    24919621.2954   24919629.2944
 -18908422.314 9 -14706784.75148  21410284.097    21410284.1994   21410289.9394
 -18828704.170 9 -14356681.68248  22171227.037    22171226.8094   22171233.5034
 -23949929.610 9 -18643362.78049  20836851.238    20836850.6984   20836856.8624
  -5134634.250 9  -3971535.38646  23675965.108    23675965.2704   23675972.4734
 00  1  6  2  3  0.0000000  0 10 24  7  6 10 16  8  4  9  5 30       -.000000094
 -26072908.180 9 -19991699.63949  20198409.695    20198409.4624   20198416.1114
  -1665773.424 9  -1279660.17945  24248581.764    24248581.0074   24248588.4654
  -3969140.003 9  -3078320.10545  24881228.412    24881228.1844   24881236.8864
  -8927299.966 9  -6941335.08745  24049722.528    24049721.6444   24049730.1294
  -4683988.312 8  -3265868.98545  24663098.271    24663097.6034   24663105.1484
    306379.220 8    253210.72945  24940731.011    24940730.2424   24940738.3074
 -18834629.398 9 -14649283.76948  21424326.436    21424326.5474   21424332.2834
 -18760215.229 9 -14303313.69448  22184260.065    22184259.8264   22184266.5204
 -24002619.183 9 -18684419.56549  20826824.723    20826824.1804   20826830.3344
  -5233106.855 9  -4048267.10446  23657226.315    23657226.4834   23657233.7504
 00  1  6  2  3 30.0000000  0 10 24  7  6 10 16  8  4  9  5 30       -.000000121
 -26073807.556 9 -19992400.42749  20198238.528    20198238.3204   20198244.9434
  -1599597.129 8  -1228094.22845  24261174.730    24261174.1094   24261181.3934
  -4038554.444 9  -3132409.23545  24868019.275    24868018.9794   24868027.6274
  -9027599.761 9  -7019490.70745  24030636.033    24030635.1184   24030643.6024
  -4638663.729 8  -3230551.08345  24671723.160    24671722.5934   24671730.0904
    417216.156 8    339577.13545  24961822.534    24961821.7804   24961830.0004
 -18760495.956 9 -14591517.44248  21438433.550    21438433.6614   21438439.4174
 -18691359.652 9 -14249660.01048  22197362.853    22197362.6154   22197369.2964
 -24054947.852 9 -18725195.12249  20816866.879    20816866.3434   20816872.4724
  -5331484.238 9  -4124924.64146  23638505.646    23638505.7234   23638513.0024
 00  1  6  2  4  0.0000000  0 10 24  7  6 10 16  8  4  9  5 30       -.000000112
 -26074180.981 9 -19992691.38849  20198167.456    20198167.2304   20198173.8454
  -1533364.390 8  -1176484.31245  24273778.430    24273777.8234   24273785.0644
  -4107902.080 9  -3186446.29645  24854822.804    24854822.4644   24854831.0654
  -9127917.492 8  -7097660.31145  24011546.120    24011545.1444   24011553.6334
  -4592822.786 8  -3194830.83945  24680446.363    24680445.7234   24680453.3404
    527944.714 8    425859.07645  24982893.351    24982892.7334   24982901.0564
 -18686028.786 9 -14533491.06948  21452604.176    21452604.2814   21452610.0414
 -18622136.084 9 -14195719.58948  22210535.728    22210535.4764   22210542.1124
 -24106926.975 9 -18765698.30249  20806975.548    20806975.0114   20806981.1484
  -5429772.058 9  -4201512.39546  23619801.985    23619802.0924   23619809.2244
 00  1  6  2  4 30.0000000  0 10 24  7  6 10 16  8  4  9  5 30       -.000000105
 -26074048.626 9 -19992588.23049  20198192.617    20198192.4124   20198199.0304
  -1467096.286 8  -1124846.83745  24286388.728    24286388.1554   24286395.4014
  -4177209.478 9  -3240451.99745  24841633.993    24841633.7454   24841642.1974
  -9228273.526 8  -7175859.77045  23992448.858    23992447.8754   23992456.3834
  -4546521.247 9  -3158751.66045  24689257.400    24689256.7034   24689264.0044
    638544.837 8    512040.91545  25003939.805    25003939.2334   25003947.7094
 -18611247.587 9 -14475219.99648  21466834.551    21466834.6504   21466840.4234
 -18552562.686 9 -14141506.56448  22223775.126    22223774.8814   22223781.4994
 -24158572.065 9 -18805941.19649  20797147.787    20797147.2554   20797153.4064
  -5527989.816 9  -4278045.55946  23601111.625    23601111.8204   23601118.7374
 00  1  6  2  5  0.0000000  0 10 24  7  6 10 16  8  4  9  5 30       -.000000098
 -26073412.413 9 -19992092.45349  20198313.641    20198313.4294   20198320.0694
  -1400802.577 8  -1073189.39045  24299003.644    24299003.1914   24299010.6774
  -4246463.011 9  -3294415.72945  24828455.423    24828455.0794   24828463.3154
  -9328648.659 8  -7254074.09845  23973347.978    23973347.1084   23973355.5254
  -4499761.410 9  -3122315.36945  24698155.436    24698154.7434   24698161.9344
    749012.532 8    598119.54345  25024961.049    25024960.4694   25024969.1264
 -18536149.856 9 -14416702.26848  21481125.146    21481125.2664   21481131.0214
 -18482651.413 9 -14087030.26148  22237078.839    22237078.5914   22237085.1994
 -24209859.859 9 -18845905.67849  20787388.044    20787387.5014   20787393.6454
  -5626134.812 9  -4354522.05446  23582435.200    23582435.3204   23582442.1574
 00  1  6  2  5 30.0000000  0 10 24  7  6 10 16  8  4  9  5 30       -.000000090
 -26072270.494 9 -19991202.61949  20198530.951    20198530.7284   20198537.3654
  -1334486.720 8  -1021514.70445  24311622.933    24311622.5834   24311630.2804
  -4315662.018 8  -3348336.98445  24815287.318    24815286.9244   24815295.0714
  -9429034.946 8  -7332297.14945  23954245.031    23954244.0534   23954252.5804
  -4452536.826 9  -3085516.94545  24707141.991    24707141.3924   24707148.2934
    859351.000 7    684097.44845  25045957.901    25045957.3534   25045965.7224
 -18460745.541 9 -14357945.64548  21495474.129    21495474.2434   21495480.0214
 -18412400.284 9 -14032289.13948  22250447.208    22250446.9564   22250453.6034
 -24260783.295 9 -18885586.24749  20777697.593    20777697.0604   20777703.1874
  -5724201.630 9  -4430937.61846  23563773.602    23563773.7994   23563780.4404
 00  1  6  2  6  0.0000000  0 10 24  7  6 10 16  8  4  9  5 30       -.000000083
 -26070619.874 9 -19989916.39849  20198845.033    20198844.8114   20198851.4394
  -1268161.221 8   -969832.49345  24324244.367    24324244.1074   24324251.4254
  -4384798.629 8  -3402209.62145  24802131.005    24802130.7224   24802138.8774
  -9529434.640 9  -7410530.66345  23935139.569    23935138.6884   23935146.9884
  -4404849.220 8  -3048357.72045  24716216.765    24716216.2104   24716222.9114
    969558.211 7    769973.06845  25066929.743    25066929.1584   25066937.5094
 -18385022.951 9 -14298941.01548  21509883.635    21509883.7474   21509889.5264
 -18341807.098 9 -13977281.47848  22263880.632    22263880.3964   22263887.0454
 -24311345.688 9 -18924985.48649  20768075.856    20768075.3314   20768081.4504
  -5822180.509 9  -4507284.67246  23545128.709    23545128.8774   23545135.3684
 00  1  6  2  6 30.0000000  0 10 24  7  6 10 16  8  4  9  5 30       -.000000076
 -26068473.720 9 -19988244.04349  20199253.422    20199253.1984   20199259.8134
  -1201828.711 8   -918144.79845  24336867.151    24336866.6084   24336873.9254
  -4453881.207 8  -3456040.13845  24788984.989    24788984.8734   24788992.8074
  -9629833.654 9  -7488763.64545  23916034.273    23916033.3354   23916041.6664
  -4356671.459 9  -3010816.58745  24725384.461    24725383.7134   24725390.6454
   1079628.985 8    855742.40145  25087875.561    25087874.6864   25087883.1724
 -18308979.199 9 -14239686.13648  21524354.248    21524354.3704   21524360.1514
 -18270881.950 9 -13922015.14148  22277377.284    22277377.0234   22277383.6574
 -24361531.049 9 -18964090.93149  20758525.879    20758525.3424   20758531.4604
  -5920068.457 9  -4583560.88746  23526501.197    23526501.3724   23526507.8644
 00  1  6  2  7  0.0000000  0 10 24  7  6 10 16  8  4  9  5 30       -.000000068
 -26065836.747 9 -19986189.23149  20199755.154    20199754.9414   20199761.5574
  -1135485.907 8   -866449.11645  24349491.815    24349491.3484   24349498.6824
  -4522925.133 8  -3509840.51545  24775846.306    24775845.9084   24775854.1144
  -9730217.269 9  -7566984.63646  23896931.944    23896930.9994   23896939.2464
  -4307976.170 9  -2972872.13245  24734650.805    24734649.9884   24734656.8614
   1189554.881 8    941398.84845  25108793.698    25108792.9844   25108801.6174
 -18232617.384 9 -14180183.40648  21538885.401    21538885.5204   21538891.2854
 -18199637.423 9 -13866499.94448  22290934.659    22290934.4074   22290941.0594
 -24411338.633 9 -19002902.00549  20749047.775    20749047.2434   20749053.3404
  -6017855.292 9  -4659758.30046  23507892.912    23507893.0854   23507899.5594
 00  1  6  2  7 30.0000000  0 10 24  7  6 10 16  8  4  9  5 30       -.000000058
 -26062707.933 9 -19983751.16649  20200350.535    20200350.3284   20200356.9454
  -1069117.535 9   -814733.46145  24362121.387    24362120.8054   24362128.1894
  -4591951.015 8  -3563626.84345  24762710.993    24762710.8014   24762718.6344
  -9830585.143 9  -7645193.36146  23877832.673    23877831.7414   23877839.8354
  -4258764.446 9  -2934525.26945  24744015.488    24744014.7154   24744021.5344
   1299331.204 8   1026938.75245  25129683.344    25129682.7624   25129691.3924
 -18155947.034 9 -14120440.26548  21553475.302    21553475.4194   21553481.1624
 -18128082.519 9 -13810742.89548  22304551.039    22304550.7814   22304557.4654
 -24460783.856 9 -19041430.71949  20739638.654    20739638.0974   20739644.2094
  -6115533.330 9  -4735870.95546  23489305.367    23489305.5324   23489312.0004
 00  1  6  2  8  0.0000000  0 10 24  7  6 10 16  8  4  9  5 30       -.000000045
 -26059095.397 9 -19980936.17249  20201037.957    20201037.7434   20201044.3474
  -1002715.922 9   -762991.92545  24374757.201    24374756.6174   24374764.0754
  -4660970.515 8  -3617408.16645  24749576.888    24749577.1144   24749584.4894
  -9930931.154 9  -7723385.03646  23858737.426    23858736.5504   23858744.6844
  -4209037.113 9  -2895776.63645  24753478.321    24753477.6144   24753484.5424
   1408941.421 8   1112349.23445  25150541.509    25150540.9724   25150549.6714
 -18078966.812 9 -14060455.66348  21568124.155    21568124.2784   21568129.9744
 -18056230.036 9 -13754753.96848  22318224.103    22318223.8554   22318230.5554
 -24509872.135 9 -19079681.29549  20730297.447    20730296.9044   20730303.0014
  -6213104.168 9  -4811900.08846  23470738.209    23470738.3564   23470744.7954
 00  1  6  2  8 30.0000000  0 10 24  7  6 10 16  8  4  9  5 30       -.000000029
 -26055005.913 9 -19977749.53849  20201816.145    20201815.9344   20201822.5324
   -936267.730 9   -711214.09545  24387401.984    24387401.3634   24387408.5814
  -4730002.595 8  -3671199.29545  24736440.337    24736440.1704   24736448.1534
 -10031245.906 9  -7801552.33946  23839648.042    23839647.2364   23839655.3644
  -4158802.681 9  -2856632.87745  24763037.553    24763036.8674   24763043.8174
   1518379.069 8   1197625.23545  25171366.919    25171366.4454   25171374.9944
 -18001686.262 9 -14000237.04248  21582830.112    21582830.2274   21582835.9024
 -17984095.659 9 -13698545.38547  22331950.836    22331950.5924   22331957.2774
 -24558601.013 9 -19117651.82449  20721024.617    20721024.0644   20721030.1664
  -6310575.718 9  -4887851.86546  23452189.861    23452189.9874   23452196.4474
 00  1  6  2  9  0.0000000  0 10 24  7  6 10 16  8  4  9  5 30       -.000000017
 -26050430.913 9 -19974184.57749  20202686.729    20202686.5214   20202693.1154
   -869775.668 9   -659402.05945  24400055.077    24400054.4644   24400061.4604
  -4799041.233 8  -3724995.47045  24723302.609    24723302.4834   24723310.4844
 -10131535.933 9  -7879700.37246  23820563.505    23820562.6774   23820570.8054
  -4108084.767 9  -2817112.39345  24772688.880    24772688.0054   24772695.2104
   1627645.735 9   1282767.99945  25192159.906    25192159.2914   25192167.9804
 -17924105.483 9 -13939784.47948  21597593.239    21597593.3474   21597599.0174
 -17911683.337 9 -13642120.22047  22345730.451    22345730.2134   22345736.8764
 -24606973.966 9 -19155345.00949  20711819.492    20711818.9464   20711825.0804
  -6407963.372 9  -4963738.26046  23433657.476    23433657.6464   23433664.1344
 00  1  6  2  9 30.0000000  0 10 24  7  6 10 16  8  4  9  5 30       -.000000005
 -26045359.372 9 -19970232.70149  20203651.797    20203651.5734   20203658.1694
   -803235.500 9   -607552.56045  24412717.214    24412716.6384   24412723.6314
  -4868062.529 8  -3778778.10245  24710168.153    24710167.8284   24710175.9634
 -10231804.030 9  -7957831.28146  23801483.110    23801482.2974   23801490.4834
  -4056895.592 8  -2777224.68145  24782429.818    24782429.0124   24782436.3044
   1736746.239 8   1367781.29645  25212921.202    25212920.5284   25212929.1914
 -17846225.731 9 -13879098.94548  21612413.249    21612413.3584   21612419.0564
 -17838981.020 9 -13585469.08047  22359565.296    22359565.0464   22359571.6994
 -24654996.250 9 -19192764.94449  20702681.135    20702680.6024   20702686.7194
  -6505274.041 9  -5039564.68846  23415139.798    23415139.9474   23415146.4674
 00  1  6  2 10  0.0000000  0 10 24  7  6 10 16  8  4  9  5 30        .000000004
 -26039792.512 9 -19965894.86349  20204711.101    20204710.8804   20204717.4844
   -736663.968 9   -555678.63045  24425385.325    24425384.8084   24425391.9054
  -4937049.317 8  -3832533.83145  24697040.224    24697039.9754   24697048.4114
 -10332047.918 9  -8035943.30246  23782407.320    23782406.4724   23782414.7124
  -4005238.007 8  -2736972.00845  24792259.823    24792259.1264   24792266.5614
   1845686.040 8   1452669.36645  25233651.780    25233651.0774   25233659.7204
 -17768049.901 9 -13818182.70648  21627289.588    21627289.7194   21627295.4264
 -17765975.310 9 -13528581.52347  22373457.809    22373457.5784   22373464.2524
 -24702655.915 9 -19229902.32249  20693611.790    20693611.2414   20693617.3454
  -6602514.484 9  -5115336.38446  23396635.411    23396635.5374   23396642.1254
 00  1  6  2 10 30.0000000  0 10 24  7  6 10 16  8  4  9  5 30        .000000005
 -26033726.274 9 -19961167.90149  20205865.454    20205865.2314   20205871.8284
   -670078.269 9   -503793.66645  24438056.149    24438055.7864   24438062.8164
  -5005990.376 8  -3886253.95645  24683921.067    24683920.8174   24683929.2564
 -10432268.196 9  -8114036.94146  23763335.997    23763335.2254   23763343.3564
  -3953129.629 8  -2696368.02145  24802175.778    24802175.0714   24802182.4734
   1954479.498 8   1537443.40745  25254354.469    25254353.7454   25254362.4624
 -17689579.292 9 -13757036.76848  21642222.058    21642222.1914   21642227.8954
 -17692650.589 9 -13471445.38747  22387411.043    22387410.7984   22387417.4894
 -24749933.052 9 -19266741.62649  20684615.186    20684614.6694   20684620.7704
  -6699684.449 9  -5191053.17946  23378144.489    23378144.6674   23378151.1704
 00  1  6  2 11  0.0000000  0 10 24  7  6 10 16  8  4  9  5 30        .000000000
 -26027146.655 9 -19956040.90249  20207117.480    20207117.2544   20207123.8364
   -603486.118 9   -451903.67345  24450728.373    24450727.8634   24450734.9494
  -5074861.581 8  -3939919.61845  24670815.239    24670815.0414   24670823.2994
 -10532470.155 9  -8192116.29546  23744268.127    23744267.3464   23744275.4294
  -3900558.015 8  -2655403.08945  24812179.715    24812178.8964   24812186.3054
   2063145.069 8   1622117.81045  25275032.923    25275032.0794   25275041.0144
 -17610815.830 9 -13695662.62948  21657210.261    21657210.3654   21657216.0844
 -17618980.987 9 -13414040.50947  22401429.904    22401429.6534   22401436.3564
 -24796823.615 9 -19303279.70549  20675692.216    20675691.6674   20675697.7934
  -6796767.821 9  -5266702.49446  23359670.077    23359670.2274   23359676.7504
 00  1  6  2 11 30.0000000  0 10 24  7  6 10 16  8  4  9  5 30       -.000000005
 -26020057.595 9 -19950516.94049  20208466.477    20208466.2704   20208472.8514
   -536879.485 9   -400002.39945  24463403.103    24463402.6294   24463409.7204
  -5143664.710 8  -3993532.23745  24657722.375    24657722.1344   24657730.3714
 -10632646.325 9  -8270175.54146  23725205.167    23725204.3534   23725212.4584
  -3847511.320 8  -2614067.98845  24822274.077    24822273.3474   24822280.7254
   2171681.318 8   1706691.43145  25295686.781    25295686.0424   25295694.6114
 -17531762.186 9 -13634062.38448  21672253.669    21672253.7714   21672259.4724
 -17544968.131 9 -13356368.16847  22415514.129    22415513.8724   22415520.5814
 -24843318.703 9 -19339509.62649  20666844.481    20666843.9324   20666850.0214
  -6893746.598 9  -5342270.31446  23341215.585    23341215.7834   23341222.2144
 00  1  6  2 12  0.0000000  0 10 24  7  6 10 16  8  4  9  5 30       -.000000017
 -26012464.655 9 -19944600.34349  20209911.371    20209911.1404   20209917.7204
   -470265.186 9   -348095.11846  24476079.310    24476078.8034   24476085.9314
  -5212418.228 8  -4047106.21445  24644638.893    24644638.6624   24644646.8964
 -10732794.186 9  -8348212.71346  23706147.544    23706146.8164   23706154.9394
  -3793988.354 8  -2572361.71445  24832459.278    24832458.4374   24832465.8414
   2280084.985 8   1791161.78245  25316315.418    25316314.6004   25316323.3254
 -17452411.613 9 -13572230.76148  21687353.574    21687353.6884   21687359.3704
 -17470615.104 9 -13298430.75447  22429663.055    22429662.8174   22429669.4864
 -24889402.591 9 -19375419.13049  20658075.008    20658074.4534   20658080.5204
  -6990609.325 9  -5417747.71346  23322783.184    23322783.3834   23322789.8064
 00  1  6  2 12 30.0000000  0 10 24  7  6 10 16  8  4  9  5 30       -.000000031
 -26004364.655 9 -19938288.63749  20211452.729    20211452.5134   20211459.0824
   -403626.867 9   -296169.14846  24488760.228    24488759.7344   24488766.9044
  -5281132.410 9  -4100649.54046  24631562.995    24631562.7544   24631570.9514
 -10832910.700 9  -8426225.47146  23687095.900    23687095.2054   23687103.3874
  -3739992.799 8  -2530287.25745  24842734.255    24842733.5244   24842741.0054
   2388351.991 8   1875525.70244  25336918.134    25336917.2364   25336925.8364
 -17372752.983 9 -13510159.08948  21702512.088    21702512.2044   21702517.8884
 -17395938.647 9 -13240241.32147  22443873.518    22443873.2704   22443879.9464
 -24935079.795 9 -19411011.73849  20649382.903    20649382.3604   20649388.4194
  -7087348.619 9  -5493128.92646  23304374.243    23304374.4284   23304380.9264
 00  1  6  2 13  0.0000000  0 10 24  7  6 10 16  8  4  9  5 30       -.000000042
 -25995761.038 9 -19931584.50549  20213089.951    20213089.7294   20213096.2734
   -336948.883 9   -244212.27846  24501448.635    24501448.1104   24501455.3604
  -5349818.433 9  -4154170.92246  24618492.355    24618492.1734   24618500.4224
 -10932981.572 9  -8504202.70946  23668052.880    23668052.2694   23668060.3404
  -3685500.068 8  -2487825.39445  24853103.776    24853103.1444   24853110.5304
   2496471.194 8   1959774.46744  25357492.566    25357491.5244   25357499.8824
 -17292773.284 9 -13447837.23548  21717731.720    21717731.8374   21717737.5214
 -17320969.078 9 -13181823.48847  22458139.730    22458139.5134   22458146.2054
 -24980361.218 9 -19446295.94449  20640766.129    20640765.5854   20640771.6254
  -7183958.305 9  -5568409.14646  23285989.996    23285990.2244   23285996.6404
 00  1  6  2 13 30.0000000  0 10 24  7  6 10 16  8  4  9  5 30       -.000000053
 -25986667.920 9 -19924498.94249  20214820.304    20214820.0714   20214826.6204
   -270234.823 8   -192227.27646  24514143.965    24514143.5114   24514150.6444
  -5418497.768 9  -4207687.11346  24605423.029    24605422.9004   24605431.0364
 -11032995.611 9  -8582135.63546  23649020.753    23649020.1354   23649028.1414
  -3630514.958 8  -2444979.80745  24863567.090    24863566.3414   24863573.8264
   2604428.751 8   2043897.23944  25378036.178    25378035.4914   25378044.2104
 -17212467.916 9 -13385261.60848  21733013.304    21733013.4284   21733019.1324
 -17245730.543 9 -13123196.06647  22472457.178    22472456.9424   22472463.6584
 -25025253.832 9 -19481277.18049  20632223.328    20632222.7694   20632228.8164
  -7280440.620 9  -5643590.12246  23267629.998    23267630.2554   23267636.6214
 00  1  6  2 14  0.0000000  0 10 24  7  6 10 16  8  4  9  5 30       -.000000064
 -25977088.250 9 -19917034.25149  20216643.202    20216642.9694   20216649.5214
   -203493.252 8   -140220.85645  24526844.369    24526843.9594   24526851.1234
  -5487165.276 9  -4261194.10046  24592355.888    24592355.7474   24592363.9114
 -11132955.188 9  -8660026.12046  23629999.017    23629998.2934   23630006.4314
  -3575049.143 8  -2401759.67445  24874121.838    24874121.2344   24874128.6114
   2712219.609 7   2127890.11744  25398547.914    25398547.3514   25398556.5924
 -17131845.935 9 -13322439.27548  21748355.131    21748355.2574   21748360.9664
 -17170224.266 9 -13064360.02247  22486825.549    22486825.3254   22486832.0214
 -25069774.782 9 -19515968.81049  20623751.290    20623750.7344   20623756.7764
  -7376792.738 9  -5718669.64446  23249294.808    23249295.0284   23249301.3484
 00  1  6  2 14 30.0000000  0 10 24  7  6 10 16  8  4  9  5 30       -.000000073
 -25967019.850 9 -19909188.73149  20218559.157    20218558.9534   20218565.4814
   -136726.269 8    -88194.61145  24539549.607    24539549.1944   24539556.3764
  -5555809.042 9  -4314682.59446  24579293.345    24579293.2194   24579301.3904
 -11232854.696 9  -8737869.83746  23610988.801    23610988.0334   23610996.1124
  -3519103.349 7  -2358165.55045  24884767.759    24884767.3344   24884774.7184
   2819837.08017   2211747.89844  25419026.630    25419026.8715   25419035.4094
 -17050926.255 9 -13259384.96948  21763753.605    21763753.7174   21763759.4444
 -17094473.334 9 -13005333.34047  22501240.481    22501240.2554   22501246.9334
 -25113936.109 9 -19550380.21249  20615347.675    20615347.1224   20615353.1574
  -7473019.911 9  -5793651.80846  23230983.385    23230983.6054   23230989.8314
 00  1  6  2 15  0.0000000  0 10 24  7  6 10 16  8  4  9  5 30       -.000000081
 -25956453.538 9 -19900955.22749  20220569.852    20220569.6314   20220576.1604
    -69935.089 8    -36149.53845  24552259.475    24552258.9254   24552266.3384
  -5624425.660 9  -4368149.94246  24566235.962    24566235.7994   24566243.8944
 -11332692.945 9  -8815665.81946  23591990.182    23591989.3864   23591997.3044
  -3462679.728 7  -2314199.13245  24895504.642    24895504.1024   24895511.6354
   2927274.39616   2295465.22154  25439471.014    25439471.6405           .0005
 -16969739.255 9 -13196122.35748  21779202.957    21779203.1014   21779208.8284
 -17018473.198 9 -12946112.46347  22515702.865    22515702.6244   22515709.3454
 -25157741.308 9 -19584514.11149  20607011.795    20607011.2434   20607017.2674
  -7569118.791 9  -5868534.01146  23212696.368    23212696.5854   23212702.7754
 00  1  6  2 15 30.0000000  0 10 24  7  6 10 16  8  4  9  5 30       -.000000089
 -25945376.605 9 -19892323.83649  20222677.669    20222677.4824   20222684.0104
     -3116.657 8     15916.74645  24564974.534    24564973.9434   24564981.3954
  -5692997.272 9  -4421582.24146  24553187.122    24553186.9824   24553194.9904
 -11432476.216 9  -8893418.97846  23573002.038    23573001.2614   23573009.0324
  -3405803.197 7  -2269879.75745  24906327.761    24906327.4684   24906334.8174
   3034530.06317   2379040.94354          .000            .0005           .0005
 -16888306.986 9 -13132668.62748  21794698.959    21794699.1244   21794704.8484
 -16942190.014 9 -12886671.02947  22530219.028    22530218.7744   22530225.5294
 -25201183.812 9 -19618365.39149  20598744.925    20598744.3764   20598750.4014
  -7665090.628 9  -5943317.19746  23194433.496    23194433.6884   23194439.9254
 00  1  6  2 16  0.0000000  0 10 24  7  6 10 16  8  4  9  5 30       -.000000097
 -25933775.038 9 -19883283.63749  20224885.350    20224885.1344   20224891.6734
     63737.840 8     68011.16445  24577696.374    24577695.9254   24577703.4684
  -5761520.084 9  -4474976.52046  24540147.545    24540147.4304   24540155.3284
 -11532203.652 9  -8971128.62646  23554024.484    23554023.6794   23554031.4764
  -3348479.119 7  -2225211.68645  24917236.147    24917235.7154   24917243.2884
   3141615.359 7   2462483.77154  25480258.738    25480259.7334           .0005
 -16806645.639 9 -13069036.39548  21810238.580    21810238.7264   21810244.4624
 -16865613.927 9 -12827001.35247  22544790.992    22544790.7564   22544797.5384
 -25244241.023 9 -19651916.44749  20590551.384    20590550.8484   20590556.8594
  -7760927.644 9  -6017995.33046  23176196.283    23176196.4534   23176202.7104
 00  1  6  2 16 30.0000000  0 10 24  7  6 10 16  8  4  9  5 30       -.000000106
 -25921644.590 9 -19873831.32449  20227193.710    20227193.4954   20227200.0284
    130639.731 8    120142.52345  24590427.240    24590426.8924   24590434.5854
  -5830007.110 9  -4528342.91646  24527114.781    24527114.5924   24527122.5134
 -11631865.768 9  -9048787.37846  23535059.363    23535058.5784   23535066.2044
  -3290704.489 8  -2180192.49445  24928230.382    24928229.3474   24928237.3164
   3248540.524 8   2545801.79845  25500606.715    25500607.2574   25500614.8934
 -16724749.272 9 -13005221.03248  21825822.922    21825823.0574   21825828.7854
 -16788741.881 9 -12767101.06947  22559419.275    22559419.0194   22559425.7974
 -25286885.927 9 -19685146.22549  20582436.347    20582435.8064   20582441.7934
  -7856627.969 9  -6092566.94546  23157985.070    23157985.2204   23157991.4794
 00  1  6  2 17  0.0000000  0 10 24  7  6 10 16  8  4  9  5 30       -.000000112
 -25909004.837 9 -19863982.14949  20229598.982    20229598.7704   20229605.2964
    197589.871 8    172311.44345  24603167.304    24603167.1824   24603174.7994
  -5898461.306 9  -4581683.75746  24514088.208    24514088.0804   24514095.9214
 -11731450.052 9  -9126385.48846  23516109.057    23516108.2374   23516115.9044
  -3232480.345 8  -2134823.01545  24939310.129    24939309.2654   24939316.9874
   3355320.829 8   2629007.31245  25520926.719    25520926.8594   25520934.7954
 -16642603.317 9 -12941211.18048  21841454.755    21841454.8854   21841460.6134
 -16711545.641 9 -12706948.15247  22574109.229    22574108.9694   22574115.7444
 -25329103.514 9 -19718043.02549  20574402.597    20574402.0484   20574408.0484
  -7952177.592 9  -6167021.12946  23139802.482    23139802.6484   23139808.8924
 00  1  6  2 17 30.0000000  0 10 24  7  6 10 16  8  4  9  5 30       -.000000103
 -25895873.681 9 -19853750.06049  20232097.729    20232097.5104   20232104.0364
    264591.944 8    224520.83245  24615917.494    24615917.3154   24615924.7634
  -5966868.979 9  -4634988.34746  24501070.600    24501070.3834   24501078.2254
 -11830941.183 9  -9203911.01446  23497176.541    23497175.7344   23497183.3304
  -3173786.902 8  -2089087.86145  24950479.114    24950478.3034   24950485.8314
   3461970.527 8   2712110.97845  25541221.811    25541221.5904   25541229.7714
 -16560186.161 9 -12876990.00648  21857138.260    21857138.3884   21857144.1224
 -16634023.852 9 -12646541.56047  22588861.147    22588860.8974   22588867.6864
 -25370873.390 9 -19750590.96049  20566454.033    20566453.4814   20566459.4674
  -8047556.225 9  -6241342.08046  23121652.482    23121652.6634   23121658.8314
 00  1  6  2 18  0.0000000  0 10 24  7  6 10 16  8  4  9  5 30       -.000000016
 -25882321.785 9 -19843190.12049  20234676.583    20234676.3654   20234682.8804
    331591.421 8    276728.22045  24628667.100    24628666.8894   24628674.1454
  -6035290.084 8  -4688303.40846  24488050.416    24488050.2264   24488057.9894
 -11930385.408 9  -9281399.98546  23478252.973    23478252.1354   23478259.7744
  -3114658.569 8  -2043013.84045  24961730.948    24961730.2344   24961737.7154
   3568428.221 8   2795065.01545  25561480.078    25561479.7864   25561488.1274
 -16477548.242 9 -12812596.81648  21872863.762    21872863.8814   21872869.5634
 -16556266.035 9 -12585951.06447  22603657.974    22603657.7634   22603664.5834
 -25412251.036 9 -19782833.26549  20558580.131    20558579.5724   20558585.5354
  -8142816.589 9  -6315570.86846  23103525.001    23103525.1734   23103531.3294
 00  1  6  2 18 30.0000000  0 10 24  7  6 10 16  8  4  9  5 30       -.000000014
 -25868315.653 9 -19832276.22849  20237341.865    20237341.6504   20237348.1634
    398639.396 8    328973.40945  24641425.957    24641425.8464   24641432.9914
  -6103658.702 8  -4741577.60445  24475040.159    24475039.9634   24475047.8704
 -12029724.703 9  -9358807.18146  23459349.288    23459348.4514   23459356.1374
  -3055038.143 8  -1996556.32745  24973076.375    24973075.6494   24973083.2254
   3674731.314 8   2877898.52445  25581708.964    25581708.6624   25581717.1994
 -16394620.966 9 -12747978.14748  21888644.275    21888644.3974   21888650.0824
 -16478227.783 9 -12525142.03547  22618508.184    22618507.9434   22618514.7264
 -25453203.484 9 -19814744.24449  20550787.098    20550786.5474   20550792.4954
  -8237919.035 9  -6389676.58746  23085427.580    23085427.7514   23085433.9494
 00  1  6  2 19  0.0000000  0 10 24  7  6 10 16  8  4  9  5 30        .000000012
 -25853877.238 9 -19821025.49149  20240089.387    20240089.1684   20240095.6774
    465710.530 8    381236.61045  24654188.903    24654188.9404   24654196.1594
  -6171977.962 8  -4794813.32345  24462039.358    24462039.0534   24462046.9604
 -12128981.177 9  -9436149.85946  23440461.376    23440460.5074   23440468.2724
  -2994936.885 8  -1949724.15145  24984513.267    24984512.6024   24984520.1004
   3780835.865 8   2960577.30545  25601900.025    25601899.6544   25601908.3174
 -16311429.441 9 -12683153.56548  21904475.056    21904475.1974   21904480.8864
 -16399935.740 9 -12464135.26047  22633406.658    22633406.3994   22633413.1924
 -25493764.477 9 -19846350.19049  20543068.605    20543068.0504   20543073.9944
  -8332890.141 9  -6463679.96546  23067355.034    23067355.2134   23067361.4694
 00  1  6  2 19 30.0000000  0 10 24  7  6 10 16  8  4  9  5 30        .000000037
 -25838994.073 9 -19809428.19649  20242921.574    20242921.3474   20242927.8444
    532799.867 8    433514.03145  24666955.511    24666955.5424   24666962.7024
  -6240266.057 8  -4848024.78645  24449044.394    24449044.1394   24449052.1614
 -12228173.486 9  -9513442.51846  23421585.574    23421584.7454   23421592.5644
  -2934371.263 8  -1902530.13345  24996038.555    24996037.9034   24996045.2574
   3886712.359 9   3043078.35445  25622047.700    25622047.3764   25622056.0594
 -16227994.516 9 -12618139.33048  21920352.198    21920352.3564   21920358.0644
 -16321424.136 9 -12402957.38847  22648346.832    22648346.5964   22648353.3884
 -25533944.631 9 -19877659.37249  20535422.563    20535422.0134   20535427.9484
  -8427758.574 9  -6537603.33246  23049302.113    23049302.3104   23049308.5444
 00  1  6  2 20  0.0000000  0 10 24  7  6 10 16  8  4  9  5 30        .000000053
 -25823652.058 9 -19797473.35049  20245841.002    20245840.7764   20245847.2884
    599903.429 8    485802.55745  24679724.992    24679725.0014   24679731.8214
  -6308538.048 8  -4901223.70745  24436052.485    24436052.2434   24436060.3924
 -12327300.819 9  -9590684.53146  23402722.145    23402721.3334   23402729.2514
  -2873363.547 9  -1854991.65045  25007647.952    25007647.3764   25007654.7794
   3992355.105 8   3125397.22645  25642150.827    25642150.6384   25642159.3894
 -16144305.451 9 -12552927.05848  21936277.704    21936277.8514   21936283.5704
 -16242687.002 9 -12341603.78047  22663330.036    22663329.7834   22663336.5844
 -25573735.437 9 -19908665.16849  20527850.600    20527850.0454   20527855.9664
  -8522529.410 9  -6611450.65646  23031267.774    23031267.9454   23031274.1664
 00  1  6  2 20 30.0000000  0 10 24  7  6 10 16  8  4  9  5 30        .000000057
 -25807842.780 9 -19785154.40349  20248849.389    20248849.1634   20248855.6634
    667017.975 8    538099.62745  24692496.731    24692496.4714   24692503.4604
  -6376796.730 8  -4954412.25245  24423063.150    24423063.1264   24423070.9284
 -12426357.932 9  -9667871.84546  23383872.212    23383871.4024   23383879.2874
  -2811929.047 9  -1807120.60845  25019338.604    25019338.0424   25019345.4034
   4097778.289 8   3207544.95945  25662212.163    25662212.0404   25662220.7914
 -16060361.944 9 -12487516.52047  21952251.603    21952251.7234   21952257.4074
 -16163707.219 9 -12280061.10047  22678359.370    22678359.1284   22678365.9134
 -25613120.468 9 -19939354.77749  20520355.842    20520355.2844   20520361.2294
  -8617189.463 9  -6685211.66146  23013254.515    23013254.6264   23013260.8884
 00  1  6  2 21  0.0000000  0 10 24  7  6 10 16  8  4  9  5 30        .000000045
 -25791562.707 9 -19772468.60749  20251947.380    20251947.1494   20251953.6394
    734152.499 8    590412.23745  24705272.091    24705271.5974   24705278.7314
  -6445046.439 8  -5007593.82045  24410075.583    24410075.5574   24410083.1984
 -12525329.647 9  -9744992.59646  23365038.474    23365037.6714   23365045.5604
  -2750067.218 9  -1758916.50345  25031110.544    25031109.9634   25031117.1174
   4202993.083 8   3289530.27745  25682233.914    25682233.7604   25682242.6104
 -15976175.192 9 -12421916.44547  21968271.777    21968271.9424   21968277.5784
 -16084479.333 9 -12218325.08847  22693435.897    22693435.6614   22693442.4834
 -25652064.299 9 -19969700.59449  20512945.071    20512944.5244   20512950.4534
  -8711710.363 9  -6758864.22446  22995267.658    22995267.8584   22995274.0924
 00  1  6  2 21 30.0000000  0 10 24  7  6 10 16  8  4  9  5 30        .000000024
 -25774810.797 9 -19759415.14249  20255135.142    20255134.9224   20255141.3874
    801320.985 8    642751.35045  24718053.846    24718053.2684   24718060.4904
  -6513282.271 8  -5060764.57145  24397090.697    24397090.6054   24397098.3814
 -12624198.309 9  -9822033.05746  23346224.382    23346223.5764   23346231.4594
  -2687778.505 9  -1710379.83345  25042963.654    25042963.0974   25042970.2804
   4308020.013 8   3371369.19245  25702220.083    25702219.6444   25702228.6884
 -15891739.890 9 -12356122.69147  21984339.323    21984339.4584   21984345.0834
 -16004998.954 9 -12156392.32047  22708560.504    22708560.2514   22708567.0884
 -25690542.552 9 -19999683.62349  20505622.914    20505622.3534   20505628.2794
  -8806068.248 9  -6832389.76446  22977311.883    22977312.0984   22977318.2814
 00  1  6  2 22  0.0000000  0 10 24  7  6 10 16  8  4  9  5 30        .000000003
 -25757598.155 9 -19746002.66949  20258410.565    20258410.3444   20258416.8024
    868521.554 9    695115.42145  24730841.681    24730841.1154   24730848.3054
  -6581487.137 8  -5113911.19045  24384111.829    24384111.7714   24384119.2584
 -12722958.782 9  -9898989.18546  23327430.852    23327429.9764   23327437.9334
  -2625058.078 9  -1661506.75545  25054898.979    25054898.5154   25054905.6104
   4412857.586 8   3453060.53745  25722170.425    25722169.7724   25722178.8814
 -15807057.166 9 -12290136.14347  22000453.905    22000454.0534   22000459.6244
 -15925257.607 9 -12094256.20847  22723734.719    22723734.4664   22723741.3414
 -25728550.679 9 -20029300.31749  20498390.168    20498389.6204   20498395.5314
  -8900247.839 9  -6905776.37747  22959390.057    22959390.2354   22959396.4284
 00  1  6  2 22 30.0000000  0  9 24  7  6 10 16  4  9  5 30          -.000000009
 -25739921.230 9 -19732228.41349  20261774.332    20261774.1164   20261780.5814
    935774.995 9    747520.75345  24743639.625    24743638.9364   24743646.1964
  -6649638.415 9  -5167016.05045  24371143.092    24371142.9094   24371150.3714
 -12821592.939 9  -9975846.90846  23308661.253    23308660.4504   23308668.3994
  -2561878.840 9  -1612276.17645  25066921.566    25066920.9624   25066928.3374
 -15722137.217 9 -12223964.74047  22016613.615    22016613.7464   22016619.3254
 -15845250.365 9 -12031912.90147  22738959.624    22738959.4164   22738966.1804
 -25766086.937 9 -20058549.32249  20491247.218    20491246.6854   20491252.5884
  -8994237.177 9  -6979014.74047  22941504.422    22941504.5974   22941510.7224
 00  1  6  2 23  0.0000000  0  9 24  7  6 10 16  4  9  5 30          -.000000008
 -25721764.946 9 -19718080.63749  20265229.344    20265229.1444   20265235.5954
   1003093.576 8    799976.81645  24756449.960    24756449.3264   24756456.4404
  -6717719.887 9  -5220066.51045  24358187.692    24358187.4874   24358194.8864
 -12920096.560 9 -10052602.89846  23289916.652    23289915.7874   23289923.7364
  -2498235.657 9  -1562684.05645  25079032.329    25079031.8484   25079039.1214
 -15636971.388 9 -12157601.74947  22032820.082    22032820.2264   22032825.7794
 -15764973.404 9 -11969359.41847  22754235.843    22754235.6504   22754242.3984
 -25803145.277 9 -20087425.92749  20484195.230    20484194.6874   20484200.5864
  -9088030.738 9  -7052100.56547  22923656.075    22923656.2234   22923662.3264
 00  1  6  2 23 30.0000000  0  9 24  7  6 10 16  4  9  5 30          -.000000008
 -25703122.747 9 -19703554.22349  20268776.840    20268776.6284   20268783.0744
   1070460.832 8    852470.80445  24769269.492    24769269.1414   24769276.0544
  -6785741.807 9  -5273070.54845  24345243.512    24345243.3494   24345250.7274
 -13018495.668 9 -10129277.44646  23271191.904    23271191.0204   23271198.9764
  -2434149.814 9  -1512746.98245  25091227.456    25091227.0444   25091234.0724
 -15551578.096 9 -12091061.50447  22049069.888    22049070.0564   22049075.5774
 -15684447.344 9 -11906611.84047  22769559.523    22769559.3024   22769566.0424
 -25839769.093 9 -20115963.94249  20477225.934    20477225.3924   20477231.3024
  -9181648.828 9  -7125049.64647  22905841.065    22905841.2464   22905847.2874
 00  1  6  2 24  0.0000000  0  9 24  7  6 10 16  4  9  5 30          -.000000038
 -25684038.522 9 -19688683.37649  20272408.407    20272408.2044   20272414.6514
   1137823.186 9    904960.96845  24782088.097    24782087.7284   24782094.4834
  -6853763.963 9  -5326074.76045  24332299.327    24332299.2304   24332306.4624
 -13116837.583 9 -10205907.44046  23252477.994    23252477.1754   23252484.9934
  -2369674.523 8  -1462506.46845  25103496.787    25103496.3704   25103503.3144
 -15466011.638 9 -12024386.33047  22065352.668    22065352.8144   22065358.3664
 -15603724.686 9 -11843711.06747  22784920.510    22784920.3084   22784927.0334
 -25876033.127 9 -20144221.60649  20470325.074    20470324.5294   20470330.4394
  -9275139.792 9  -7197899.67147  22888050.293    22888050.5024   22888056.4944
 00  1  6  2 24 30.0000000  0  9 24  7  6 10 16  4  9  5 30          -.000000057
 -25664443.234 9 -19673414.30249  20276137.258    20276137.0424   20276143.4854
   1205255.127 9    957505.36145  24794919.992    24794919.3454   24794926.3834
  -6921735.372 9  -5379039.41246  24319364.766    24319364.5954   24319371.9974
 -13215051.018 9 -10282437.33446  23233788.605    23233787.7734   23233795.5054
  -2304739.903 9  -1411908.02545  25115853.404    25115852.8384   25115860.0784
 -15380207.651 9 -11957526.06747  22081680.631    22081680.7904   22081686.3634
 -15522754.624 9 -11780617.51647  22800328.649    22800328.4414   22800335.1364
 -25911877.381 9 -20172152.17349  20463504.141    20463503.5914   20463509.4994
  -9368430.352 9  -7270593.53747  22870297.673    22870297.8724   22870303.8774
 00  1  6  2 25  0.0000000  0  9 24  7  6 10 16  4  9  5 30          -.000000068
 -25644334.861 9 -19657745.42449  20279963.742    20279963.5234   20279969.9504
   1272753.109 8   1010101.19245  24807764.550    24807763.9224   24807770.9614
  -6989655.753 9  -5431964.28846  24306439.938    24306439.6924   24306447.1684
 -13313142.679 9 -10358872.33746  23215122.322    23215121.5564   23215129.2154
  -2239352.177 9  -1360956.51245  25128296.315    25128295.6534   25128303.0114
 -15294168.838 9 -11890482.82347  22098053.271    22098053.4164   22098059.0114
 -15441549.027 9 -11717340.43047  22815781.599    22815781.3834   22815788.1264
 -25947307.429 9 -20199759.98249  20456762.007    20456761.4494   20456767.3654
  -9461520.712 9  -7343131.40447  22852583.134    22852583.3064   22852589.3464
 00  1  6  2 25 30.0000000  0  9 24  7  6 10 16  4  9  5 30          -.000000063
 -25623733.720 9 -19641692.56949  20283884.000    20283883.7804   20283890.2044
   1340310.763 8   1062743.50345  24820620.314    24820619.8524   24820626.7414
  -7057541.145 9  -5484861.90746  24293521.723    24293521.4854   24293528.9504
 -13411107.337 9 -10435208.37846  23196480.251    23196479.4324   23196487.0584
  -2173493.726 8  -1309638.17245  25140828.929    25140828.3364   25140835.0544
 -15207894.505 9 -11823256.05847  22114470.738    22114470.8714   22114476.4694
 -15360122.611 9 -11653891.26647  22831276.551    22831276.3364   22831283.0334
 -25982333.385 9 -20227052.91349  20450096.755    20450096.2034   20450102.1184
  -9554406.495 9  -7415509.86247  22834907.457    22834907.6234   22834913.6574
 00  1  6  2 26  0.0000000  0  9 24  7  6 10 16  4  9  5 30          -.000000048
 -25602679.185 9 -19625286.42049  20287890.540    20287890.3364   20287896.7504
   1407907.086 8   1115415.98845  24833483.390    24833482.8584   24833489.7624
  -7125413.742 9  -5537749.55446  24280606.015    24280605.6874   24280613.2464
 -13508947.900 9 -10511447.72746  23177861.733    23177860.8814   23177868.4654
  -2107176.275 8  -1257962.25254  25153448.550    25153448.0894           .0005
 -15121389.727 9 -11755849.72547  22130932.059    22130932.1654   22130937.7664
 -15278495.795 9 -11590285.94747  22846809.627    22846809.3834   22846816.0584
 -26016944.253 9 -20254022.39849  20443510.496    20443509.9634   20443515.8794
  -9647108.211 9  -7487744.89347  22817266.846    22817266.9854   22817273.0444
 00  1  6  2 26 30.0000000  0  9 24  7  6 10 16  4  9  5 30          -.000000036
 -25581182.030 9 -19608535.37649  20291981.280    20291981.0744   20291987.4974
   1475536.331 8   1168114.09745  24846352.841    24846352.3684   24846359.1294
  -7193273.113 9  -5590626.89346  24267692.700    24267692.4064   24267699.9664
 -13606673.745 9 -10587597.68046  23159265.090    23159264.2354   23159271.8274
  -2040413.633 8  -1205939.16144  25166152.847    25166152.8054   25166158.1114
 -15034656.765 9 -11688265.58247  22147436.778    22147436.8794   22147442.5194
 -15196679.492 9 -11526532.99347  22862378.724    22862378.4854   22862385.1634
 -26051118.462 9 -20280651.63049  20437007.347    20437006.8054   20437012.7114
  -9739638.886 9  -7559846.65447  22799658.789    22799658.9654   22799664.9144
 00  1  6  2 27  0.0000000  0  9 24  7  6 10 16  4  9  5 30          -.000000026
 -25559249.396 9 -19591444.99949  20296154.911    20296154.6854   20296161.1074
   1543179.687 8   1220823.20145  24859224.936    24859224.4974   24859231.4094
  -7261117.933 8  -5643492.88946  24254782.193    24254781.9444   24254789.4634
 -13704277.231 9 -10663652.31446  23140691.750    23140690.8934   23140698.4404
  -1973223.470 8  -1153583.23144  25178938.765    25178938.6134   25178944.5774
 -14947703.310 9 -11620509.63447  22163983.425    22163983.5434   22163989.1854
 -15114666.067 9 -11462626.44447  22877985.350    22877985.1014   22877991.8044
 -26084848.505 9 -20306934.76249  20430588.694    20430588.1384   20430594.0694
  -9832002.720 9  -7631818.40747  22782082.493    22782082.6634   22782088.5564
 00  1  6  2 27 30.0000000  0  9 24  7  6 10 16  4  9  5 30          -.000000019
 -25536886.613 9 -19574019.43849  20300410.377    20300410.1494   20300416.5624
   1610831.627 8   1273538.99145  24872098.691    24872098.2244   24872105.2554
  -7328958.497 9  -5696355.56446  24241872.484    24241872.2314   24241879.7844
 -13801739.497 9 -10739596.89046  23122145.254    23122144.3734   23122151.8894
  -1905621.259 8  -1100906.11744  25191803.180    25191802.8084   25191808.7304
 -14860531.159 9 -11552583.26547  22180571.736    22180571.8504   22180577.5184
 -15032450.390 9 -11398562.28147  22893630.499    22893630.2394   22893636.9644
 -26118125.952 9 -20332865.22549  20424256.187    20424255.6424   20424261.5724
  -9924201.280 9  -7703661.37247  22764537.651    22764537.8284   22764543.6784
 00  1  6  2 28  0.0000000  0  9 24  7  6 10 16  4  9  5 30          -.000000020
 -25514082.112 9 -19556249.68549  20304749.897    20304749.6844   20304756.0754
   1678496.009 8   1326264.46345  24884975.002    24884974.3704   24884981.4604
  -7396792.613 9  -5749213.23446  24228963.967    24228963.7584   24228971.2954
 -13899051.251 9 -10815424.19346  23103627.367    23103626.5624   23103634.0814
  -1837637.989 8  -1047932.06344  25204739.660    25204739.5744   25204745.6204
 -14773156.211 9 -11484498.87547  22197198.623    22197198.7394   22197204.3884
 -14950025.594 9 -11334335.16747  22909315.472    22909315.1914   22909321.9134
 -26150947.808 9 -20358440.68349  20418010.359    20418009.8264   20418015.7404
 -10016237.573 9  -7775377.90547  22747023.675    22747023.8334   22747029.6204
 00  1  6  2 28 30.0000000  0  9 24  7  6 10 16  4  9  5 30          -.000000035
 -25490811.102 9 -19538116.41449  20309178.204    20309177.9994   20309184.3934
   1746185.344 7   1379009.35345  24897855.974    24897855.1444   24897862.3274
  -7464609.940 9  -5802057.81646  24216058.701    24216058.5024   24216066.0864
 -13996207.004 9 -10891129.93346  23085139.127    23085138.2914   23085145.8834
  -1769264.132 8   -994653.84344  25217750.800    25217750.2964   25217757.0324
 -14685585.591 9 -11416262.02047  22213862.756    22213862.8534   22213868.5054
 -14867377.409 9 -11269933.97947  22925042.848    22925042.5934   22925049.3064
 -26183309.078 9 -20383657.24349  20411852.202    20411851.6594   20411857.5744
 -10108094.136 9  -7846954.39147  22729543.925    22729544.1144   22729549.8444
 00  1  6  2 29  0.0000000  0  9 24  7  6 10 16  4  9  5 30          -.000000053
 -25467063.815 9 -19519612.01949  20313697.175    20313696.9604   20313703.3594
   1813915.894 8   1431786.35545  24910744.726    24910744.0004   24910751.0444
  -7532399.702 9  -5854880.93646  24203158.685    24203158.4524   24203166.0624
 -14093187.431 9 -10966699.06746  23066684.333    23066683.4784   23066691.0034
  -1700490.066 7   -941063.61554  25230838.436    25230837.0544           .0005
 -14597821.873 9 -11347874.69347  22230563.647    22230563.7514   22230569.3374
 -14784496.305 9 -11205351.29647  22940814.586    22940814.3454   22940821.0284
 -26215210.959 9 -20408515.84049  20405781.490    20405780.9524   20405786.8794
 -10199755.052 9  -7918378.42147  22712101.361    22712101.5304   22712107.3054
 00  1  6  2 29 30.0000000  0  9 24  7  6 10 16  4  9  5 30          -.000000069
 -25442843.488 9 -19500739.02249  20318306.160    20318305.9304   20318312.3054
   1881705.614 7   1484609.46045  24923644.602    24923643.7624   24923651.1764
  -7600157.229 9  -5907678.94446  24190264.792    24190264.6194   24190272.1004
 -14190003.932 9 -11042140.43846  23048260.768    23048259.9224   23048267.4764
  -1631305.813 7   -887153.81154  25244003.120    25244003.6534           .0005
 -14509852.682 9 -11279327.26247  22247303.636    22247303.7224   22247309.2734
 -14701393.055 9 -11140595.51547  22956628.645    22956628.3674   22956635.0714
 -26246655.451 9 -20433018.03249  20399797.780    20399797.2444   20399803.1504
 -10291209.490 9  -7989641.55847  22694698.079    22694698.2574   22694704.0824
 00  1  6  2 30  0.0000000  0  9 24  7  6 10 16  4  9  5 30          -.000000087
 -25418149.440 9 -19481496.89249  20323005.272    20323005.0464   20323011.4044
   1949558.729 7   1537481.92345  24936556.405    24936555.4924   24936563.1524
  -7667872.678 9  -5960444.17446  24177378.904    24177378.7294   24177386.2444
 -14286672.444 9 -11117466.49847  23029865.383    23029864.5174   23029872.0454
  -1561697.753 7   -832913.80444  25257249.168    25257249.3414   25257255.0384
 -14421676.738 9 -11210618.72747  22264082.953    22264083.0264   22264088.5774
 -14618072.306 9 -11075670.24947  22972484.020    22972483.7604   22972490.4854
 -26277642.080 9 -20457163.44649  20393901.221    20393900.6764   20393906.5704
 -10382458.721 9  -8060744.80347  22677333.873    22677334.0484   22677339.9024
 00  1  6  2 30 30.0000000  0  9 24  7  6 10 16  4  9  5 30          -.000000098
 -25392993.687 9 -19461894.98849  20327792.221    20327791.9934   20327798.3644
   2017474.812 7   1590403.54145  24949479.895    24949479.3364   24949486.8724
  -7735534.133 9  -6013167.34646  24164503.346    24164503.1234   24164510.6634
 -14383191.461 9 -11192676.05747  23011498.396    23011497.5524   23011505.0064
  -1491638.015 7   -778321.74744  25270581.139    25270580.7514   25270586.2264
 -14333292.572 9 -11141747.93547  22280901.896    22280901.9634   22280907.5194
 -14534529.811 9 -11010572.20447  22988381.667    22988381.4444   22988388.1274
 -26308169.872 9 -20480951.31949  20388091.986    20388091.4484   20388097.3444
 -10473498.603 9  -8131684.91247  22660009.534    22660009.7024   22660015.5384
 00  1  6  2 31  0.0000000  0  9 24  7  6 10 16  4  9  5 30          -.000000091
 -25367408.569 9 -19441958.51249  20332660.886    20332660.6924   20332667.0604
   2085438.331 8   1643362.08745  24962412.993    24962412.4524   24962420.1554
  -7803152.095 9  -6065856.63946  24151636.043    24151635.8004   24151643.2544
 -14479554.519 9 -11267764.07047  22993161.069    22993160.2264   22993167.7464
  -1421141.009 7   -723388.95844  25283996.344    25283995.9954   25284001.6024
 -14244704.773 9 -11072718.46547  22297759.582    22297759.6624   22297765.1834
 -14450779.712 9 -10945312.39747  23004318.774    23004318.5324   23004325.2254
 -26338259.701 9 -20504397.92749  20382366.082    20382365.5424   20382371.4194
 -10564333.206 9  -8202465.07847  22642724.257    22642724.4384   22642730.2544
 00  1  6  2 31 30.0000000  0  9 24  7  6 10 16  4  9  5 30          -.000000076
 -25341412.137 9 -19421701.53449  20337607.879    20337607.6574   20337614.0244
   2153420.493 8   1696335.19245  24975349.771    24975349.2554   24975356.7504
  -7870739.944 9  -6118522.46346  24138774.496    24138774.2744   24138781.6314
 -14575775.671 9 -11342741.51647  22974850.757    22974849.8934   22974857.4504
  -1350211.812 7   -668119.56944  25297493.514    25297493.1684   25297498.7284
 -14155928.884 9 -11003542.43647  22314653.033    22314653.1374   22314658.6304
 -14366837.398 9 -10879902.80747  23020292.446    23020292.1534   23020298.8764
 -26367919.266 9 -20527509.26049  20376722.055    20376721.5194   20376727.4074
 -10654978.748 9  -8273097.91747  22625474.931    22625475.1204   22625480.9644
 00  1  6  2 32  0.0000000  0  9 24  7  6 10 16  4  9  5 30          -.000000064
 -25315004.970 9 -19401124.49949  20342632.956    20342632.7284   20342639.1054
   2221406.794 8   1749311.48845  24988287.339    24988286.7294   24988294.1604
  -7938310.412 9  -6171174.75646  24125916.213    24125915.9664   24125923.3814
 -14671840.160 9 -11417596.87847  22956570.256    22956569.3584   22956576.9264
  -1278857.298 7   -612518.69345  25311071.947    25311071.7014   25311077.3384
 -14066987.689 9 -10934237.59647  22331578.007    22331578.1304   22331583.6284
 -14282701.838 9 -10814342.63747  23036302.895    23036302.6404   23036309.3784
 -26397145.183 9 -20550282.68649  20371160.541    20371159.9994   20371165.8844
 -10745445.740 9  -8343591.63447  22608259.608    22608259.8074   22608265.6234
 00  1  6  2 32 30.0000000  0  9 24  7  6 10 16  4  9  5 30          -.000000052
 -25288195.161 9 -19380233.71549  20347734.666    20347734.4564   20347740.8284
   2289404.839 8   1802296.95745  25001227.055    25001226.4814   25001233.7704
  -8005875.471 9  -6223822.82246  24113058.998    24113058.8374   24113066.0404
 -14767731.536 9 -11492317.35047  22938322.696    22938321.8104   22938329.3414
  -1207093.161 7   -556598.50545  25324728.155    25324727.8474   25324734.1384
 -13977886.946 9 -10864808.43547  22348533.299    22348533.4224   22348538.9234
 -14198384.055 9 -10748640.47947  23052348.019    23052347.8014   23052354.5714
 -26425931.510 9 -20572713.58049  20365682.665    20365682.1224   20365687.9974
 -10835715.884 9  -8413931.95647  22591081.707    22591081.8994   22591087.7254
 00  1  6  2 33  0.0000000  0  9 24  7  6 10 16  4  9  5 30          -.000000046
 -25260976.844 9 -19359024.61349  20352914.158    20352913.9314   20352920.2944
   2357422.125 8   1855297.38145  25014170.254    25014169.6414   25014176.9164
  -8073439.354 9  -6276469.96346  24100201.935    24100201.8474   24100208.9594
 -14863456.164 9 -11566907.90047  22920106.929    22920106.0204   22920113.4404
  -1134950.402 8   -500383.45245  25338456.484    25338456.0714   25338462.8244
 -13888618.567 9 -10795248.64847  22365520.474    22365520.6024   22365526.1164
 -14113913.342 9 -10682819.16447  23068422.279    23068422.0644   23068428.8464
 -26454267.139 9 -20594793.27749  20360290.587    20360290.0354   20360295.8954
 -10925783.519 9  -8484114.49347  22573942.392    22573942.5644   22573948.3594
 00  1  6  2 33 30.0000000  0  9 24  7  6 10 16  4  9  5 30          -.000000054
 -25233334.766 9 -19337485.30749  20358174.249    20358174.0104   20358180.3654
   2425480.891 8   1908330.17745  25027121.381    25027120.8754   25027128.0314
  -8140992.899 9  -6329109.03146  24087346.866    24087346.7074   24087353.8824
 -14959018.250 9 -11641371.78347  22901921.956    22901921.1304   22901928.4804
  -1062432.887 8   -443876.31345  25352256.151    25352255.8394   25352262.4404
 -13799174.950 9 -10725552.31347  22382540.993    22382541.1494   22382546.6444
 -14029295.806 9 -10616883.43247  23084524.441    23084524.2064   23084530.9644
 -26482131.794 9 -20616505.98349  20354988.112    20354987.5754   20354993.4264
 -11015645.583 9  -8554136.83247  22556842.189    22556842.3534   22556848.1164
 00  1  6  2 34  0.0000000  0  9 24  7  6 10 16  4  9  5 30          -.000000064
 -25205261.924 9 -19315610.34549  20363516.279    20363516.0514   20363522.4054
   2493611.118 9   1961418.60945  25040086.093    25040085.5904   25040092.9534
  -8208524.451 9  -6381730.98246  24074496.002    24074495.7544   24074502.9924
 -15054400.845 9 -11715695.81847  22883771.217    22883770.3564   22883777.7054
   -989552.546 8   -387086.33345  25366124.803    25366124.3384   25366131.1294
 -13709543.374 9 -10655709.52747  22399597.225    22399597.4014   22399602.9274
 -13944528.023 9 -10550830.64347  23100655.153    23100654.9304   23100661.7224
 -26509515.661 9 -20637844.05149  20349777.101    20349776.5734   20349782.4224
 -11105287.439 9  -8623987.59347  22539783.847    22539784.0324   22539789.7964
 00  1  6  2 34 30.0000000  0  9 24  7  6 10 16  4  9  5 30          -.000000067
 -25176760.655 9 -19293401.53849  20368939.885    20368939.6474   20368946.0074
   2561814.976 9   2014564.46445  25053064.902    25053064.3254   25053071.6914
  -8276014.746 9  -6434320.77046  24061653.037    24061652.8054   24061659.9954
 -15149607.646 9 -11789882.84847  22865653.833    22865653.0084   22865660.3934
   -916313.338 8   -330016.78945  25380061.854    25380061.4394   25380068.3254
 -13619715.258 9 -10585713.57347  22416690.903    22416691.0684   22416696.6274
 -13859618.485 9 -10484667.37047  23116812.934    23116812.7134   23116819.5014
 -26536424.516 9 -20658811.97149  20344656.518    20344655.9884   20344661.8164
 -11194706.157 9  -8693664.47547  22522767.990    22522768.1624   22522773.8794
 00  1  6  2 35  0.0000000  0  9 24  7  6 10 16  4  9  5 30          -.000000064
 -25147829.665 9 -19270857.89049  20374445.234    20374444.9954   20374451.3424
   2630062.218 9   2067744.11845  25066051.990    25066051.4144   25066058.6224
  -8343462.515 8  -6486877.40146  24048818.059    24048817.9004   24048824.9744
 -15244645.470 9 -11863938.24347  22847568.713    22847567.8784   22847575.2454
   -842712.186 8   -272665.28445  25394067.658    25394067.1634   25394074.0594
 -13529687.904 9 -10515562.38547  22433822.524    22433822.6784   22433828.2904
 -13774563.709 9 -10418390.93147  23132998.374    23132998.1294   23133004.9064
 -26562865.120 9 -20679415.02349  20339625.031    20339624.4914   20339630.3364
 -11283919.684 9  -8763181.47047  22505791.170    22505791.3354   22505797.0754
 00  1  6  2 35 30.0000000  0  9 24  7  6 10 16  4  9  5 30          -.000000057
 -25118477.831 9 -19247986.31349  20380030.681    20380030.4494   20380036.8004
   2698344.819 9   2120951.30045  25079045.792    25079045.2084   25079052.4504
  -8410878.851 9  -6539409.51446  24035989.040    24035988.9214   24035996.0224
 -15339505.385 9 -11937855.00847  22829517.435    22829516.5754   22829523.9394
   -768736.101 9   -215021.58246  25408144.770    25408144.1984   25408151.2664
 -13439476.715 9 -10445267.94747  22450989.150    22450989.3334   22450994.9274
 -13689342.041 9 -10351984.44147  23149215.513    23149215.2724   23149222.0604
 -26588842.273 9 -20699656.94649  20334681.713    20334681.1834   20334687.0254
 -11372929.121 9  -8832539.43047  22488853.215    22488853.3714   22488859.0734
 00  1  6  2 36  0.0000000  0  9 24  7  6 10 16  4  9  5 30          -.000000047
 -25088709.755 9 -19224790.38949  20385695.336    20385695.0974   20385701.4534
   2766645.982 9   2174173.01545  25092043.116    25092042.3624   25092049.6354
  -8478267.066 9  -6591919.72846  24023165.402    24023165.2294   24023172.3814
 -15434182.967 9 -12011629.69347  22811500.838    22811499.9884   22811507.3104
   -694375.718 9   -157078.41546  25422295.128    25422294.5624   25422301.5894
 -13349096.448 9 -10374841.75747  22468187.961    22468188.0974   22468193.7244
 -13603952.449 9 -10285447.10047  23165464.608    23165464.4134   23165471.1664
 -26614359.028 9 -20719540.11449  20329826.054    20329825.5154   20329831.3574
 -11461726.319 9  -8901732.00847  22471955.595    22471955.7594   22471961.4514
 00  1  6  2 36 30.0000000  0  9 24  7  6 10 16  4  9  5 30          -.000000041
 -25058528.019 9 -19201272.13249  20391438.731    20391438.4914   20391444.8484
   2834949.926 9   2227396.85945  25105040.909    25105040.2534   25105047.2344
  -8545640.026 9  -6644418.03446  24010344.658    24010344.5544   24010351.6544
 -15528675.961 9 -12085260.53847  22793519.350    22793518.4964   22793525.8154
   -619623.365 9    -98829.81346  25436520.117    25436519.5244   25436526.5034
 -13258552.380 9 -10304287.92247  22485417.975    22485418.1094   22485423.6764
 -13518400.534 9 -10218783.28047  23181744.632    23181744.3724   23181751.1234
 -26639404.893 9 -20739056.35749  20325059.970    20325059.4144   20325065.2554
 -11550306.137 9  -8970755.20047  22455099.426    22455099.5984   22455105.1834
 00  1  6  2 37  0.0000000  0  9 24  7  6 10 16  4  9  5 30          -.000000042
 -25027937.981 9 -19177435.72449  20397259.801    20397259.5814   20397265.9054
   2903277.221 8   2280638.86845  25118043.157    25118042.4714   25118049.3154
  -8613009.569 9  -6696913.68246  23997524.705    23997524.4704   23997531.6544
 -15622969.290 9 -12158735.81147  22775575.833    22775574.9784   22775582.3104
   -544484.022 9    -40279.66146  25450818.648    25450818.0854   25450824.9954
 -13167844.268 9 -10233606.27347  22502679.211    22502679.3094   22502684.8334
 -13432682.193 9 -10151989.77447  23198056.303    23198056.0604   23198062.7924
 -26663964.381 9 -20758193.60649  20320386.434    20320385.8804   20320391.7094
 -11638659.944 9  -9039602.28047  22438286.280    22438286.4384   22438292.0124
 00  1  6  2 37 30.0000000  0  9 24  7  6 10 16  4  9  5 30          -.000000050
 -24996936.639 9 -19153278.81649  20403159.138    20403158.9074   20403165.2344
   2971660.109 8   2333924.26254  25131056.067    25131055.2534           .0005
  -8680357.212 9  -6749392.26246  23984708.849    23984708.5824   23984715.8024
 -15717055.908 9 -12232050.01147  22757671.658    22757670.8224   22757678.1264
   -468958.858 9     18571.12446  25465190.557    25465190.0464   25465196.9494
 -13076983.156 9 -10162805.38647  22519969.528    22519969.6294   22519975.1774
 -13346805.157 9 -10085072.62347  23214398.210    23214397.9974   23214404.6694
 -26688023.773 9 -20776941.16849  20315808.076    20315807.5294   20315813.3344
 -11726773.684 9  -9108262.28147  22421518.712    22421518.9064   22421524.4784
 00  1  6  2 38  0.0000000  0  9 24  7  6 10 16  4  9  5 30          -.000000059
 -24965509.516 9 -19128790.13349  20409139.507    20409139.2874   20409145.6294
   3040098.780 8   2387253.16444  25144079.713    25144078.4454   25144086.1234
  -8747664.854 9  -6801839.67346  23971900.517    23971900.2994   23971907.5084
 -15810924.094 9 -12305193.99947  22739809.116    22739808.2484   22739815.5504
   -393050.773 9     77720.34146  25479635.341    25479634.8364   25479641.6264
 -12985961.459 9 -10091879.38747  22537290.325    22537290.4484   22537296.0394
 -13260778.635 9 -10018038.99747  23230768.527    23230768.2844   23230775.0084
 -26711581.282 9 -20795297.65249  20311325.208    20311324.6534   20311330.4594
 -11814646.121 9  -9176734.26047  22404797.127    22404797.3324   22404802.8574
 00  1  6  2 38 30.0000000  0  9 24  7  6 10 16  4  9  5 30          -.000000066
 -24933651.536 9 -19103965.72049  20415201.864    20415201.6304   20415207.9794
   3108598.942 8   2440629.78354  25157115.049    25157114.4214           .0005
  -8814936.634 9  -6854259.14646  23959099.076    23959098.7914   23959105.9994
 -15904565.467 9 -12378161.25447  22721989.774    22721988.9154   22721996.1874
   -316774.396 8    137156.49745  25494150.264    25494149.7284   25494156.5814
 -12894769.172 9 -10020820.44747  22554643.654    22554643.7954   22554649.3754
 -13174605.872 9  -9950891.41447  23247166.585    23247166.3514   23247173.0714
 -26734638.922 9 -20813264.63349  20306937.505    20306936.9504   20306942.7334
 -11902282.930 9  -9245022.64247  22388120.384    22388120.5674   22388126.0494
 00  1  6  2 39  0.0000000  0  9 24  7  6 10 16  4  9  5 30          -.000000064
 -24901358.070 9 -19078801.96649  20421347.071    20421346.8464   20421353.1774
   3177159.600 8   2494053.82544  25170161.844    25170161.4214   25170168.6044
  -8882163.496 9  -6906643.62346  23946306.180    23946305.9274   23946313.0734
 -15997984.212 9 -12450955.03747  22704212.740    22704211.8714   22704219.1304
   -240134.407 8    196875.98645  25508734.445    25508733.7614   25508740.6324
 -12803412.827 9  -9949633.67547  22572028.189    22572028.3304   22572033.9184
 -13088289.659 9  -9883632.04147  23263592.023    23263591.7804   23263598.4804
 -26757217.205 9 -20830858.08449  20302640.978    20302640.4354   20302646.2284
 -11989676.615 9  -9313121.57647  22371489.899    22371490.0804   22371495.5274
 00  1  6  2 39 30.0000000  0  9 24  7  6 10 16  4  9  5 30          -.000000059
 -24868629.201 9 -19053298.93549  20427575.131    20427574.9144   20427581.2364
   3245755.323 8   2547504.94944  25183215.140    25183214.3264   25183221.6754
  -8949342.143 9  -6958990.52546  23933522.465    23933522.2074   23933529.3204
 -16091186.307 9 -12523579.98747  22686476.942    22686476.0704   22686483.3204
   -163131.992 8    256877.91445  25523387.290    25523386.7474   25523393.8494
 -12711906.850 9  -9878330.30947  22589441.218    22589441.3554   22589446.9254
 -13001837.901 9  -9816267.04547  23280043.268    23280043.0224   23280049.7004
 -26779323.172 9 -20848083.49549  20298434.328    20298433.7774   20298439.5474
 -12076819.542 9  -9381025.09447  22354907.088    22354907.2704   22354912.7554
 00  1  6  2 40  0.0000000  0  9 24  7  6 10 16  4  9  5 30          -.000000042
 -24835479.878 9 -19027468.27849  20433883.249    20433883.0374   20433889.3544
   3314385.46817   2600983.06254  25196275.002    25196274.1105           .0005
  -9016492.565 9  -7011315.44046  23920744.113    23920743.8844   23920750.9764
 -16184166.357 9 -12596031.92347  22668783.437    22668782.5594   22668789.7984
    -85761.636 8    317166.55445  25538110.419    25538110.1634   25538116.8664
 -12620247.873 9  -9806907.71347  22606883.333    22606883.4314   22606889.0064
 -12915239.106 9  -9748787.49047  23296522.472    23296522.2234   23296528.9304
 -26800973.486 9 -20864953.85349  20294314.423    20294313.8794   20294319.6244
 -12163708.830 9  -9448730.98147  22338372.557    22338372.7474   22338378.2184
 00  1  6  2 40 30.0000000  0  9 24  7  6 10 16  4  9  5 30          -.000000017
 -24801941.837 9 -19001334.72949  20440265.349    20440265.1194   20440271.4434
   3383050.16118   2654487.86353          .000            .0005           .0005
  -9083628.693 9  -7063629.22646  23907968.474    23907968.2884   23907975.2214
 -16276934.312 9 -12668318.58447  22651130.188    22651129.3404   22651136.5324
     -8029.221 7    377737.27254  25552902.495    25552901.7594           .0005
 -12528454.774 9  -9735380.61447  22624350.925    22624351.0584   22624356.6764
 -12828504.712 9  -9681202.27047  23313027.511    23313027.2864   23313033.9734
 -26822176.918 9 -20881475.99249  20290279.523    20290278.9824   20290284.7314
 -12250340.088 9  -9516235.81047  22321887.158    22321887.3494   22321892.8014
 00  1  6  2 41  0.0000000  0  8 24  6 10 16  4  9  5 30              .000000016
 -24768041.558 9 -18974918.91649  20446716.341    20446716.1234   20446722.4374
  -9150748.375 9  -7115930.19146  23895196.005    23895195.7504   23895202.7004
 -16369496.830 9 -12740445.16447  22633516.075    22633515.2744   22633522.4354
     70072.449 7    438595.74853  25567764.655    25567763.5344           .0005
 -12436539.660 9  -9663758.43047  22641841.736    22641841.8794   22641847.4604
 -12741635.789 9  -9613512.22547  23329558.136    23329557.8834   23329564.6054
 -26842937.266 9 -20897652.87549  20286328.978    20286328.4374   20286334.1984
 -12336725.406 9  -9583549.00347  22305448.485    22305448.6704   22305454.1374
 00  1  6  2 41 30.0000000  0  8 24  6 10 16  4  9  5 30              .000000055
 -24733797.924 9 -18948235.55249  20453232.666    20453232.4424   20453238.7544
  -9217865.331 9  -7168229.04746  23882423.993    23882423.7524   23882430.7014
 -16461854.330 9 -12812411.98347  22615941.024    22615940.2014   22615947.3144
    148550.07816    499747.11253          .000            .0005           .0005
 -12344504.970 9  -9592043.07347  22659355.308    22659355.4654   22659361.0144
 -12654631.305 9  -9545716.53747  23346114.571    23346114.3414   23346121.1104
 -26863249.751 9 -20913480.77149  20282463.640    20282463.1034   20282468.8414
 -12422879.410 9  -9650681.94347  22289053.895    22289054.0894   22289059.5654
 00  1  6  2 42  0.0000000  0  7 24  6 10  4  9  5 30                 .000000088
 -24699207.128 9 -18921281.67549  20459815.080    20459814.8554   20459821.1584
  -9284995.554 9  -7220538.23046  23869649.485    23869649.2164   23869656.2094
 -16554007.844 9 -12884219.85647  22598404.769    22598403.9604   22598411.0454
 -12252355.538 9  -9520238.31847  22676890.745    22676890.8954   22676896.4724
 -12567505.501 9  -9477826.31147  23362694.042    23362693.8344   23362700.5684
 -26883117.552 9 -20928962.16649  20278682.903    20278682.3504   20278688.1024
 -12508816.086 9  -9717645.54247  22272700.685    22272700.8614   22272706.3324
 00  1  6  2 42 30.0000000  0  7 24  6 10  4  9  5 30                 .000000102
 -24664245.797 9 -18894039.06249  20466467.974    20466467.7494   20466474.0724
  -9352133.947 9  -7272853.79146  23856873.378    23856873.1014   23856880.0324
 -16645954.662 9 -12955866.67147  22580907.816    22580907.0334   22580914.1004
 -12160087.265 9  -9448340.94647  22694448.803    22694448.9214   22694454.5144
 -12480279.919 9  -9409858.32847  23379292.535    23379292.3534   23379299.1004
 -26902507.631 9 -20944071.30449  20274993.064    20274992.5154   20274998.2574
 -12594531.935 9  -9784437.06147  22256389.425    22256389.6224   22256395.1284
 00  1  6  2 43  0.0000000  0  7 24  6 10  4  9  5 30                 .000000094
 -24628879.225 9 -18866480.68249  20473198.003    20473197.7804   20473204.0904
  -9419275.102 9  -7325171.50946  23844096.802    23844096.5554   23844103.4304
 -16737678.482 9 -13027339.70647  22563453.279    22563452.5074   22563459.6434
 -12067685.822 9  -9376339.81747  22712032.173    22712032.3174   22712037.9244
 -12392940.705 9  -9341801.82247  23395912.698    23395912.4574   23395919.2764
 -26921398.271 9 -20958791.26949  20271398.321    20271397.7934   20271403.4974
 -12680014.848 9  -9851047.08047  22240122.562    22240122.7534   22240128.2154
 00  1  6  2 43 30.0000000  0  7 24  6 10  4  9  5 30                 .000000063
 -24593070.317 9 -18838577.62249  20480012.181    20480011.9534   20480018.2484
  -9486403.988 9  -7377479.67346  23831322.559    23831322.3594   23831329.1634
 -16829160.810 9 -13098624.56847  22546044.744    22546043.9294   22546051.1204
 -11975149.936 9  -9304233.91947  22729641.140    22729641.2874   22729646.8794
 -12305487.765 9  -9273656.71647  23412554.513    23412554.2564   23412561.0704
 -26939766.867 9 -20973104.45049  20267902.861    20267902.3134   20267908.0364
 -12765226.834 9  -9917445.98947  22223907.228    22223907.4294   22223912.8984
 00  1  6  2 44  0.0000000  0  7 24  6 10  4  9  5 30                 .000000016
 -24556799.641 9 -18810314.74549  20486914.239    20486914.0254   20486920.3264
  -9553495.098 9  -7429758.39846  23818555.413    23818555.2074   23818562.0514
 -16920378.691 9 -13169703.37647  22528686.521    22528685.7154   22528692.8644
 -11882468.648 9  -9232014.70547  22747277.807    22747277.9674   22747283.5114
 -12217915.871 9  -9205418.88647  23429218.872    23429218.6794   23429225.4544
 -26957590.098 9 -20986992.66949  20264511.169    20264510.6414   20264516.3454
 -12850153.011 9  -9983622.19047  22207746.300    22207746.4874   22207751.9214
 00  1  6  2 44 30.0000000  0  7 24  6 10  4  9  5 30                -.000000024
 -24520076.620 9 -18781699.39649  20493902.404    20493902.1774   20493908.4804
  -9620518.170 9  -7481984.09646  23805801.258    23805801.0174   23805807.9144
 -17011319.061 9 -13240565.94247  22511381.065    22511380.2764   22511387.4144
 -11789630.973 9  -9159673.65547  22764944.253    22764944.4274   22764949.9364
 -12130197.321 9  -9137066.78647  23445911.183    23445910.9744   23445917.8004
 -26974864.080 9 -21000452.90849  20261224.065    20261223.5174   20261229.2324
 -12934782.040 9 -10049566.86047  22191641.875    22191642.0464   22191647.4474
 00  1  6  2 45  0.0000000  0  8 24  7  6 10  4  9  5 30             -.000000044
 -24482932.013 9 -18752755.53049  20500970.766    20500970.5534   20500976.8274
   -790600.930 8   -621781.54742          .000            .0004           .0004
  -9687471.049 9  -7534155.10046  23793060.481    23793060.2674   23793067.2134
 -17101978.370 9 -13311209.50447  22494129.114    22494128.3494   22494135.4384
 -11696654.340 9  -9087224.32347  22782637.138    22782637.2684   22782642.7994
 -12042324.402 9  -9068594.39347  23462632.859    23462632.6384   23462639.4974
 -26991612.868 9 -21013503.89849  20258036.858    20258036.3134   20258042.0294
 -13019115.133 9 -10115280.92247  22175593.804    22175593.9864   22175599.3714
 00  1  6  2 45 30.0000000  0  8 24  7  6 10  4  9  5 30             -.000000044
 -24445405.027 9 -18723513.71049  20508111.927    20508111.7104   20508117.9764
   -721460.317 9   -567905.38552          .000            .0004           .0005
  -9754358.162 9  -7586274.86046  23780332.180    23780332.0094   23780338.8714
 -17192362.786 9 -13381638.86147  22476929.467    22476928.6964   22476935.7734
 -11603545.534 9  -9014671.99747  22800355.165    22800355.2434   22800360.7974
 -11954320.287 9  -9000019.77446  23479379.442    23479379.2544   23479386.0774
 -27007847.230 9 -21026154.03649  20254947.551    20254947.0024   20254952.7394
 -13103164.612 9 -10180773.98547  22159599.636    22159599.8394   22159605.2824
 00  1  6  2 46  0.0000000  0  8 24  7  6 10  4  9  5 30             -.000000020
 -24407527.431 9 -18693998.68849  20515319.800    20515319.5804   20515325.8604
   -652236.010 8   -513964.46343          .000            .0004   25353592.3454
  -9821197.753 9  -7638357.58346  23767612.983    23767612.7944   23767619.7324
 -17282482.648 9 -13451862.06847  22459780.160    22459779.3784   22459786.4494
 -11510304.885 9  -8942016.94047  22818098.286    22818098.3594   22818103.9154
 -11866201.141 9  -8931355.52246  23496147.973    23496147.7364   23496154.6084
 -27023582.466 9 -21038415.25149  20251953.230    20251952.6854   20251958.4194
 -13186946.964 9 -10246058.89947  22143656.400    22143656.5764   22143661.9904
 00  1  6  2 46 30.0000000  0  8 24  7  6 10  4  9  5 30              .000000012
 -24369314.922 9 -18664222.69449  20522591.376    20522591.1464   20522597.4354
   -582936.471 8   -459964.92645  25366769.379    25366769.8114   25366777.7424
  -9888020.096 9  -7690426.87546  23754897.103    23754896.8974   23754903.7914
 -17372353.163 9 -13521890.99147  22442678.331    22442677.5184   22442684.5494
 -11416948.241 9  -8869271.48747  22835863.481    22835863.5614   22835869.0404
 -11777997.339 9  -8862625.30846  23512932.551    23512932.3564   23512939.2964
 -27038834.688 9 -21050300.09149  20249050.832    20249050.2744   20249055.9874
 -13270448.061 9 -10311124.65747  22127766.652    22127766.8364   22127772.2224
 00  1  6  2 47  0.0000000  0  8 24  7  6 10  4  9  5 30              .000000038
 -24330765.514 9 -18634184.18149  20529927.062    20529926.8574   20529933.1554
   -513577.934 8   -405919.36245  25379968.989    25379969.9724   25379976.5184
  -9954850.341 9  -7742502.32546  23742179.684    23742179.4514   23742186.3484
 -17461979.675 9 -13591729.77747  22425622.929    22425622.0954   22425629.1334
 -11323475.646 9  -8796435.68847  22853650.732    22853650.8374   22853656.2844
 -11689745.894 9  -8793857.97346  23529726.238    23529726.0504   23529733.0114
 -27053600.885 9 -21061806.20949  20246240.887    20246240.3404   20246246.0514
 -13353654.606 9 -10375960.88947  22111932.950    22111933.1274   22111938.5254
 00  1  6  2 47 30.0000000  0  8 24  7  6 10  4  9  5 30              .000000051
 -24291856.835 9 -18603865.71849  20537331.125    20537330.9124   20537337.1864
   -444179.756 8   -351842.91345  25393175.704    25393175.2204   25393182.9614
 -10021694.355 9  -7794588.49746  23729459.628    23729459.3774   23729466.3504
 -17551365.763 9 -13661381.22747  22408613.265    22408612.4614   22408619.4494
 -11229879.035 9  -8723503.25747  22871461.578    22871461.6874   22871467.1434
 -11601449.103 9  -8725055.29246  23546528.571    23546528.3484   23546535.2754
 -27067879.238 9 -21072932.18849  20243523.815    20243523.2704   20243528.9864
 -13436558.670 9 -10440561.42947  22096156.833    22096156.9894   22096162.3814
 00  1  6  2 48  0.0000000  0  8 24  7  6 10  4  9  5 30              .000000048
 -24252560.585 9 -18573245.25249  20544808.942    20544808.7354   20544815.0054
   -374748.536 9   -297740.68145  25406388.142    25406387.7244   25406395.1434
 -10088549.993 9  -7846683.72446  23716737.343    23716737.1554   23716744.0914
 -17640507.705 9 -13730842.42247  22391650.101    22391649.2844   22391656.2914
 -11136164.895 9  -8650479.25047  22889294.778    22889294.8814   22889300.4134
 -11513098.425 9  -8656210.62846  23563341.166    23563340.9494   23563347.8494
 -27081667.906 9 -21083676.59749  20240899.889    20240899.3474   20240905.0544
 -13519149.947 9 -10504918.23947  22080440.217    22080440.3894   22080445.7354
 00  1  6  2 48 30.0000000  0  8 24  7  6 10  4  9  5 30              .000000033
 -24212863.845 9 -18542312.71449  20552363.005    20552362.7854   20552369.0524
   -305283.845 8   -243612.41945  25419606.956    25419606.4434   25419613.9044
 -10155407.741 9  -7898780.59746  23704014.702    23704014.5524   23704021.4184
 -17729385.010 9 -13800097.41447  22374737.276    22374736.4924   22374743.4754
 -11042338.850 9  -8577368.03847  22907149.273    22907149.3714   22907154.9084
 -11424673.921 9  -8587308.43146  23580167.818    23580167.5704   23580174.4394
 -27094963.853 9 -21094037.06249  20238369.749    20238369.2194   20238374.9034
 -13601432.688 9 -10569034.62547  22064782.277    22064782.4594   22064787.7774
 00  1  6  2 49  0.0000000  0  8 24  7  6 10  4  9  5 30              .000000017
 -24172758.744 9 -18511061.97749  20559994.729    20559994.5124   20560000.7894
   -235789.628 8   -189461.16145  25432831.233    25432830.8874   25432838.3444
 -10222246.081 9  -7950862.34946  23691295.763    23691295.6574   23691302.5184
 -17817990.146 9 -13869140.33547  22357876.207    22357875.4154   22357882.3724
 -10948401.384 9  -8504170.00447  22925024.992    22925025.1054   22925030.6444
 -11336148.121 9  -8518327.30046  23597013.698    23597013.4684   23597020.3684
 -27107771.045 9 -21104016.68449  20235932.631    20235932.0764   20235937.7564
 -13683432.294 9 -10632930.39347  22049178.253    22049178.4314   22049183.7414
 00  1  6  2 49 30.0000000  0  8 24  7  6 10  4  9  5 30              .000000004
 -24132253.785 9 -18479499.66249  20567702.546    20567702.3164   20567708.5924
   -166271.010 8   -135290.83045  25446060.112    25446059.9394   25446066.8214
 -10289054.777 9  -8002921.01446  23678582.447    23678582.3094   23678589.1504
 -17906312.942 9 -13937963.24747  22341068.921    22341068.1504   22341075.0254
 -10854369.026 9  -8430898.03047  22942918.786    22942918.8874   22942924.4474
 -11247507.555 9  -8449256.74746  23613881.434    23613881.2304   23613888.0684
 -27120091.531 9 -21113617.05649  20233588.094    20233587.5494   20233593.2314
 -13765166.784 9 -10696619.56847  22033624.626    22033624.7994   22033630.1574
 00  1  6  2 50  0.0000000  0  8 24  7  6 10  4  9  5 30             -.000000004
 -24091367.018 9 -18447639.83249  20575483.038    20575482.8304   20575489.0854
    -96721.523 8    -81096.48544  25459295.082    25459294.5454   25459301.5314
 -10355829.928 9  -8054953.51946  23665875.490    23665875.3364   23665882.2094
 -17994345.363 9 -14006559.87947  22324316.895    22324316.0974   22324322.9944
 -10760247.050 9  -8357556.24047  22960829.575    22960829.6684   22960835.2704
 -11158758.149 9  -8380101.38346  23630769.954    23630769.7284   23630776.5264
 -27131918.448 9 -21122832.82549  20231337.502    20231336.9574   20231342.6324
 -13846638.309 9 -10760103.84247  22018121.087    22018121.2824   22018126.6404
 00  1  6  2 50 30.0000000  0  8 24  7  6 10  4  9  5 30             -.000000008
 -24050113.713 9 -18415494.39149  20583333.298    20583333.0854   20583339.3384
    -27136.503 7    -26874.48654  25472536.813    25472536.1224           .0005
 -10422569.760 9  -8106958.52246  23653175.250    23653175.0884   23653181.9344
 -18082092.745 9 -14074934.41647  22307619.125    22307618.2974   22307625.2254
 -10666041.823 9  -8284149.56647  22978756.244    22978756.3284   22978761.9324
 -11069902.419 9  -8310863.16146  23647678.743    23647678.4734   23647685.2104
 -27143248.499 9 -21131661.42849  20229181.475    20229180.9394   20229186.6054
 -13927848.026 9 -10823384.11247  22002667.386    22002667.5714   22002672.8874
 00  1  6  2 51  0.0000000  0  8 24  7  6 10  4  9  5 30             -.000000014
 -24008502.725 9 -18383070.23449  20591251.611    20591251.3934   20591257.6084
     42484.545 7     27375.62254  25485785.480    25485784.0204           .0005
 -10489277.487 9  -8158938.50846  23640481.115    23640480.9264   23640487.7854
 -18169565.334 9 -14143094.83047  22290973.567    22290972.7414   22290979.6724
 -10571745.824 9  -8210672.16847  22996700.164    22996700.2664   22996705.8454
 -10980958.143 9  -8241555.93946  23664604.277    23664604.0354   23664610.7334
 -27154063.490 9 -21140088.68349  20227123.424    20227122.8844   20227128.5574
 -14008778.719 9 -10886446.94647  21987266.764    21987266.9224   21987272.2634
 00  1  6  2 51 30.0000000  0  8 24  7  6 10  4  9  5 30             -.000000027
 -23966542.043 9 -18350373.58949  20599236.466    20599236.2454   20599242.4584
    112144.04217     81655.66253          .000            .0005           .0005
 -10555956.788 9  -8210896.35746  23627792.434    23627792.3004   23627798.9984
 -18256750.497 9 -14211031.26847  22274382.761    22274381.9374   22274388.8534
 -10477354.148 9  -8137120.20747  23014662.292    23014662.4014   23014667.8994
 -10891942.369 9  -8172193.00846  23681543.452    23681543.1694   23681549.8654
 -27164335.600 9 -21148092.91749  20225168.706    20225168.1674   20225173.8414
 -14089399.944 9 -10949268.64547  21971925.025    21971925.2034   21971930.5364
 00  1  6  2 52  0.0000000  0  8 24  7  6 10  4  9  5 30             -.000000045
 -23924225.584 9 -18317399.71649  20607288.986    20607288.7614   20607294.9794
    181857.17616   -438927.45242          .000            .0005           .0004
 -10622606.907 9  -8262831.45746  23615109.371    23615109.1804   23615115.7884
 -18343644.462 9 -14278740.80547  22257847.331    22257846.5144   22257853.4124
 -10382857.147 9  -8063486.17746  23032644.465    23032644.5824   23032650.0184
 -10802850.443 9  -8102770.73246  23698497.086    23698496.8424   23698503.5284
 -27174054.069 9 -21155665.74349  20223319.313    20223318.7784   20223324.4424
 -14169698.866 9 -11011839.20747  21956644.641    21956644.8014   21956650.0884
 00  1  6  2 52 30.0000000  0  7 24  6 10  4  9  5 30                -.000000058
 -23881553.431 9 -18284148.67949  20615409.186    20615408.9694   20615415.1814
 -10689220.206 9  -8314737.88046  23602433.240    23602433.0164   23602439.6394
 -18430234.671 9 -14346213.65447  22241369.701    22241368.8814   22241375.7954
 -10288241.121 9  -7989759.39846  23050649.299    23050649.3284   23050654.9044
 -10713683.859 9  -8033290.29746  23715464.936    23715464.6664   23715471.3404
 -27183214.019 9 -21162803.35949  20221576.224    20221575.6944   20221581.3454
 -14249671.466 9 -11074155.49047  21941426.304    21941426.4864   21941431.7874
 00  1  6  2 53  0.0000000  0  7 24  6 10  4  9  5 30                -.000000059
 -23838528.056 9 -18250622.40049  20623596.649    20623596.4414   20623602.6424
 -10755804.591 9  -8366621.76246  23589762.635    23589762.3774   23589768.9764
 -18516501.698 9 -14413434.66147  22224953.638    22224952.7954   22224959.6784
 -10193499.036 9  -7915934.39146  23068678.055    23068678.1164   23068683.6614
 -10624458.503 9  -7963764.04146  23732443.934    23732443.7014   23732450.3834
 -27191830.738 9 -21169517.67449  20219936.508    20219935.9804   20219941.6314
 -14329312.277 9 -11136213.23147  21926271.143    21926271.3484   21926276.6194
 00  1  6  2 53 30.0000000  0  7 24  6 10  4  9  5 30                -.000000045
 -23795149.431 9 -18216820.86549  20631851.333    20631851.1074   20631857.3144
 -10822358.867 9  -8418482.18346  23577097.743    23577097.4854   23577104.0534
 -18602442.315 9 -14480401.33547  22208599.648    22208598.7974   22208605.6474
 -10098651.166 9  -7842026.96246  23086726.973    23086727.0714   23086732.6764
 -10535177.129 9  -7894194.14546  23749433.616    23749433.3704   23749440.1164
 -27199938.336 9 -21175835.27749  20218393.691    20218393.1684   20218398.8204
 -14408639.704 9 -11198026.78747  21911175.618    21911175.7994   21911181.0744
 00  1  6  2 54  0.0000000  0  7 24  6 10  4  9  5 30                -.000000015
 -23751422.683 9 -18182748.06549  20640172.251    20640172.0264   20640178.2604
 -10888892.555 9  -8470326.57846  23564436.784    23564436.5504   23564443.0554
 -18688075.657 9 -14547128.57747  22192304.166    22192303.3084   22192310.1174
 -10003705.308 9  -7768043.17746  23104794.552    23104794.6544   23104800.2544
 -10445840.617 9  -7824581.29446  23766433.815    23766433.5804   23766440.3974
 -27207566.284 9 -21181779.12849  20216942.153    20216941.6134   20216947.2724
 -14487674.212 9 -11259612.09148  21896135.806    21896136.0204   21896141.2924
 00  1  6  2 54 30.0000000  0  7 24  6 10  4  9  5 30                 .000000019
 -23707358.554 9 -18148412.36949  20648557.371    20648557.1514   20648563.3714
 -10955423.172 9  -8522168.56746  23551776.446    23551776.2054   23551782.6404
 -18773406.692 9 -14613620.25047  22176066.169    22176065.3094   22176072.0994
  -9908677.106 9  -7693995.21946  23122877.826    23122877.9144   23122883.4994
 -10356475.113 9  -7754945.84946  23783439.520    23783439.2684   23783446.1344
 -27214728.567 9 -21187360.12049  20215579.218    20215578.6764   20215584.3144
 -14566424.145 9 -11320975.65348  21881150.218    21881150.4254   21881155.6824
 00  1  6  2 55  0.0000000  0  7 24  6 10  4  9  5 30                 .000000043
 -23662945.541 9 -18113804.81349  20657008.894    20657008.6704   20657014.8724
 -11021962.234 9  -8574017.12046  23539114.425    23539114.1614   23539120.6094
 -18858437.177 9 -14679877.72347  22159885.364    22159884.5414   22159891.3154
  -9813590.725 9  -7619901.92246  23140972.212    23140972.2684   23140977.7944
 -10267079.485 9  -7685286.92346  23800450.932    23800450.6514   23800457.5104
 -27221425.517 9 -21192578.51449  20214304.827    20214304.2884   20214309.9474
 -14644894.488 9 -11382121.34648  21866217.781    21866217.9724   21866223.2354
 00  1  6  2 55 30.0000000  0  7 24  6 10  4  9  5 30                 .000000053
 -23618182.819 9 -18078924.76049  20665526.963    20665526.7344   20665532.9174
 -11088496.417 9  -8625861.88546  23526453.286    23526453.1254   23526459.5554
 -18943173.666 9 -14745906.11847  22143760.491    22143759.6644   22143766.4304
  -9718443.500 9  -7545761.21346  23159078.142    23159078.2144   23159083.7014
 -10177637.205 9  -7615591.65846  23817471.159    23817470.9484   23817477.8444
 -27227622.312 9 -21197407.17949  20213125.594    20213125.0354   20213130.6994
 -14723079.897 9 -11443045.02248  21851339.563    21851339.7824   21851345.0244
 00  1  6  2 56  0.0000000  0  7 24  6 10  4  9  5 30                 .000000050
 -23573075.205 9 -18043775.96149  20674110.660    20674110.4214   20674116.6044
 -11155026.304 9  -8677703.30646  23513793.070    23513792.9204   23513799.2914
 -19027599.213 9 -14811692.22247  22127694.825    22127694.0064   22127700.7404
  -9623231.180 9  -7471569.80246  23177196.440    23177196.4604   23177201.9834
 -10088144.195 9  -7545856.86346  23834501.088    23834500.8694   23834507.8554
 -27233290.928 9 -21201824.27749  20212046.884    20212046.3414   20212051.9994
 -14800947.734 9 -11503721.23948  21836521.817    21836522.0104   21836527.2264
 00  1  6  2 56 30.0000000  0  7 24  6 10  4  9  5 30                 .000000034
 -23527612.771 9 -18008350.67949  20682761.827    20682761.5924   20682767.7954
 -11221541.660 9  -8729533.39446  23501135.563    23501135.3934   23501141.8054
 -19111685.326 9 -14877213.83147  22111693.743    22111692.9144   22111699.6314
  -9527957.547 9  -7397330.59546  23195326.409    23195326.4404   23195331.8424
  -9998599.641 9  -7476081.89646  23851540.828    23851540.6324   23851547.6584
 -27238417.637 9 -21205819.10849  20211071.290    20211070.7474   20211076.3964
 -14878479.704 9 -11564135.73848  21821767.944    21821768.1444   21821773.3354
 00  1  6  2 57  0.0000000  0  7 24  6 10  4  9  5 30                 .000000016
 -23481800.704 9 -17972652.95449  20691479.560    20691479.3474   20691485.5194
 -11288028.125 9  -8781340.96746  23488483.534    23488483.3724   23488489.8094
 -19195428.655 9 -14942468.33247  22095757.890    22095757.0664   22095763.7794
  -9432619.982 9  -7323041.57846  23213468.561    23213468.5904   23213473.9904
  -9908987.103 9  -7406253.97046  23868593.535    23868593.3164   23868600.3574
 -27242994.712 9 -21209385.65749  20210200.267    20210199.7304   20210205.3794
 -14955652.725 9 -11624270.54148  21807082.416    21807082.5814   21807087.7834
 00  1  6  2 57 30.0000000  0  7 24  6 10  4  9  5 30                 .000000006
 -23435661.351 9 -17936700.19949  20700259.592    20700259.3594   20700265.5634
 -11354479.476 9  -8833121.17046  23475838.178    23475838.0064   23475844.5154
 -19278828.503 9 -15007455.19447  22079887.429    22079886.6234   22079893.2834
  -9337212.598 9  -7248698.14946  23231623.992    23231624.0224   23231629.3474
  -9819310.146 9  -7336375.85346  23885658.564    23885658.3624   23885665.3934
 -27247030.845 9 -21212530.68849  20209432.208    20209431.6724   20209437.3234
 -15032450.274 9 -11684112.76048  21792468.308    21792468.4884   21792473.7224
 00  1  6  2 58  0.0000000  0  7 24  6 10  4  9  5 30                 .000000006
 -23389208.085 9 -17900502.83749  20709099.314    20709099.0894   20709105.3114
 -11420910.705 9  -8884885.70046  23463196.662    23463196.4374   23463202.9294
 -19361877.845 9 -15072168.92047  22064083.597    22064082.7734   22064089.4534
  -9241742.055 9  -7174305.50946  23249791.421    23249791.4854   23249796.8244
  -9729590.735 9  -7266464.64046  23902731.587    23902731.4134   23902738.3954
 -27250558.422 9 -21215279.44649  20208760.933    20208760.3964   20208766.0504
 -15108880.203 9 -11743668.53448  21777924.151    21777924.3374   21777929.5654
 00  1  6  2 58 30.0000000  0  7 24  6 10  4  9  5 30                 .000000013
 -23342450.482 9 -17864068.33249  20717996.932    20717996.7194   20718002.9484
 -11487331.434 9  -8936642.04546  23450557.234    23450557.0174   23450563.4554
 -19444598.845 9 -15136626.81247  22048342.259    22048341.4414   22048348.1224
  -9146201.671 9  -7099858.46546  23267972.078    23267972.1694   23267977.5834
  -9639848.362 9  -7196535.51946  23919809.001    23919808.8404   23919815.7454
 -27253584.409 9 -21217637.35649  20208185.125    20208184.5854   20208190.2154
 -15184970.198 9 -11802959.41948  21763444.723    21763444.9014   21763450.0584
 00  1  6  2 59  0.0000000  0  7 24  6 10  4  9  5 30                 .000000022
 -23295400.633 9 -17827406.10049  20726950.263    20726950.0514   20726956.2534
 -11553734.969 9  -8988384.98546  23437920.952    23437920.6964   23437927.1844
 -19527007.255 9 -15200841.11347  22032660.453    22032659.6274   22032666.2974
  -9050593.375 9  -7025358.48346  23286165.719    23286165.8234   23286171.2904
  -9550099.908 9  -7126601.67946  23936887.578    23936887.4084   23936894.3004
 -27256107.203 9 -21219603.16349  20207705.051    20207704.5074   20207710.1434
 -15260718.058 9 -11861983.70048  21749030.348    21749030.5204   21749035.7064
 00  1  6  2 59 30.0000000  0  7 24  6 10  4  9  5 30                 .000000028
 -23248041.926 9 -17790503.20349  20735962.342    20735962.1124   20735968.3064
 -11620122.786 9  -9040115.68346  23425287.754    23425287.5114   23425293.9814
 -19609102.091 9 -15264811.07947  22017038.340    22017037.4824   22017044.1404
  -8954909.923 9  -6950799.94546  23304373.620    23304373.7384   23304379.2604
  -9460358.263 9  -7056673.12846  23953964.923    23953964.7754   23953971.5244
 -27258120.508 9 -21221171.96849  20207321.949    20207321.4034   20207327.0344
 -15336137.020 9 -11920751.69548  21734678.580    21734678.7654   21734683.9634
 00  1  6  3  0  0.0000000  0  7 24  6 10  4  9  5 30                 .000000019
 -23200350.314 9 -17753340.89649  20745037.707    20745037.4894   20745043.7014
 -11686497.515 9  -9091836.19246  23412656.963    23412656.7254   23412663.1914
 -19690882.624 9 -15328536.12547  22001476.006    22001475.1464   22001481.8024
  -8859155.272 9  -6876185.93946  23322595.048    23322595.1734   23322600.7984
  -9370622.537 9  -6986749.18546  23971041.102    23971040.9534   23971047.6664
 -27259606.795 9 -21222330.10849  20207039.098    20207038.5584   20207044.1974
 -15411237.935 9 -11979271.86548  21720387.312    21720387.4994   21720392.6794
 00  1  6  3  0 30.0000000  0  7 24  6 10  4  9  5 30                 .000000002
 -23152301.911 9 -17715900.57249  20754180.994    20754180.7604   20754186.9694
 -11752830.238 9  -9143523.96646  23400034.260    23400034.0344   23400040.4644
 -19772345.186 9 -15392013.41247  21985974.160    21985973.3174   21985979.9534
  -8763332.618 9  -6801518.92846  23340829.523    23340829.6394   23340835.2314
  -9280870.890 9  -6916812.82946  23988120.293    23988120.1304   23988126.7984
 -27260538.872 9 -21223056.40249  20206861.706    20206861.1614   20206866.7954
 -15485994.284 9 -12037523.54548  21706161.651    21706161.8474   21706166.9924
 00  1  6  3  1  0.0000000  0  7 24  6 10  4  9  5 30                -.000000013
 -23103886.795 9 -17678174.49949  20763394.067    20763393.8614   20763400.0614
 -11819107.561 9  -9195168.57346  23387422.022    23387421.8054   23387428.2374
 -19853465.942 9 -15455224.35947  21970537.327    21970536.4744   21970543.1344
  -8667445.824 9  -6726801.96546  23359076.205    23359076.3084   23359081.9354
  -9191081.453 9  -6846847.03446  24005206.728    24005206.5324   24005213.2074
 -27260922.361 9 -21223355.22349  20206788.721    20206788.1824   20206793.8104
 -15560389.128 9 -12095493.53648  21692004.790    21692004.9874   21692010.1174
