     2.11           OBSERVATION DATA    G (GPS)             RINEX VERSION / TYPE
teqc  2012Jun6      gpsops              20120921 00:08:49UTCPGM / RUN BY / DATE
    30.0000                                                 INTERVAL
     1     1                                                WAVELENGTH FACT L1/2
     7    L1    L2    P1    P2    C1    S1    S2            # / TYPES OF OBSERV
Linux 2.4.21-27.ELsmp|Opteron|gcc -static|Linux x86_64|=+   COMMENT
     2.10           OBSERVATION DATA    GPS                 COMMENT
soc2rnx ver 1.20    gpsops              21-Sep-2012 00:08:49COMMENT
S1, if present, is the SNR for the C/A data stream on L1.   COMMENT
 SNR is mapped to RINEX snr flag value [1,4-9]              COMMENT
    SNR:   >316  >100  >31.6  >10  >3.2    >0 bad=0         COMMENT
L1 & L2:      9     8     7     6     5     4     1         COMMENT
GGN                 USNO                                    OBSERVER / AGENCY
KW-0201             AOAD/M_T        NONE                    ANT # / TYPE
 -1248596.2520 -4819428.2840  3976506.0340                  APPROX POSITION XYZ
        0.0000        0.0000        0.0000                  ANTENNA: DELTA H/E/N
RT920013101         ASHTECH Z-XII3T     IL01-1D04-MCF-12MX  REC # / TYPE / VERS
AMC2                                                        MARKER NAME
40472S004                                                   MARKER NUMBER
                                                            COMMENT
This data is provided as a public service by NASA/JPL.      COMMENT
No warranty is expressed or implied regarding suitability   COMMENT
for use.  For further information, contact:                 COMMENT
Dave Stowers, NASA/JPL m/s 238-600                          COMMENT
4800 Oak Grove Drive, Pasadena CA 91109 USA                 COMMENT
                                                            COMMENT
Forced Modulo Decimation to 30 seconds                      COMMENT
  2012     9    20     0     0    0.0000000     GPS         TIME OF FIRST OBS
                                                            END OF HEADER
 12  9 20  0  0  0.0000000  0  9G05G30G12G25G21G26G15G02G29
 111012537.21748  86503277.54548  21124981.8904   21124983.3004   21124981.7864
       234.000         191.000
 128782894.66848 100350281.01048  24506591.3794   24506596.1784   24506591.8014
       210.000         136.000
 126123246.54848  98277827.37848  24000476.6484   24000482.7314   24000476.5244
       213.000         152.000
 117042505.63448  91201914.08748  22272479.6324   22272485.0854   22272479.5274
       225.000         170.000
 123080616.07448  95906963.00048  23421472.1504   23421473.8994   23421472.4254
       213.000         148.000
 120878810.84948  94191278.25748  23002473.3194   23002478.1154   23002473.2854
       217.000         153.000
 125074507.40348  97460630.80848  23800905.1314   23800910.2374   23800905.2514
       212.000         147.000
 120358756.46948  93786046.15548  22903508.7984   22903510.0154   22903508.9474
       220.000         161.000
 106860967.74948  83268283.87248  20334968.0214   20334969.3044   20334968.1204
       240.000         207.000
 12  9 20  0  0 30.0000000  0  9G05G30G12G25G21G26G15G02G29
 111069546.46748  86547700.34248  21135830.4604   21135831.7494   21135830.1464
       234.000         191.000
 128722171.89048 100302964.65948  24495036.8734   24495041.5944   24495036.5284
       205.000         136.000
 126230691.93248  98361550.88248  24020923.2864   24020929.3804   24020922.6634
       214.000         152.000
 117118010.58648  91260749.04448  22286847.4094   22286853.1684   22286847.6214
       224.000         170.000
 123017022.93548  95857410.05848  23409370.2484   23409372.9934   23409371.2454
       213.000         148.000
 120792627.44148  94124122.48348  22986072.8064   22986077.0614   22986073.1534
       214.000         153.000
 124975052.24448  97383133.43148  23781979.7014   23781984.7214   23781979.5114
       211.000         147.000
 120428474.87048  93840372.15348  22916775.6314   22916777.3454   22916775.9794
       220.000         161.000
 106830593.04248  83244615.30648  20329188.0054   20329189.0784   20329187.8594
       240.000         207.000
 12  9 20  0  1  0.0000000  0  9G05G30G12G25G21G26G15G02G29
 111126976.33648  86592450.89448  21146759.1354   21146760.2144   21146758.8154
       234.000         191.000
 128661952.90548 100256040.89548  24483575.6584   24483582.2594   24483576.9064
       207.000         134.000
 126338174.51548  98445303.36848  24041376.3064   24041382.1374   24041376.2914
       214.000         152.000
 117193884.57748  91319871.57648  22301285.6974   22301291.6304   22301285.8934
       224.000         169.000
 122953498.98448  95807911.03548  23397281.3204   23397284.5444   23397282.7194
       212.000         147.000
 120706786.58848  94057233.63748  22969737.6184   22969742.2044   22969737.6804
       214.000         153.000
 124875666.59448  97305690.24948  23763067.0194   23763072.3194   23763066.7964
       213.000         149.000
 120498306.60248  93894786.45448  22930063.8664   22930065.3144   22930064.1054
       219.000         160.000
 106800636.31348  83221272.43348  20323487.3424   20323488.4264   20323487.1364
       240.000         207.000
 12  9 20  0  1 30.0000000  0  9G05G30G12G25G21G26G15G02G29
 111184824.17148  86637527.13548  21157767.1894   21157768.3724   21157766.9574
       233.000         191.000
 128602239.62848 100209511.17048  24472213.8914   24472218.5524   24472214.0864
       206.000         134.000
 126445691.45248  98529082.62048  24061836.0104   24061841.9554   24061835.9334
       214.000         151.000
 117270124.65048  91379279.37548  22315793.6294   22315799.7454   22315793.7304
       223.000         169.000
 122890044.18948  95758465.86648  23385206.4564   23385209.7024   23385206.8584
       212.000         149.000
 120621292.02848  93990614.62348  22953468.3134   22953472.7384   22953468.2974
       213.000         153.000
 124776353.10548  97228303.25648  23744168.4764   23744173.6564   23744167.9594
       214.000         150.000
 120568251.69548  93949289.09448  22943374.0244   22943375.3064   22943374.2794
       220.000         158.000
 106771099.32448  83198256.62948  20317866.6594   20317867.6254   20317866.4674
       240.000         207.000
 12  9 20  0  2  0.0000000  0  9G05G30G12G25G21G26G15G02G29
 111243087.78548  86682927.35448  21168854.3694   21168855.4894   21168854.0554
       234.000         191.000
 128543034.18148 100163377.15248  24460945.8524   24460951.6604   24460947.0654
       205.000         134.000
 126553239.99848  98612886.50148  24082302.2164   24082307.9674   24082302.1454
       214.000         152.000
 117346727.93648  91438970.18648  22330370.4944   22330377.0434   22330370.8264
       223.000         168.000
 122826658.47748  95709074.53948  23373144.8644   23373147.2784   23373144.7724
       213.000         148.000
 120536147.40248  93924268.28748  22937265.8454   22937270.3304   22937265.8054
       215.000         153.000
 124677114.92048  97150974.95648  23725284.1544   23725288.9574   23725283.5504
       215.000         153.000
 120638309.89948  94003879.85848  22956705.5424   22956707.0644   22956705.9894
       218.000         156.000
 106741983.67748  83175569.14548  20312326.0744   20312327.0034   20312326.0464
       240.000         207.000
 12  9 20  0  2 30.0000000  0  9G05G30G12G25G21G26G15G02G29
 111301765.12248  86728649.95748  21180020.2564   21180021.4444   21180019.9114
       234.000         190.000
 128484338.29648 100117640.19048  24449775.8024   24449780.4534   24449777.6184
       205.000         134.000
 126660817.19848  98696712.70748  24102773.4514   24102779.5034   24102773.5334
       215.000         150.000
 117423691.46048  91498941.70248  22345016.4134   22345022.9444   22345016.4824
       223.000         169.000
 122763341.96748  95659737.12648  23361096.1184   23361098.2364   23361096.4274
       214.000         148.000
 120451356.36948  93858197.48648  22921130.5274   22921134.7484   22921130.8094
       214.000         153.000
 124577955.00048  97073707.64348  23706414.5254   23706419.3674   23706414.5294
       216.000         155.000
 120708480.73548  94058558.40248  22970059.0154   22970059.8844   22970059.2174
       219.000         157.000
 106713290.85248  83153211.13148  20306865.9884   20306866.9364   20306865.8014
       240.000         207.000
 12  9 20  0  3  0.0000000  0 10G05G30G12G25G21G26G18G15G02G29
 111360853.81448  86774693.09748  21191264.4804   21191265.4494   21191264.1324
       233.000         190.000
 128426153.74248 100072301.66348  24438704.8364   24438709.9134   24438705.5704
       206.000         135.000
 126768420.44248  98780559.20148  24123250.1864   24123255.8014   24123249.8514
       212.000         148.000
 117501012.29848  91559191.65048  22359730.1784   22359736.6594   22359730.2484
       223.000         168.000
 122700094.31348  95610453.37248  23349060.0394   23349062.8254   23349061.1104
       213.000         148.000
 120366922.65148  93792405.11548  22905063.5254   22905067.1874   22905063.4174
       214.000         153.000
 129011346.23148 100528287.40848  24550069.1464   24550077.6524   24550070.0764
       198.000         130.000
 124478876.41348  96996503.69848  23687560.5774   23687565.0934   23687560.2884
       218.000         154.000
 120778764.26448  94113324.72648  22983433.2574   22983434.8474   22983433.7414
       218.000         157.000
 106685023.00348  83131184.26948  20301486.7864   20301487.7264   20301486.6124
       241.000         207.000
 12  9 20  0  3 30.0000000  0 10G05G30G12G25G21G26G18G15G02G29
 111420351.56448  86821054.98148  21202586.4894   21202587.4624   21202586.2964
       233.000         189.000
 128368482.31248 100027362.99048  24427731.0054   24427735.3944   24427731.6674
       207.000         136.000
 126876046.78248  98864423.71048  24143730.3404   24143736.5794   24143730.3924
       210.000         147.000
 117578687.47548  91619717.70848  22374511.5984   22374517.8024   22374511.7374
       222.000         168.000
 122636915.45048  95561223.21548  23337037.6554   23337040.0424   23337038.2144
       213.000         149.000
 120282849.85448  93726893.97948  22889064.4364   22889068.5254   22889064.8344
       216.000         153.000
 138913935.71558  90452387.27458  24531531.1375   24531537.8735   24531531.3595
       199.000         133.000
 124379882.54548  96919365.77848  23668722.7354   23668727.0814   23668722.4374
       217.000         158.000
 120849160.12248  94168178.60448  22996829.1324   22996830.3514   22996829.5424
       218.000         155.000
 106657181.24248  83109489.42648  20296188.5994   20296189.6494   20296188.4914
       240.000         208.000
 12  9 20  0  4  0.0000000  0 10G05G30G12G25G21G26G18G15G02G29
 111480256.10048  86867733.84948  21213986.0354   21213986.8794   21213985.7844
       233.000         189.000
 128311326.35748  99982825.97048  24416854.1874   24416859.2504   24416854.7074
       206.000         136.000
 126983693.28748  98948303.92448  24164214.6204   24164220.7204   24164214.8174
       210.000         145.000
 117656714.07048  91680517.57748  22389359.4164   22389366.0924   22389359.6564
       222.000         167.000
 122573805.42248  95512046.68548  23325027.9684   23325030.4164   23325028.9104
       213.000         149.000
 120199141.60348  93661666.91048  22873135.2804   22873139.5884   22873135.6274
       215.000         153.000
 138816636.29448  90376569.83048  24513014.8354   24513021.1584   24513015.5364
       203.000         135.000
 124280976.39648  96842296.20948  23649901.3924   23649905.5864   23649901.2134
       217.000         157.000
 120919668.28948  94223119.97848  23010246.2894   23010247.7434   23010246.7644
       218.000         156.000
 106629767.36248  83088127.99348  20290972.0244   20290972.9564   20290971.9164
       241.000         208.000
 12  9 20  0  4 30.0000000  0 10G05G30G12G25G21G26G18G15G02G29
 111540564.99548  86914727.80248  21225462.4864   21225463.2974   21225462.1844
       233.000         189.000
 128254687.16048  99938691.62148  24406076.3044   24406081.1774   24406076.6274
       208.000         136.000
 127091357.06248  99032197.58848  24184703.5054   24184708.7444   24184703.1624
       209.000         145.000
 117735089.02448  91741588.90348  22404273.7374   22404279.9424   22404273.8264
       221.000         166.000
 122510765.05048  95462924.44348  23313031.7584   23313034.5054   23313032.7394
       213.000         148.000
 120115801.45548  93596726.68248  22857276.1164   22857280.2634   22857276.5364
       214.000         154.000
 138719462.59348  90300850.31448  24494522.8534   24494530.6484   24494523.7384
       204.000         136.000
 124182160.68748  96765297.10848  23631096.8294   23631101.7444   23631096.7274
       218.000         159.000
 120990288.38248  94278148.58148  23023685.0254   23023686.3614   23023685.4674
       217.000         155.000
 106602783.00848  83067101.25848  20285837.0934   20285837.9394   20285837.0164
       241.000         208.000
 12  9 20  0  5  0.0000000  0 10G05G30G12G25G21G26G18G15G02G29
 111601275.72948  86962034.87548  21237015.3594   21237016.2184   21237015.0704
       233.000         189.000
 128198566.78548  99894961.54248  24395395.8324   24395401.7554   24395397.1224
       208.000         137.000
 127199035.13848  99116102.39348  24205193.4984   24205199.1114   24205193.5074
       208.000         143.000
 117813809.43748  91802929.42248  22419253.6644   22419259.8794   22419253.6354
       221.000         166.000
 122447793.04948  95413855.47948  23301048.2724   23301051.2014   23301048.6354
       210.000         149.000
 120032833.17748  93532076.23248  22841487.9114   22841492.0274   22841487.7374
       215.000         154.000
 138622415.85348  90225229.74148  24476054.0004   24476062.5074   24476056.0814
       204.000         136.000
 124083438.91548  96688371.23348  23612310.6504   23612315.1864   23612310.5484
       216.000         157.000
 121061019.98248  94333264.06248  23037144.5174   23037146.6464   23037145.0464
       217.000         156.000
 106576230.02048  83046410.64848  20280784.1304   20280784.9514   20280783.9814
       241.000         208.000
 12  9 20  0  5 30.0000000  0 10G05G30G12G25G21G26G18G15G02G29
 111662386.66948  87009653.79948  21248644.2304   21248645.2464   21248644.0514
       233.000         189.000
 128142967.01648  99851637.14348  24384816.1304   24384821.8724   24384816.8294
       208.000         137.000
 127306724.89348  99200016.30948  24225686.4794   24225692.1484   24225685.8294
       206.000         141.000
 117892872.31448  91864536.80248  22434298.9904   22434305.1124   22434299.1014
       222.000         166.000
 122384889.95748  95364840.21148  23289078.1074   23289081.1334   23289078.2484
       213.000         148.000
 119950240.30048  93467718.26948  22825770.4834   22825775.0734   22825770.4504
       215.000         153.000
 138525497.83948  90149709.46948  24457611.0124   24457619.1064   24457612.0134
       204.000         136.000
 123984813.59548  96611520.51048  23593542.9414   23593547.6434   23593542.5814
       217.000         157.000
 121131863.27448  94388466.58148  23050626.0344   23050627.7864   23050626.0764
       219.000         158.000
 106550109.67548  83026057.16448  20275813.5264   20275814.3374   20275813.3944
       241.000         208.000
 12  9 20  0  6  0.0000000  0 10G05G30G12G25G21G26G18G15G02G29
 111723894.80748  87057582.22448  21260348.8184   21260349.9584   21260348.4854
       233.000         189.000
 128087889.21548  99808719.47548  24374334.5304   24374340.1844   24374335.8574
       207.000         137.000
 127414423.75348  99283937.29148  24246180.7024   24246187.1064   24246180.8554
       206.000         140.000
 117972274.62148  91926408.67248  22449408.7724   22449415.0254   22449408.9034
       222.000         168.000
 122322055.96148  95315878.76248  23277120.9824   23277123.5224   23277121.8474
       214.000         149.000
 119868026.48648  93403655.69648  22810125.8364   22810130.0824   22810125.6644
       216.000         154.000
 138428709.75948  90074290.41748  24439192.9294   24439200.1684   24439193.8614
       205.000         137.000
 123886288.17948  96534747.64848  23574793.7534   23574798.4934   23574793.7834
       216.000         157.000
 121202817.67648  94443755.67948  23064128.2784   23064129.8194   23064128.9954
       218.000         157.000
 106524423.73548  83006042.18248  20270925.5724   20270926.5104   20270925.4264
       241.000         208.000
 12  9 20  0  6 30.0000000  0 10G05G30G12G25G21G26G18G15G02G29
 111785798.27048  87105818.69448  21272128.6494   21272129.7714   21272128.3724
       233.000         189.000
 128033335.82048  99766210.40848  24363953.7294   24363960.5114   24363954.6684
       210.000         139.000
 127522128.73948  99367863.09748  24266677.0144   24266681.6564   24266676.6164
       206.000         138.000
 118052013.38448  91988542.71248  22464582.9484   22464589.0744   22464583.0514
       223.000         167.000
 122259290.80148  95266970.96648  23265177.3884   23265179.7524   23265178.1724
       212.000         150.000
 119786195.37248  93339891.34548  22794553.5304   22794557.7254   22794553.5604
       215.000         155.000
 138332053.62248  89998974.18848  24420799.4024   24420806.7064   24420800.7024
       207.000         139.000
 123787865.79448  96458055.06148  23556064.7064   23556069.3864   23556064.3644
       215.000         156.000
 121273883.00748  94499131.19948  23077651.7414   23077652.7814   23077652.1424
       218.000         157.000
 106499173.80648  82986366.94648  20266120.6774   20266121.6324   20266120.4864
       241.000         208.000
 12  9 20  0  7  0.0000000  0 10G05G30G12G25G21G26G18G15G02G29
 111848094.84148  87154361.47348  21283983.3434   21283984.4604   21283982.9394
       232.000         190.000
 127979308.00848  99724110.90548  24353672.0364   24353678.1844   24353673.2444
       207.000         137.000
 127629837.08448  99451791.48948  24287171.8624   24287178.7044   24287172.8374
       205.000         139.000
 118132085.58948  92050936.56848  22479820.1984   22479826.5014   22479820.3784
       223.000         167.000
 122196594.53548  95218116.87148  23253246.6104   23253249.0094   23253246.8254
       214.000         149.000
 119704750.55048  93276427.98148  22779054.9944   22779059.0854   22779055.2064
       217.000         155.000
 138235530.36948  89923761.47948  24402432.7684   24402439.7044   24402432.8984
       211.000         139.000
 123689549.53148  96381445.17748  23537355.0764   23537359.8934   23537354.9024
       214.000         154.000
 121345059.22448  94554593.13948  23091195.9404   23091197.5994   23091196.5214
       216.000         156.000
 106474361.28648  82967032.54648  20261398.9624   20261399.9634   20261398.8474
       241.000         209.000
 12  9 20  0  7 30.0000000  0 10G05G30G12G25G21G26G18G15G02G29
 111910781.47548  87203208.20648  21295912.0144   21295913.3324   21295911.7634
       232.000         189.000
 127925807.71748  99682422.45348  24343492.0704   24343497.0344   24343492.2484
       206.000         137.000
 127737545.97348  99535720.32148  24307670.0304   24307674.7174   24307669.4634
       206.000         138.000
 118212488.23348  92113587.91648  22495120.5164   22495126.6664   22495120.6144
       221.000         167.000
 122133967.01448  95169316.32348  23241328.8914   23241331.3464   23241329.3424
       216.000         150.000
 119623695.65048  93213268.45648  22763631.0064   22763634.3004   22763631.0544
       217.000         155.000
 138139141.54548  89848653.50448  24384090.1764   24384096.5974   24384090.7054
       210.000         138.000
 123591342.62548  96304920.53448  23518666.7594   23518671.3064   23518666.9894
       212.000         154.000
 121416346.13148  94610141.33648  23104761.6824   23104763.0764   23104761.5834
       217.000         157.000
 106449987.79448  82948040.24848  20256760.8104   20256761.7264   20256760.7014
       241.000         209.000
 12  9 20  0  8  0.0000000  0 10G05G30G12G25G21G26G18G15G02G29
 111973856.17948  87252357.32148  21307914.6654   21307915.9724   21307914.4074
       232.000         189.000
 127872836.67848  99641146.42148  24333411.8914   24333416.6434   24333411.8554
       209.000         137.000
 127845252.62648  99619647.38448  24328165.6314   24328170.9484   24328165.3204
       206.000         138.000
 118293218.26148  92176494.37248  22510482.6424   22510489.2594   22510482.9094
       221.000         166.000
 122071408.23848  95120569.35348  23229424.2654   23229426.2324   23229425.2484
       215.000         151.000
 119543034.23648  93150415.54648  22748281.4594   22748284.6524   22748281.5284
       218.000         155.000
 138042889.03248  89773651.75348  24365774.2804   24365780.8364   24365774.1384
       208.000         138.000
 123493247.66848  96228483.10148  23499999.6024   23500003.8424   23499999.5704
       211.000         152.000
 121487743.47448  94665775.58948  23118347.8894   23118349.3664   23118348.3924
       217.000         157.000
 106426054.79148  82929391.18648  20252206.4934   20252207.4104   20252206.3624
       241.000         209.000
 12  9 20  0  8 30.0000000  0 10G05G30G12G25G21G26G18G15G02G29
 112037316.73548  87301807.10648  21319990.8874   21319992.0844   21319990.5874
       232.000         189.000
 127820396.20548  99600283.79148  24323433.1264   24323435.6614   24323433.4744
       209.000         138.000
 127952954.38948  99703570.65748  24348661.2154   24348666.8884   24348660.6714
       207.000         140.000
 118374272.68448  92239653.61048  22525906.4894   22525913.1844   22525906.7784
       221.000         165.000
 122008918.35748  95071876.06648  23217533.2844   23217534.9334   23217533.6624
       215.000         151.000
 119462769.87148  93087872.02248  22733007.7164   22733010.7114   22733007.5964
       219.000         154.000
 137946773.74448  89698756.94748  24347482.6414   24347490.9164   24347483.8114
       208.000         138.000
 123395267.95248  96152135.47948  23481354.6104   23481358.8754   23481354.2294
       210.000         153.000
 121559251.03448  94721495.71248  23131955.6324   23131957.2674   23131955.8094
       216.000         155.000
 106402564.00048  82911086.70548  20247736.3874   20247737.3024   20247736.2744
       241.000         209.000
 12  9 20  0  9  0.0000000  0 10G05G30G12G25G21G26G18G15G02G29
 112101160.61448  87351555.57648  21332140.0474   21332141.2734   21332139.7474
       233.000         189.000
 127768488.42548  99559836.26448  24313554.5524   24313560.3964   24313555.4894
       207.000         137.000
 128060647.91748  99787487.50148  24369154.2464   24369161.1004   24369154.3274
       210.000         141.000
 118455648.43448  92303063.22648  22541391.8014   22541398.4444   22541391.8894
       220.000         164.000
 121946497.66848  95023236.67148  23205654.2924   23205656.4424   23205655.0114
       216.000         151.000
 119382906.17448  93025640.69648  22717809.7494   22717812.9804   22717809.6984
       217.000         155.000
 137850797.15848  89623970.22848  24329218.5624   24329226.3114   24329220.0964
       209.000         138.000
 123297406.68348  96075880.14748  23462732.2564   23462736.1644   23462731.7734
       212.000         152.000
 121630868.41548  94777301.41548  23145583.9154   23145585.2544   23145584.4174
       215.000         155.000
 106379517.05248  82893128.07748  20243350.5954   20243351.4974   20243350.4884
       241.000         209.000
 12  9 20  0  9 30.0000000  0 10G05G30G12G25G21G26G18G15G02G29
 112165385.81148  87401601.18648  21344361.8204   21344363.0454   21344361.5744
       233.000         190.000
 127717114.45248  99519804.70048  24303778.4094   24303782.2744   24303779.1594
       209.000         137.000
 128168330.72548  99871396.01548  24389646.1624   24389652.6074   24389646.1934
       210.000         142.000
 118537342.48548  92366720.87448  22556937.8214   22556944.1774   22556937.9784
       221.000         164.000
 121884145.73048  94974650.86048  23193789.2474   23193791.3084   23193789.3194
       214.000         151.000
 119303446.70648  92963724.36748  22702688.8034   22702692.5994   22702688.7724
       217.000         158.000
 137754961.04148  89549292.93948  24310982.1374   24310989.9954   24310982.4514
       206.000         137.000
 123199666.95348  95999719.51048  23444132.2254   23444136.8244   23444132.2164
       210.000         153.000
 121702596.03048  94833193.01948  23159233.0584   23159234.9834   23159233.3544
       215.000         155.000
 106356915.45448  82875516.47048  20239049.6764   20239050.5004   20239049.5414
       241.000         209.000
 12  9 20  0 10  0.0000000  0 10G05G30G12G25G21G26G18G15G02G29
 112229989.74348  87451941.90848  21356655.5384   21356656.8194   21356655.2684
       233.000         191.000
 127666276.38148  99480190.70448  24294103.7774   24294108.7284   24294104.6634
       209.000         135.000
 128276000.21648  99955294.12448  24410135.4434   24410142.7964   24410134.8844
       210.000         143.000
 118619351.80648  92430624.17248  22572543.8614   22572550.3314   22572544.1804
       222.000         165.000
 121821862.66748  94926118.69248  23181936.6624   23181939.4604   23181937.2654
       216.000         151.000
 119224395.00448  92902125.77048  22687645.1884   22687649.3164   22687645.5514
       218.000         157.000
 137659267.21948  89474726.53948  24292771.2454   24292778.9404   24292771.9094
       206.000         136.000
 123102051.83148  95923655.95448  23425557.1534   23425561.5134   23425556.0234
       212.000         153.000
 121774433.24348  94889170.02848  23172903.1444   23172905.1514   23172903.9584
       215.000         153.000
 106334760.41648  82858252.83848  20234833.7594   20234834.5044   20234833.6084
       242.000         210.000
 12  9 20  0 10 30.0000000  0 10G05G30G12G25G21G26G18G15G02G29
 112294970.15948  87502575.99148  21369020.9354   21369022.1304   21369020.6114
       233.000         191.000
 127615975.32848  99440995.17148  24284532.2934   24284536.4604   24284532.6044
       207.000         136.000
 128383653.82848 100039179.89048  24430620.2314   24430628.0644   24430620.8374
       209.000         144.000
 118701673.30748  92494770.72548  22588209.3534   22588215.5034   22588209.8174
       221.000         165.000
 121759648.53748  94877640.25548  23170098.2464   23170099.6624   23170098.4604
       216.000         153.000
 119145754.66348  92840847.71348  22672680.8224   22672684.7154   22672680.7634
       217.000         159.000
 137563716.84148  89400271.89748  24274588.3424   24274595.1424   24274589.1054
       204.000         135.000
 123004564.50748  95847692.00548  23407004.9194   23407009.9244   23407005.0694
       212.000         153.000
 121846379.63448  94945232.11148  23186594.3094   23186596.0264   23186594.6874
       213.000         152.000
 106313053.56048  82841338.43548  20230703.0864   20230703.8274   20230702.9124
       242.000         210.000
 12  9 20  0 11  0.0000000  0 10G05G30G12G25G21G26G18G15G02G29
 112360324.52048  87553501.45948  21381457.4714   21381458.6694   21381457.1144
       234.000         190.000
 127566213.10348  99402219.50048  24275063.4154   24275068.3144   24275063.4854
       208.000         137.000
 128491288.13448 100123050.59948  24451102.4874   24451111.0784   24451102.7904
       207.000         142.000
 118784303.96148  92559158.16748  22603933.9204   22603939.5844   22603934.0904
       221.000         165.000
 121697503.05948  94829215.28448  23158272.3484   23158274.1844   23158272.7874
       216.000         152.000
 119067529.19348  92779892.93248  22657795.2294   22657798.8494   22657795.1704
       217.000         159.000
 137468310.71548  89325929.71248  24256433.0254   24256440.1504   24256433.2544
       204.000         134.000
 122907207.81948  95771829.82448  23388478.8244   23388483.0764   23388478.8044
       213.000         154.000
 121918435.25448  95001379.28848  23200306.1174   23200307.8564   23200306.2484
       213.000         153.000
 106291796.37948  82824774.42648  20226658.0434   20226658.6524   20226657.9044
       243.000         210.000
 12  9 20  0 11 30.0000000  0 10G05G30G12G25G21G26G18G15G02G29
 112426050.67048  87604716.63348  21393964.7034   21393966.0814   21393964.3144
       233.000         191.000
 127516991.37048  99363864.97648  24265696.4634   24265700.2254   24265696.8944
       209.000         137.000
 128598900.77848 100206904.41248  24471581.1884   24471588.8124   24471580.7624
       207.000         142.000
 118867240.70148  92623784.13848  22619716.1444   22619722.2064   22619716.2214
       221.000         163.000
 121635426.59948  94780844.10648  23146459.4284   23146461.1634   23146460.2824
       218.000         153.000
 118989722.16948  92719264.22848  22642989.1074   22642992.7874   22642989.0374
       217.000         159.000
 137373050.80148  89251701.42148  24238306.1564   24238311.9674   24238306.2024
       205.000         134.000
 122809985.45548  95696072.30848  23369977.6714   23369982.1544   23369978.0034
       214.000         155.000
 121990600.05548  95057611.57948  23214038.2064   23214040.6294   23214038.6464
       214.000         154.000
 106270990.33448  82808561.95348  20222698.7094   20222699.3474   20222698.6404
       242.000         210.000
 12  9 20  0 12  0.0000000  0 10G05G30G12G25G21G26G18G15G02G29
 112492146.08248  87656219.54248  21406542.1624   21406543.6644   21406541.9234
       233.000         191.000
 127468311.32348  99325932.54648  24256432.9524   24256436.2744   24256433.1684
       207.000         137.000
 128706489.12448 100290739.31448  24492054.7394   24492061.8324   24492054.5224
       206.000         141.000
 118950480.41548  92688646.18648  22635555.9414   22635562.3174   22635556.0794
       220.000         164.000
 121573419.34648  94732526.87048  23134659.7894   23134661.7254   23134660.4904
       216.000         153.000
 118912337.02948  92658964.25948  22628262.9214   22628266.1924   22628263.2034
       217.000         159.000
 137277938.61548  89177588.24648  24220206.4314   24220213.8984   24220206.8354
       204.000         133.000
 122712900.07748  95620421.53348  23351502.9744   23351507.8934   23351503.0764
       212.000         155.000
 122062873.65048  95113928.63948  23227791.9114   23227794.0534   23227792.0374
       214.000         155.000
 106250637.06548  82792702.29248  20218825.4704   20218826.3104   20218825.3114
       243.000         210.000
 12  9 20  0 12 30.0000000  0 10G05G30G12G25G21G26G18G15G02G29
 112558608.37248  87708008.33148  21419189.5984   21419190.9024   21419189.2524
       233.000         190.000
 127420174.82948  99288423.69248  24247272.0434   24247275.9934   24247272.7884
       209.000         136.000
 128814050.49048 100374553.15148  24512523.0734   24512530.8784   24512522.8294
       205.000         140.000
 119034020.06848  92753741.96148  22651453.0584   22651459.4684   22651453.1784
       220.000         163.000
 121511481.24748  94684263.50548  23122872.8914   23122874.7774   23122873.4724
       216.000         154.000
 118835377.38848  92598995.83848  22613617.7014   22613621.1954   22613618.0234
       217.000         157.000
 137182975.52348  89103591.24348  24202135.1364   24202142.0004   24202136.1684
       203.000         135.000
 122615954.87948  95544879.97848  23333054.8654   23333059.1324   23333054.5384
       212.000         154.000
 122135255.93148  95170330.36348  23241565.5484   23241567.4384   23241566.3704
       215.000         154.000
 106230738.04048  82777196.58648  20215038.9674   20215039.6464   20215038.8314
       243.000         211.000
 12  9 20  0 13  0.0000000  0 10G05G30G12G25G21G26G18G15G02G29
 112625435.14848  87760081.13148  21431906.3264   21431907.6264   21431906.0954
       233.000         190.000
 127372582.96048  99251339.19148  24238216.2094   24238220.6304   24238216.5324
       208.000         137.000
 128921581.60948 100458343.47048  24532985.9344   24532993.3584   24532985.9014
       205.000         141.000
 119117856.56948  92819069.02848  22667406.5064   22667413.4624   22667406.8454
       220.000         162.000
 121449612.83748  94636054.44248  23111099.4474   23111102.0244   23111099.9214
       216.000         155.000
 118758846.68548  92539361.65848  22599054.4954   22599057.9064   22599054.6064
       217.000         158.000
 137088162.78648  89029711.42648  24184091.6594   24184100.1304   24184093.7494
       203.000         136.000
 122519152.78348  95469449.94348  23314634.0954   23314638.0974   23314633.9694
       212.000         155.000
 122207746.84448  95226816.75848  23255360.4354   23255361.6824   23255360.6274
       214.000         152.000
 106211294.50048  82762045.80248  20211338.9584   20211339.6314   20211338.8674
       243.000         211.000
 12  9 20  0 13 30.0000000  0 10G05G30G12G25G21G26G18G15G02G29
 112692624.09048  87812436.14148  21444692.0874   21444693.2324   21444691.8194
       234.000         190.000
 127325537.25948  99214680.27848  24229263.5234   24229268.9634   24229264.6504
       210.000         138.000
 129029080.06048 100542108.30548  24553443.4614   24553449.1484   24553442.1474
       201.000         138.000
 119201986.83248  92884625.01348  22683416.3114   22683422.6684   22683416.4384
       220.000         162.000
 121387812.85048  94587898.69648  23099339.1054   23099341.7154   23099339.7054
       216.000         155.000
 118682748.48048  92480064.48048  22584573.1784   22584577.0034   22584573.2984
       216.000         158.000
 136993501.80348  88955949.82648  24166079.5684   24166087.0144   24166080.5874
       206.000         136.000
 122422497.25548  95394134.10848  23296241.2094   23296245.0944   23296241.0574
       213.000         156.000
 122280345.99648  95283387.48048  23269175.6284   23269177.0664   23269175.5634
       214.000         152.000
 106192308.00148  82747251.14948  20207725.8994   20207726.5554   20207725.7544
       243.000         211.000
 12  9 20  0 14  0.0000000  0 10G05G30G12G25G21G26G18G15G02G29
 112760172.89748  87865071.56448  21457546.2754   21457547.2574   21457545.9284
       234.000         190.000
 127279039.36448  99178448.21048  24220415.6054   24220419.3764   24220416.3084
       207.000         138.000
 129136543.45148 100625845.82348  24573892.7104   24573899.6084   24573891.9664
       201.000         137.000
 119286407.79748  92950407.51748  22699480.7494   22699487.5114   22699481.1504
       219.000         162.000
 121326082.11248  94539796.90448  23087592.7644   23087594.9224   23087592.8294
       217.000         157.000
 118607086.24848  92421107.01748  22570175.0824   22570178.5384   22570175.0964
       216.000         158.000
 136898994.10248  88882307.66448  24148096.3304   24148101.9444   24148096.5754
       208.000         138.000
 122325991.51448  95318934.99348  23277876.7154   23277880.3914   23277876.7864
       212.000         154.000
 122353053.37248  95340042.54948  23283011.3334   23283012.4564   23283011.2124
       214.000         152.000
 106173780.14848  82732813.88348  20204200.1214   20204200.7864   20204199.9154
       243.000         211.000
 12  9 20  0 14 30.0000000  0 10G05G30G12G25G21G26G18G15G02G29
 112828079.12448  87917985.50248  21470468.3374   21470469.4204   21470468.0984
       234.000         191.000
 127233090.68348  99142644.11548  24211671.4184   24211677.4324   24211671.4814
       207.000         138.000
 129243969.12348 100709553.93848  24594333.2484   24594341.3284   24594335.2994
       199.000         136.000
 119371116.36748  93016414.12948  22715600.6254   22715606.9824   22715600.6904
       220.000         162.000
 121264420.54748  94491749.02148  23075858.6014   23075861.0514   23075859.4044
       217.000         158.000
 118531863.36148  92362491.89948  22555860.6144   22555864.1594   22555860.5884
       216.000         158.000
 136804641.13948  88808786.09648  24130141.3624   24130147.1234   24130141.9994
       208.000         139.000
 122229638.44248  95243854.85448  23259541.0094   23259545.0894   23259540.8144
       211.000         155.000
 122425868.72848  95396781.74148  23296867.4424   23296868.4624   23296867.9434
       214.000         153.000
 106155712.12148  82718734.92148  20200761.8994   20200762.5944   20200761.7854
       243.000         211.000
 12  9 20  0 15  0.0000000  0 10G05G30G12G25G21G26G18G15G02G29
 112896340.46248  87971176.14648  21483457.9874   21483459.1174   21483457.6794
       233.000         190.000
 127187692.34848  99107268.84748  24203031.8884   24203037.3714   24203032.5054
       207.000         136.000
 129351353.46348 100793229.84948  24614769.0734   24614775.9804   24614769.1924
       202.000         136.000
 119456109.39248  93082642.41048  22731774.2264   22731780.7934   22731774.4304
       219.000         161.000
 121202828.08348  94443754.98848  23064138.1454   23064140.4404   23064138.4604
       219.000         157.000
 118457083.38448  92304221.90848  22541630.2104   22541634.0074   22541630.5684
       217.000         158.000
 136710444.29148  88735386.15048  24112215.7294   24112222.6694   24112216.6694
       211.000         142.000
 122133441.26248  95168896.19548  23241234.7254   23241239.6374   23241234.4814
       211.000         156.000
 122498791.82848  95453604.90448  23310744.0854   23310745.5544   23310744.7544
       214.000         153.000
 106138105.18648  82705015.25248  20197411.3624   20197412.0764   20197411.2664
       243.000         211.000
 12  9 20  0 15 30.0000000  0 10G05G30G12G25G21G26G18G15G02G29
 112964954.17448  88024641.35948  21496514.6624   21496516.0164   21496514.3594
       232.000         190.000
 127142846.04848  99072323.74248  24194498.1494   24194502.2514   24194498.7714
       206.000         137.000
 129458694.35848 100876871.92548  24635195.9574   24635202.8934   24635196.1784
       202.000         137.000
 119541383.79748  93149089.93048  22748001.4594   22748007.9734   22748001.8894
       219.000         160.000
 121141304.98248  94395815.00648  23052430.6144   23052432.5174   23052431.3054
       219.000         158.000
 118382749.79548  92246299.73048  22527485.1264   22527488.6464   22527485.3414
       217.000         158.000
 136616404.69848  88662108.74848  24094320.9084   24094326.6974   24094321.4754
       214.000         142.000
 122037402.94848  95094061.32448  23222959.2484   23222963.7864   23222958.7454
       211.000         157.000
 122571822.48848  95510511.86248  23324641.8554   23324642.7664   23324642.7354
       213.000         152.000
 106120960.99648  82691656.16448  20194148.9624   20194149.6574   20194148.8084
       243.000         212.000
 12  9 20  0 16  0.0000000  0 10G05G30G12G25G21G26G18G15G02G29
 113033918.21948  88078379.56948  21509638.1484   21509639.3564   21509637.9084
       233.000         189.000
 127098552.60448  99037809.43548  24186068.5454   24186074.3294   24186069.3494
       204.000         136.000
 129565989.06648 100960477.97948  24655614.1764   24655621.3794   24655613.4374
       202.000         137.000
 119626936.50348  93215754.31248  22764281.8864   22764287.8114   22764281.8344
       219.000         158.000
 121079851.16948  94347929.02248  23040736.0224   23040738.3274   23040736.7614
       219.000         158.000
 118308865.98248  92188728.04148  22513425.3844   22513429.0644   22513425.7214
       219.000         158.000
 136522524.07948  88588955.22148  24076455.3364   24076461.2504   24076456.3784
       212.000         142.000
 121941526.68848  95019352.74048  23204714.8954   23204719.0694   23204714.4554
       213.000         158.000
 122644960.64248  95567502.59748  23338560.1104   23338560.9244   23338560.4754
       212.000         151.000
 106104280.91248  82678658.71848  20190974.8624   20190975.4914   20190974.7914
       243.000         212.000
 12  9 20  0 16 30.0000000  0 10G05G30G12G25G21G26G18G15G02G29
 113103230.17848  88132388.87348  21522827.8154   21522829.0154   21522827.4584
       233.000         189.000
 127054813.89948  99003727.37448  24177746.3434   24177751.4594   24177746.5864
       204.000         134.000
 129673234.79948 101044045.89348  24676023.1764   24676028.3864   24676022.2984
       204.000         135.000
 119712764.36048  93282633.09748  22780613.9294   22780620.5634   22780614.2424
       218.000         158.000
 121018466.95248  94300097.26248  23029055.0744   23029056.8764   23029055.1614
       218.000         157.000
 118235435.41448  92131509.52748  22499452.1534   22499455.4964   22499452.1364
       218.000         160.000
 136428803.45148  88515926.35148  24058620.9994   24058627.2704   24058621.6394
       212.000         144.000
 121845815.70648  94944772.92948  23186501.4524   23186505.6164   23186501.6814
       213.000         159.000
 122718205.95948  95624576.82548  23352497.7584   23352498.9974   23352497.6714
       212.000         150.000
 106088066.19248  82666023.88948  20187889.2194   20187889.8894   20187889.1374
       243.000         211.000
 12  9 20  0 17  0.0000000  0 10G05G30G12G25G21G26G18G15G02G29
 113172887.55748  88186667.34748  21536082.9574   21536084.2984   21536082.6874
       232.000         189.000
 127011631.05748  98970078.47048  24169527.8794   24169533.6024   24169528.6444
       205.000         135.000
 129780429.01748 101127573.67448  24696419.8124   24696427.5044   24696420.9694
       203.000         134.000
 119798864.26448  93349723.87148  22796998.2114   22797005.2724   22796998.5464
       215.000         158.000
 120957152.13048  94252319.57648  23017386.9314   23017388.8124   23017387.3534
       219.000         158.000
 118162461.50148  92074646.83648  22485565.9134   22485568.5994   22485565.8164
       222.000         160.000
 136335244.49548  88443023.46248  24040816.8824   24040823.3334   24040817.7524
       214.000         144.000
 121750273.03948  94870324.27848  23168320.0394   23168324.2834   23168319.9194
       214.000         159.000
 122791558.43848  95681734.57548  23366456.0824   23366457.6454   23366455.8924
       212.000         150.000
 106072318.20448  82653752.74748  20184892.3614   20184893.0574   20184892.1834
       243.000         211.000
 12  9 20  0 17 30.0000000  0 10G05G30G12G25G21G26G18G15G02G29
 113242888.14448  88241213.24748  21549403.7244   21549405.1064   21549403.4624
       232.000         189.000
 126969004.98148  98936863.43048  24161415.7054   24161422.1514   24161417.2834
       202.000         134.000
 129887568.89948 101211059.15248  24716808.0194   24716815.6224   24716808.1154
       204.000         134.000
 119885233.10448  93417024.18448  22813433.9144   22813440.2654   22813434.0704
       216.000         157.000
 120895906.80448  94204596.04848  23005732.4424   23005734.4434   23005732.8954
       218.000         159.000
 118089947.64748  92018142.64048  22471766.9024   22471769.9314   22471767.0764
       220.000         160.000
 136241848.51248  88370247.56648  24023044.6134   24023049.9274   24023045.0444
       212.000         143.000
 121654902.00148  94796009.35948  23150171.8444   23150175.7594   23150171.4404
       215.000         160.000
 122865017.90448  95738975.69248  23380435.5434   23380436.2684   23380434.9764
       214.000         149.000
 106057038.06248  82641846.15548  20181984.7454   20181985.3094   20181984.5384
       243.000         211.000
 12  9 20  0 18  0.0000000  0 10G05G30G12G25G21G26G18G15G02G29
 113313229.29148  88296024.51748  21562789.2504   21562790.5834   21562788.9654
       233.000         188.000
 126926937.59848  98904083.72448  24153411.8844   24153417.0294   24153411.7484
       204.000         134.000
 129994652.00648 101294500.34548  24737186.4424   24737194.1004   24737185.3114
       203.000         135.000
 119971867.71248  93484531.58148  22829919.9444   22829926.7374   22829920.2314
       216.000         156.000
 120834731.19648  94156926.85148  22994091.0624   22994093.2794   22994091.6524
       219.000         159.000
 118017897.24948  91961999.56748  22458055.6974   22458058.9244   22458055.9234
       221.000         160.000
 136148616.85148  88297599.70048  24005303.3064   24005308.9134   24005303.2854
       213.000         143.000
 121559705.82048  94721830.68548  23132056.2664   23132060.0014   23132055.9554
       215.000         160.000
 122938584.07848  95796299.95348  23394434.4164   23394435.4964   23394434.8844
       216.000         150.000
 106042227.38348  82630305.38048  20179166.3094   20179166.9144   20179166.1864
       243.000         212.000
 12  9 20  0 18 30.0000000  0 10G05G30G12G25G21G26G18G15G02G29
 113383908.71848  88351099.38148  21576239.2014   21576240.3364   21576238.8994
       233.000         187.000
 126885429.60448  98871739.90648  24145512.8164   24145518.1814   24145513.0894
       206.000         135.000
 130101675.54148 101377895.13748  24757552.1954   24757559.9424   24757551.7054
       205.000         135.000
 120058765.05448  93552243.73148  22846455.9944   22846462.9494   22846456.2394
       216.000         155.000
 120773625.65148  94109312.25348  22982462.9504   22982464.8414   22982463.6634
       219.000         158.000
 117946313.73248  91906220.30348  22444433.6824   22444436.9504   22444433.6574
       220.000         161.000
 136055550.81748  88225080.90248  23987592.9874   23987598.2374   23987593.1614
       212.000         143.000
 121464687.15948  94647790.34748  23113975.0424   23113978.3584   23113974.6534
       215.000         160.000
 123012256.86848  95853707.31548  23408453.9884   23408454.8254   23408454.6594
       217.000         151.000
 106027887.48148  82619131.44648  20176437.5334   20176438.1154   20176437.3134
       243.000         212.000
 12  9 20  0 19  0.0000000  0 10G05G30G12G25G21G26G18G15G02G29
 113454924.15448  88406436.06548  21589752.9924   21589754.2004   21589752.7084
       233.000         187.000
 126844482.24548  98839832.92348  24137720.0944   24137725.5134   24137721.0664
       206.000         134.000
 130208636.69748 101461241.32648  24777906.1884   24777913.1984   24777905.4344
       206.000         136.000
 120145921.94048  93620158.13148  22863041.3204   22863047.8194   22863041.9804
       216.000         154.000
 120712589.67448  94061751.85248  22970848.0374   22970850.0594   22970848.8574
       220.000         159.000
 117875200.38148  91850807.40248  22430901.1784   22430904.5184   22430901.1974
       221.000         162.000
 135962651.68648  88152692.18048  23969913.9014   23969919.6884   23969914.5984
       214.000         144.000
 121369849.31548  94573890.88048  23095927.9874   23095931.1704   23095927.8064
       216.000         159.000
 123086035.93748  95911197.48848  23422493.8284   23422494.5954   23422494.4584
       217.000         151.000
 106014019.70048  82608325.40048  20173798.6904   20173799.1984   20173798.5384
       244.000         212.000
 12  9 20  0 19 30.0000000  0 10G05G30G12G25G21G26G18G15G02G29
 113526273.23448  88462032.73848  21603330.2634   21603331.3114   21603330.0224
       232.000         187.000
 126804096.96248  98808363.93448  24130036.4224   24130040.5624   24130036.1364
       205.000         135.000
 130315533.01348 101544537.01648  24798247.6744   24798254.5654   24798247.3054
       206.000         135.000
 120233335.30048  93688272.36848  22879675.7184   22879682.2844   22879675.8864
       213.000         154.000
 120651623.38748  94014245.76048  22959246.4334   22959248.8004   22959246.8574
       219.000         160.000
 117804560.65548  91795763.57048  22417458.9564   22417462.2494   22417458.8804
       221.000         163.000
 135869921.06548  88080434.74248  23952267.8844   23952273.7344   23952268.6884
       213.000         142.000
 121275195.80348  94500135.06948  23077916.0094   23077919.0044   23077915.8064
       215.000         160.000
 123159921.31648  95968770.50148  23436553.8964   23436554.4764   23436553.8794
       217.000         152.000
 106000625.53248  82597888.39948  20171249.8034   20171250.3964   20171249.7124
       244.000         213.000
 12  9 20  0 20  0.0000000  0 10G05G30G12G25G21G26G18G15G02G29
 113597953.26748  88517887.30048  21616970.5484   21616971.6564   21616970.2534
       232.000         186.000
 126764274.68448  98777333.69348  24122458.1354   24122460.9264   24122458.2674
       208.000         134.000
 130422361.82148 101627780.10448  24818576.6034   24818584.1404   24818576.3604
       203.000         135.000
 120321001.91648  93756583.95848  22896358.1274   22896364.5934   22896358.3134
       212.000         152.000
 120590726.99648  93966794.14748  22947657.9524   22947660.4144   22947658.4014
       219.000         159.000
 117734397.85548  91741091.35448  22404107.1784   22404110.4444   22404107.5134
       222.000         164.000
 135777360.27148  88008309.66548  23934654.4504   23934659.7764   23934655.1334
       212.000         142.000
 121180729.47248  94426525.10248  23059939.2054   23059942.2534   23059938.8774
       215.000         159.000
 123233912.79348  96026426.19248  23450633.9234   23450634.6144   23450633.8744
       217.000         151.000
 105987705.65548  82587820.98148  20168791.1424   20168791.8254   20168791.0274
       244.000         213.000
 12  9 20  0 20 30.0000000  0 10G05G30G12G25G21G26G18G15G02G29
 113669961.91848  88573997.93248  21630673.3024   21630674.3314   21630672.9854
       232.000         186.000
 126725016.75848  98746743.18548  24114987.4124   24114990.6464   24114987.9144
       211.000         137.000
 130529120.34948 101710968.39848  24838891.6764   24838898.8604   24838892.4244
       204.000         135.000
 120408918.72548  93825090.51448  22913088.0924   22913095.0814   22913088.0364
       212.000         153.000
 120529900.94848  93919397.31848  22936083.2914   22936085.2534   22936083.5964
       219.000         159.000
 117664715.32048  91686793.36448  22390847.3104   22390849.8064   22390847.5134
       224.000         163.000
 135684970.50548  87936317.86248  23917073.5144   23917078.0704   23917073.8364
       212.000         142.000
 121086453.58048  94353063.51648  23041998.7644   23042002.1974   23041998.5964
       214.000         159.000
 123308010.17448  96084164.37048  23464733.7264   23464734.7644   23464734.4874
       215.000         150.000
 105975261.55648  82578124.29148  20166423.0554   20166423.7554   20166422.8924
       244.000         213.000
 12  9 20  0 21  0.0000000  0 10G05G30G12G25G21G26G18G15G02G29
 113742296.89648  88630362.85048  21644438.0564   21644439.3124   21644437.8444
       232.000         186.000
 126686323.96848  98716593.02548  24107624.9674   24107627.8614   24107625.3364
       209.000         136.000
 130635806.04448 101794099.95948  24859194.6064   24859201.4354   24859194.3804
       207.000         137.000
 120497082.50548  93893789.50648  22929865.1414   22929872.1494   22929865.2554
       212.000         152.000
 120469144.83448  93872054.99448  22924521.7224   22924523.9674   22924522.2904
       220.000         159.000
 117595516.42948  91632872.23548  22377679.2014   22377681.8794   22377679.2654
       221.000         164.000
 135592752.96248  87864460.25448  23899524.6044   23899528.9344   23899525.3334
       212.000         142.000
 120992371.16248  94279752.68948  23024095.2434   23024098.5894   23024094.9524
       215.000         158.000
 123382213.34948  96141985.01048  23478853.9634   23478855.4784   23478854.7724
       213.000         148.000
 105963294.63448  82568799.42548  20164145.8814   20164146.5104   20164145.7324
       244.000         213.000
 12  9 20  0 21 30.0000000  0 10G05G30G12G25G21G26G18G15G02G29
 113814955.91248  88686980.26248  21658264.6014   21658265.9934   21658264.3534
       232.000         186.000
 126648197.66848  98686884.30848  24100368.9114   24100372.1434   24100369.8254
       209.000         139.000
 130742416.25448 101877172.68748  24879481.5934   24879488.4574   24879481.1754
       203.000         136.000
 120585490.19448  93962678.53648  22946688.7814   22946695.2844   22946689.0884
       212.000         153.000
 120408459.16848  93824767.56248  22912973.3764   22912975.1304   22912974.1114
       220.000         160.000
 117526804.41748  91579330.51148  22364603.4514   22364606.3304   22364603.4204
       222.000         164.000
 135500709.28148  87792738.14748  23882008.7654   23882014.2424   23882009.1924
       212.000         142.000
 120898485.32748  94206595.05048  23006229.0544   23006232.5624   23006228.7534
       214.000         157.000
 123456521.91448  96199887.75648  23492994.6284   23492995.5894   23492994.9864
       212.000         148.000
 105951805.99848  82559847.25148  20161959.5454   20161960.3064   20161959.3984
       244.000         213.000
 12  9 20  0 22  0.0000000  0 10G05G30G12G25G21G26G18G15G02G29
 113887936.67148  88743848.38648  21672152.4414   21672153.6844   21672152.1774
       232.000         186.000
 126610638.89348  98657617.79548  24093221.8464   24093226.0654   24093222.3134
       207.000         137.000
 130848948.26148 101960184.48848  24899753.6224   24899761.3614   24899753.4914
       202.000         135.000
 120674138.58848  94031755.13048  22963558.0584   22963565.0104   22963558.1784
       210.000         153.000
 120347843.79148  93777534.90248  22901438.5784   22901440.5804   22901439.4994
       219.000         159.000
 117458582.52648  91526170.70048  22351620.5974   22351623.9364   22351621.0514
       221.000         165.000
 135408840.33848  87721152.19748  23864525.9424   23864532.0614   23864526.9764
       210.000         140.000
 120804799.31148  94133593.11748  22988400.9554   22988404.1524   22988400.6684
       213.000         157.000
 123530936.04048  96257872.78648  23507155.4784   23507156.6154   23507154.9134
       210.000         149.000
 105940796.92248  82551268.76648  20159864.6064   20159865.3434   20159864.4504
       244.000         213.000
 12  9 20  0 22 30.0000000  0 10G05G30G12G25G21G26G18G15G02G29
 113961236.10948  88800964.82748  21686101.0384   21686102.0344   21686100.7434
       233.000         186.000
 126573648.39248  98628794.10348  24086182.1994   24086187.8524   24086183.1584
       207.000         138.000
 130955399.87948 102043133.61648  24920009.7994   24920017.2414   24920010.9504
       200.000         134.000
 120763024.56848  94101016.86348  22980472.8944   22980479.9944   22980472.8674
       210.000         153.000
 120287299.02948  93730357.24848  22889916.9644   22889919.0324   22889917.5404
       220.000         159.000
 117390854.07448  91473395.37348  22338732.4454   22338736.0224   22338732.5784
       222.000         165.000
 135317147.72348  87649703.62348  23847078.2394   23847083.1314   23847078.0884
       213.000         141.000
 120711316.55248  94060749.55948  22970611.3784   22970615.3624   22970610.9284
       212.000         156.000
 123605455.59948  96315939.94848  23521335.2014   23521337.6374   23521335.3354
       207.000         147.000
 105930268.76348  82543065.01448  20157861.2054   20157861.8714   20157861.0884
       245.000         213.000
 12  9 20  0 23  0.0000000  0 10G05G30G12G25G21G26G18G15G02G29
 114034852.35048  88858328.12348  21700109.9634   21700110.9034   21700109.6944
       233.000         186.000
 126537227.49148  98600414.26648  24079251.9404   24079256.8764   24079252.2994
       204.000         138.000
 131061768.00448 102126017.72148  24940252.8654   24940259.3834   24940251.7294
       196.000         134.000
 120852145.01448  94170461.29048  22997431.6534   22997439.2164   22997431.7224
       209.000         152.000
 120226824.77248  93683234.53248  22878409.1384   22878411.2694   22878409.9174
       219.000         160.000
 117323622.34848  91421007.09548  22325938.5754   22325942.0494   22325938.6284
       221.000         167.000
 135225632.82448  87578393.53748  23829663.1374   23829667.9794   23829663.1814
       213.000         142.000
 120618039.87748  93988066.59948  22952860.9654   22952865.0724   22952860.6754
       213.000         156.000
 123680080.17948  96374088.93848  23535536.4964   23535538.4804   23535536.0344
       206.000         146.000
 105920222.49548  82535236.76548  20155949.4674   20155950.1034   20155949.3514
       245.000         213.000
 12  9 20  0 23 30.0000000  0 10G05G30G12G25G21G26G18G15G02G29
 114108782.98748  88915936.40448  21714178.3874   21714179.2574   21714178.2264
       233.000         186.000
 126501377.16748  98572479.00448  24072429.5434   24072433.6794   24072430.3574
       205.000         138.000
 131168050.45548 102208835.01948  24960477.4274   24960484.2254   24960476.4254
       197.000         131.000
 120941496.77448  94240085.96348  23014434.4154   23014441.7484   23014434.7414
       208.000         152.000
 120166421.15648  93636166.86248  22866914.9004   22866916.7094   22866915.2504
       219.000         161.000
 117256890.60048  91369008.41548  22313240.1634   22313243.4604   22313239.9854
       222.000         166.000
 135134296.86648  87507222.88448  23812282.4354   23812287.0864   23812282.4444
       213.000         142.000
 120524972.24348  93915546.52648  22935151.1434   22935154.7424   22935150.8774
       215.000         158.000
 123754809.84548  96432319.79548  23549756.1054   23549758.7094   23549756.5544
       204.000         145.000
 105910659.32548  82527784.95248  20154129.6964   20154130.2464   20154129.5084
       244.000         213.000
 12  9 20  0 24  0.0000000  0 10G05G30G12G25G21G26G18G15G02G29
 114183025.58648  88973787.77048  21728306.2294   21728307.2364   21728305.8244
       232.000         185.000
 126466098.17148  98544988.96248  24065715.8164   24065720.7474   24065716.2194
       205.000         138.000
 131274244.09148 102291583.13848  24980685.6034   24980692.2784   24980685.1354
       200.000         131.000
 121031076.63148  94309888.39248  23031480.3364   23031488.5434   23031480.7854
       207.000         150.000
 120106088.26348  93589154.29148  22855433.8314   22855435.8014   22855434.3084
       220.000         161.000
 117190662.00848  91317401.79448  22300637.1674   22300640.2974   22300637.3194
       223.000         166.000
 135043140.79748  87436192.40148  23794935.6374   23794939.8964   23794936.2264
       216.000         143.000
 120432117.08848  93843192.00848  22917481.4044   22917484.7404   22917481.0924
       216.000         159.000
 123829644.35248  96490632.33848  23563997.0324   23563999.6304   23563997.2794
       206.000         146.000
 105901580.95148  82520710.90648  20152402.1584   20152402.7154   20152402.0334
       244.000         213.000
 12  9 20  0 24 30.0000000  0 10G05G30G12G25G21G26G18G15G02G29
 114257577.80148  89031880.39448  21742492.8874   21742493.9534   21742492.6384
       232.000         184.000
 126431391.76848  98517945.10248  24059111.2214   24059116.6074   24059111.6574
       203.000         137.000
 131380347.04548 102374260.61448  25000876.5774   25000882.7014   25000876.6124
       198.000         131.000
 121120881.44848  94379866.10948  23048569.8414   23048577.5914   23048569.8804
       207.000         150.000
 120045826.36448  93542197.04348  22843966.4774   22843968.2614   22843967.0434
       220.000         160.000
 117124939.91248  91266189.83848  22288130.5014   22288133.6734   22288130.4884
       222.000         166.000
 134952166.24248  87365303.32948  23777624.5024   23777628.7324   23777624.4124
       214.000         143.000
 120339477.35348  93771005.36648  22899852.6314   22899856.0404   22899852.2064
       216.000         161.000
 123904583.46248  96549026.42848  23578257.8904   23578259.9064   23578258.4734
       207.000         146.000
 105892987.71448  82514014.88748  20150766.9514   20150767.5494   20150766.8064
       245.000         214.000
 12  9 20  0 25  0.0000000  0 10G05G30G12G25G21G26G18G15G02G29
 114332437.34648  89090212.49448  21756738.0204   21756739.2814   21756737.7114
       231.000         184.000
 126397258.63148  98491347.93548  24052615.6784   24052620.3934   24052616.2044
       203.000         138.000
 131486356.09348 102456864.91848  25021050.7534   25021056.8734   25021049.3044
       196.000         129.000
 121210908.14648  94450016.70948  23065701.9284   23065709.0644   23065701.7824
       210.000         151.000
 119985635.79748  93495295.37748  22832512.2864   22832514.4474   22832512.9244
       219.000         161.000
 117059727.32548  91215374.91548  22275720.3914   22275724.0724   22275720.4974
       221.000         165.000
 134861374.48748  87294556.74548  23760346.4294   23760351.8614   23760347.1354
       217.000         144.000
 120247056.22448  93698989.03748  22882265.4114   22882268.6194   22882265.0584
       218.000         161.000
 123979626.91648  96607501.80848  23592537.7954   23592540.1634   23592538.6594
       208.000         147.000
 105884881.03948  82507698.01448  20149224.2774   20149224.8494   20149224.1864
       245.000         214.000
 12  9 20  0 25 30.0000000  0 10G05G30G12G25G21G26G18G15G02G29
 114407601.36848  89148781.85048  21771041.1584   21771042.5584   21771040.8604
       231.000         184.000
 126363699.51848  98465198.02148  24046230.8044   24046234.8524   24046231.1584
       206.000         140.000
 131592268.75548 102539394.09748  25041204.0134   25041210.1594   25041203.2014
       196.000         131.000
 121301153.53848  94520337.72348  23082875.1804   23082882.0864   23082875.4624
       211.000         151.000
 119925516.47248  93448449.22448  22821071.3994   22821073.9924   22821072.0164
       220.000         160.000
 116995027.53948  91164959.57348  22263408.6044   22263412.0184   22263408.5454
       221.000         164.000
 134770766.88048  87223953.60348  23743104.6984   23743108.5074   23743104.9434
       217.000         144.000
 120154856.80148  93627145.50048  22864720.3494   22864723.3974   22864719.8544
       218.000         163.000
 124054774.76748  96666058.56748  23606838.4734   23606840.5884   23606838.6814
       210.000         149.000
 105877262.29048  82501761.34348  20147774.4654   20147775.0434   20147774.3044
       245.000         214.000
 12  9 20  0 26  0.0000000  0 10G05G30G12G25G21G26G18G15G02G29
 114483067.57948  89207586.68248  21785401.8554   21785403.3024   21785401.6384
       231.000         184.000
 126330715.54848  98439496.30148  24039954.7554   24039957.3694   24039954.7164
       207.000         139.000
 131698083.11448 102621846.67848  25061339.8524   25061347.5734   25061338.8134
       196.000         127.000
 121391614.39548  94590826.63048  23100089.6874   23100096.1244   23100090.3384
       212.000         152.000
 119865468.37948  93401658.57548  22809645.0084   22809646.9114   22809645.5144
       221.000         163.000
 116930843.79348  91114946.34448  22251195.1674   22251197.7494   22251195.1474
       222.000         165.000
 134680344.37948  87153494.72148  23725897.6424   23725902.0094   23725897.8414
       216.000         143.000
 120062882.46948  93555477.34748  22847218.1304   22847221.1354   22847217.9764
       218.000         163.000
 124130026.84448  96724696.54048  23621158.1174   23621160.7934   23621158.4394
       211.000         151.000
 105870132.16048  82496205.41648  20146417.6894   20146418.1854   20146417.5454
       245.000         214.000
 12  9 20  0 26 30.0000000  0 10G05G30G12G25G21G26G18G15G02G29
 114558833.74148  89266625.23648  21799819.8604   21799821.3164   21799819.5314
       231.000         185.000
 126298307.53948  98414243.37248  24033786.9054   24033790.4144   24033787.2824
       208.000         139.000
 131803795.88348 102704220.14248  25081454.4664   25081464.3504   25081455.1724
       191.000         126.000
 121482287.64748  94661481.03348  23117344.4934   23117350.8254   23117344.9634
       212.000         152.000
 119805491.97648  93354923.78448  22798232.2504   22798233.8074   22798232.7734
       220.000         163.000
 116867179.08948  91065337.54248  22239080.0684   22239082.9664   22239080.0314
       222.000         165.000
 134590108.29548  87083181.10148  23708726.1814   23708729.1124   23708726.4624
       213.000         144.000
 119971136.14748  93483986.86748  22829758.9874   22829762.2494   22829758.7134
       217.000         163.000
 124205383.20048  96783415.76348  23635498.7094   23635500.2984   23635498.3564
       214.000         152.000
 105863491.91548  82491031.21348  20145154.1324   20145154.5654   20145154.0284
       245.000         213.000
 12  9 20  0 27  0.0000000  0 10G05G30G12G25G21G26G18G15G02G29
 114634897.46048  89325895.66348  21814294.3564   21814295.7944   21814294.1014
       232.000         186.000
 126266476.12648  98389439.76148  24027729.3724   24027733.8514   24027729.9264
       207.000         140.000
 131909404.75448 102786512.66148  25101551.1784   25101559.0264   25101551.8414
       193.000         128.000
 121573170.07448  94732298.43948  23134638.8394   23134645.2124   23134638.9804
       212.000         153.000
 119745586.93348  93308244.60248  22786832.8554   22786834.0684   22786833.1154
       221.000         163.000
 116804036.67748  91016135.73048  22227064.1294   22227067.4994   22227063.9914
       222.000         165.000
 134500059.91448  87013013.72948  23691589.9114   23691594.7874   23691590.5244
       215.000         145.000
 119879621.15248  93412676.62948  22812344.1344   22812347.6474   22812343.8994
       217.000         162.000
 124280843.43948  96842215.92048  23649858.1684   23649860.5554   23649858.6484
       215.000         153.000
 105857342.53748  82486239.50948  20143983.8854   20143984.4044   20143983.7854
       245.000         213.000
 12  9 20  0 27 30.0000000  0 10G05G30G12G25G21G26G18G15G02G29
 114711256.38848  89385396.11848  21828825.1264   21828826.4984   21828824.9554
       233.000         186.000
 126235222.48548  98365086.38748  24021781.4974   24021787.0474   24021782.0374
       208.000         138.000
 132014907.03748 102868722.06648  25121628.1904   25121635.9984   25121628.0764
       201.000         128.000
 121664258.57348  94803276.42148  23151972.5154   23151979.1134   23151972.4874
       210.000         152.000
 119685753.69048  93261621.36148  22775446.3424   22775448.5484   22775447.3244
       221.000         163.000
 116741419.56548  90967343.24148  22215148.3544   22215151.8404   22215148.2714
       222.000         164.000
 134410200.57648  86942993.66848  23674490.2394   23674494.2444   23674490.7554
       212.000         144.000
 119788340.51648  93341549.01648  22794973.9214   22794977.2244   22794973.8314
       218.000         162.000
 124356407.11348  96901096.69648  23664237.7464   23664239.4064   23664238.4954
       216.000         154.000
 105851685.23848  82481831.23848  20142907.2454   20142907.8514   20142907.1654
       244.000         213.000
 12  9 20  0 28  0.0000000  0 10G05G30G12G25G21G26G18G15G02G29
 114787908.21048  89445124.80948  21843411.7224   21843412.7314   21843411.4084
       234.000         186.000
 126204546.91748  98341183.40348  24015943.7404   24015949.4294   24015945.1934
       208.000         139.000
 132120300.52748 102950846.76648  25141685.3904   25141693.4994   25141683.4144
       199.000         128.000
 121755549.94848  94874412.47348  23169344.5514   23169351.5444   23169344.3784
       210.000         150.000
 119625992.56848  93215054.33648  22764074.4674   22764076.2944   22764074.8924
       221.000         164.000
 116679330.98748  90918962.60548  22203333.4044   22203336.5914   22203333.4454
       222.000         165.000
 134320531.42848  86873121.79548  23657425.8714   23657430.9084   23657426.8864
       211.000         143.000
 119697297.41848  93270606.49648  22777649.0784   22777652.2204   22777648.8324
       218.000         163.000
 124432074.52548  96960058.30148  23678636.7664   23678638.4284   23678637.1684
       216.000         153.000
 105846521.24048  82477807.35948  20141924.5754   20141925.1404   20141924.4624
       244.000         213.000
 12  9 20  0 28 30.0000000  0 10G05G30G12G25G21G26G18G15G02G29
 114864850.48748  89505079.82648  21858053.3444   21858054.3494   21858053.1434
       233.000         184.000
 126174450.34448  98317731.61048  24010216.7584   24010221.1314   24010218.2984
       206.000         139.000
 132225582.18848 103032884.30548  25161718.9634   25161728.8894   25161717.9584
       195.000         128.000
 121847041.04648  94945704.17748  23186754.9314   23186761.8334   23186754.5964
       210.000         150.000
 119566303.75848  93168543.63948  22752715.7224   22752717.6584   22752716.2044
       221.000         163.000
 116617773.89948  90870996.11248  22191619.3784   22191622.5354   22191619.5484
       221.000         163.000
 134231053.97548  86803399.32548  23640399.3674   23640402.9134   23640399.7934
       210.000         141.000
 119606495.07948  93199851.57048  22760369.9794   22760372.9824   22760369.9224
       219.000         164.000
 124507845.33748  97019100.48748  23693054.9564   23693057.0294   23693055.6754
       217.000         154.000
 105841851.36048  82474168.50548  20141035.9764   20141036.4924   20141035.8684
       245.000         213.000
 12  9 20  0 29  0.0000000  0 10G05G30G12G25G21G26G18G15G02G29
 114942080.82348  89565259.31048  21872749.7674   21872750.6654   21872749.4004
       233.000         184.000
 126144933.54648  98294731.58548  24004600.5974   24004604.8494   24004600.5774
       208.000         140.000
 132330749.96148 103114833.09848  25181728.0754   25181739.4364   25181730.7734
       195.000         125.000
 121938728.69048  95017149.03648  23204202.1444   23204209.5154   23204201.8114
       209.000         151.000
 119506687.36548  93122089.38948  22741370.6544   22741372.8164   22741371.4114
       221.000         164.000
 116556751.43248  90823446.20748  22180007.5284   22180010.2574   22180007.5264
       222.000         165.000
 134141768.82748  86733826.67248  23623408.5404   23623412.4384   23623409.4984
       211.000         142.000
 119515936.58648  93129286.65448  22743137.0704   22743140.0854   22743136.9624
       220.000         164.000
 124583719.52548  97078223.21948  23707493.4724   23707495.5684   23707493.8374
       217.000         155.000
 105837676.62148  82470915.47548  20140241.5154   20140242.0214   20140241.4184
       244.000         213.000
 12  9 20  0 29 30.0000000  0 10G05G30G12G25G21G26G18G15G02G29
 115019596.88748  89625661.43748  21887500.4834   21887501.2004   21887500.2844
       233.000         183.000
 126115997.17048  98272183.86548  23999093.9294   23999098.3154   23999094.4634
       209.000         140.000
 132435801.37648 103196691.25548  25201721.8224   25201732.3714   25201721.3344
       197.000         126.000
 122030609.79348  95088744.63248  23221685.9954   23221694.0484   23221686.3474
       210.000         151.000
 119447143.37348  93075691.54748  22730039.9254   22730042.1194   22730040.5224
       221.000         165.000
 116496266.64548  90776315.26848  22168497.6544   22168500.1444   22168497.8244
       223.000         165.000
 134052677.63248  86664405.16148  23606455.8744   23606459.1134   23606455.5224
       209.000         142.000
 119425624.50148  93058913.72948  22725951.1964   22725954.1414   22725950.8894
       220.000         165.000
 124659696.67648  97137426.19248  23721950.9724   23721952.9124   23721951.0024
       218.000         153.000
 105833998.06448  82468049.08048  20139541.5174   20139541.9514   20139541.3914
       244.000         213.000
 12  9 20  0 30  0.0000000  0 10G05G30G12G25G21G26G18G15G02G29
 115097395.98848  89686284.11448  21902305.1514   21902305.8584   21902304.8294
       233.000         182.000
 126087641.94748  98250088.94148  23993697.7824   23993701.9214   23993698.2564
       210.000         140.000
 132540734.02448 103278456.86848  25221690.3674   25221699.2684   25221690.5314
       197.000         125.000
 122122681.12548  95160488.47748  23239206.7074   23239214.6874   23239207.0844
       211.000         152.000
 119387671.98048  93029350.27648  22718723.0964   22718724.7794   22718723.6374
       222.000         164.000
 116436322.57448  90729605.68048  22157090.6804   22157093.1114   22157090.8404
       221.000         165.000
 133963782.07648  86595136.11248  23589538.5434   23589542.8144   23589539.4294
       212.000         141.000
 119335562.48648  92988735.67048  22708812.7874   22708815.6864   22708812.2754
       222.000         165.000
 124735777.09448  97196709.62948  23736428.5074   23736430.9744   23736429.2034
       217.000         151.000
 105830816.65648  82465570.07448  20138936.1154   20138936.5454   20138935.9994
       244.000         213.000
 12  9 20  0 30 30.0000000  0 10G05G30G12G25G21G26G18G15G02G29
 115175476.04148  89747125.71948  21917163.2084   21917163.8824   21917162.9324
       233.000         182.000
 126059868.32048  98228447.24248  23988413.5484   23988415.6494   23988413.5544
       211.000         141.000
 132645545.14548 103360127.76348  25241636.7234   25241644.2894   25241635.3214
       194.000         125.000
 122214939.54248  95232378.08348  23256763.4354   23256771.0684   23256763.6934
       209.000         152.000
 119328273.46848  92983065.81248  22707419.6214   22707421.5904   22707420.4884
       222.000         165.000
 116376922.15348  90683319.70448  22145786.9474   22145789.4564   22145786.8934
       222.000         165.000
 133875082.31748  86526019.61948  23572658.7954   23572662.7144   23572659.8474
       211.000         141.000
 119245753.66548  92918754.90648  22691722.8934   22691725.4904   22691722.5104
       222.000         166.000
 124811960.43448  97256073.26748  23750926.1404   23750928.4194   23750926.8264
       215.000         147.000
 105828133.24748  82463479.12048  20138425.4404   20138425.8924   20138425.3364
       244.000         213.000
 12  9 20  0 31  0.0000000  0 10G05G30G12G25G21G26G18G15G02G29
 115253834.60748  89808184.34148  21932074.4284   21932075.1644   21932074.2284
       234.000         182.000
 126032677.09348  98207259.32248  23983238.5794   23983242.4014   23983239.8544
       212.000         139.000
 132750231.98648 103441701.83748  25261556.5834   25261567.6754   25261556.9224
       196.000         124.000
 122307381.88348  95304411.01148  23274354.2994   23274361.9044   23274354.8764
       210.000         154.000
 119268948.20648  92936838.40648  22696130.4964   22696132.3964   22696130.9974
       222.000         164.000
 116318068.39948  90637459.71948  22134587.0814   22134589.9694   22134587.3754
       222.000         166.000
 133786580.17048  86457057.11148  23555817.0274   23555821.8604   23555818.0624
       209.000         143.000
 119156201.18748  92848973.87548  22674681.6954   22674683.8794   22674681.3084
       224.000         166.000
 124888246.28548  97315516.79548  23765443.1124   23765445.0234   23765443.0964
       213.000         145.000
 105825948.94648  82461777.08148  20138009.6314   20138010.1824   20138009.4934
       244.000         212.000
 12  9 20  0 31 30.0000000  0  9G05G30G25G21G26G18G15G02G29
 115332469.30948  89869458.13348  21947038.1944   21947038.8214   21947037.9454
       233.000         184.000
 126006068.68648  98186525.56848  23978175.0124   23978178.4904   23978175.7464
       211.000         141.000
 122400004.99548  95376584.80148  23291980.7504   23291988.2124   23291980.9764
       211.000         154.000
 119209696.02548  92890667.94948  22684855.0034   22684857.4494   22684855.3994
       221.000         166.000
 116259764.33848  90592028.06348  22123492.4514   22123495.0174   22123492.3704
       223.000         166.000
 133698276.79348  86388249.49248  23539013.2334   23539018.1134   23539013.8994
       209.000         142.000
 119066908.09948  92779394.97948  22657689.6034   22657691.8474   22657689.4784
       223.000         166.000
 124964634.76248  97375040.29448  23779978.9244   23779981.7644   23779979.6294
       210.000         141.000
 105824264.61548  82460464.62948  20137689.1274   20137689.6754   20137688.9134
       243.000         213.000
 12  9 20  0 32  0.0000000  0  9G05G30G25G21G26G18G15G02G29
 115411377.72348  89930945.20448  21962054.0884   21962054.7464   21962053.7044
       233.000         184.000
 125980043.80748  98166246.51048  23973222.3044   23973226.6094   23973223.1694
       213.000         141.000
 122492805.72748  95448896.97948  23309640.6894   23309647.7114   23309640.7564
       212.000         154.000
 119150517.53048  92844554.92348  22673593.7384   22673595.7724   22673594.3454
       222.000         166.000
 116202012.97348  90547027.08348  22112502.6984   22112505.4954   22112502.6014
       224.000         168.000
 133610173.28548  86319597.61948  23522247.9434   23522251.6644   23522248.1734
       209.000         142.000
 118977877.67648  92710020.75048  22640747.5314   22640749.7294   22640747.3744
       223.000         166.000
 125041125.71048  97434643.62548  23794534.8434   23794537.1414   23794534.8854
       207.000         142.000
 105823081.51248  82459542.74548  20137463.9264   20137464.5724   20137463.8484
       243.000         212.000
 12  9 20  0 32 30.0000000  0  9G05G30G25G21G26G18G15G02G29
 115490557.55648  89992643.77348  21977121.4834   21977122.3074   21977121.2074
       234.000         185.000
 125954602.76948  98146422.35948  23968381.6244   23968384.2084   23968381.8074
       211.000         142.000
 122585780.87748  95521345.06948  23327333.3144   23327340.4634   23327333.4344
       210.000         154.000
 119091412.65348  92798499.23448  22662346.5464   22662348.7564   22662347.2674
       223.000         167.000
 116144817.05748  90502458.92448  22101618.8214   22101621.3244   22101618.7284
       224.000         168.000
 133522270.61848  86251102.25248  23505520.7444   23505524.6994   23505520.4484
       209.000         142.000
 118889112.73448  92640853.39548  22623855.8654   22623858.4214   22623855.6754
       222.000         166.000
 125117718.81348  97494326.54548  23809108.8644   23809112.8864   23809109.3684
       209.000         141.000
 105822400.12548  82459011.80648  20137334.2494   20137334.8804   20137334.0824
       243.000         212.000
 12  9 20  0 33  0.0000000  0  9G05G30G25G21G26G18G15G02G29
 115570006.45548  90054552.01448  21992240.0754   21992241.0704   21992239.8044
       233.000         185.000
 125929746.27648  98127053.70148  23963651.0884   23963654.2694   23963651.7674
       212.000         142.000
 122678927.35348  95593926.66248  23345058.3424   23345065.9064   23345058.5464
       210.000         154.000
 119032381.68148  92752501.14448  22651113.4514   22651115.3894   22651114.0654
       223.000         167.000
 116088179.61848  90458325.93548  22090841.1354   22090843.5324   22090841.2644
       224.000         168.000
 133434569.99248  86182764.32548  23488831.5904   23488835.2084   23488831.7624
       210.000         143.000
 118800616.42348  92571895.36548  22607015.5644   22607017.8794   22607015.4914
       222.000         165.000
 125194414.10348  97554089.10948  23823704.2414   23823707.3824   23823704.0904
       209.000         141.000
 105822221.38648  82458872.54048  20137300.2614   20137300.8324   20137300.1244
       243.000         212.000
 12  9 20  0 33 30.0000000  0  9G05G30G25G21G26G18G15G02G29
 115649722.16248  90116668.14648  22007409.4264   22007410.5974   22007409.0834
       233.000         185.000
 125905474.82148  98108140.94448  23959032.6354   23959036.7024   23959033.3824
       212.000         145.000
 122772241.95548  95666639.27548  23362815.6294   23362823.0874   23362815.7854
       208.000         152.000
 118973424.82448  92706560.80648  22639894.2654   22639896.0544   22639894.8994
       223.000         167.000
 116032103.58048  90414630.39948  22080170.1374   22080172.4664   22080170.1384
       225.000         169.000
 133347072.89648  86114585.00248  23472180.6304   23472185.2934   23472181.1514
       208.000         143.000
 118712392.02448  92503149.22248  22590226.8304   22590229.4114   22590226.8244
       221.000         166.000
 125271211.37048  97613931.12748  23838318.0324   23838320.3654   23838318.8004
       210.000         143.000
 105822546.09248  82459125.57048  20137362.0504   20137362.6374   20137361.8204
       244.000         212.000
 12  9 20  0 34  0.0000000  0  9G05G30G25G21G26G18G15G02G29
 115729702.06348  90178990.14548  22022628.8404   22022630.3154   22022628.7434
       231.000         184.000
 125881788.80648  98089684.33848  23954525.2454   23954528.7504   23954525.8844
       212.000         144.000
 122865721.51748  95739480.41048  23380603.7984   23380611.2724   23380604.0904
       209.000         152.000
 118914542.20548  92660678.30448  22628689.1064   22628690.7764   22628689.8434
       224.000         166.000
 115976591.73448  90371374.50048  22069606.3534   22069608.5914   22069606.2134
       225.000         169.000
 133259780.60548  86046565.27248  23455569.0854   23455574.6634   23455570.0854
       210.000         144.000
 118624442.40748  92434617.18248  22573490.2574   22573493.0714   22573490.1574
       222.000         166.000
 125348110.44748  97673852.45848  23852951.2884   23852953.7084   23852952.1814
       210.000         142.000
 105823375.10448  82459771.56548  20137519.8724   20137520.4024   20137519.8144
       244.000         213.000
 12  9 20  0 34 30.0000000  0  9G05G30G25G21G26G18G15G02G29
 115809943.81548  90241516.19348  22037898.2474   22037899.7844   22037898.0634
       231.000         183.000
 125858688.77148  98071684.36448  23950129.1174   23950132.7884   23950129.8974
       211.000         144.000
 122959362.85548  95812447.58548  23398423.1284   23398431.1884   23398423.3204
       206.000         152.000
 118855734.21948  92614853.95748  22617498.0764   22617499.9754   22617498.5954
       222.000         166.000
 115921646.92048  90328560.44348  22059150.5974   22059152.8884   22059150.4874
       225.000         169.000
 133172693.95848  85978705.77448  23438997.6654   23439001.7724   23438998.2854
       212.000         145.000
 118536770.67248  92366301.67248  22556806.8524   22556809.7114   22556806.6414
       222.000         166.000
 125425111.21648  97733853.05048  23867604.5014   23867606.2114   23867605.0944
       213.000         142.000
 105824709.61148  82460811.45248  20137773.8074   20137774.3584   20137773.7384
       243.000         213.000
 12  9 20  0 35  0.0000000  0  9G05G30G25G21G26G18G15G02G29
 115890445.22648  90304244.56948  22053217.1814   22053218.5834   22053216.9344
       231.000         182.000
 125836175.05248  98054141.26448  23945845.0404   23945849.6724   23945845.9274
       212.000         145.000
 123053162.87948  95885538.41648  23416271.9644   23416280.5284   23416272.5104
       206.000         151.000
 118797001.03448  92569087.89848  22606321.4984   22606323.3204   22606322.2674
       223.000         167.000
 115867272.01248  90286190.46648  22048803.1514   22048805.5434   22048803.2204
       225.000         169.000
 133085813.73448  85911007.15148  23422464.7664   23422469.2324   23422465.3784
       211.000         147.000
 118449380.10048  92298205.24448  22540176.9374   22540179.5454   22540176.6684
       222.000         166.000
 125502213.53348  97793932.78248  23882276.7084   23882278.2214   23882277.5794
       212.000         144.000
 105826550.12048  82462245.62648  20138124.0354   20138124.5804   20138123.9344
       243.000         212.000
 12  9 20  0 35 30.0000000  0  9G05G30G25G21G26G18G15G02G29
 115971203.78348  90367173.31948  22068585.2364   22068586.3324   22068584.9014
       232.000         182.000
 125814247.76748  98037055.11148  23941671.9514   23941677.2364   23941673.0624
       214.000         145.000
 123147118.52948  95958750.55048  23434151.3934   23434159.3564   23434151.2964
       206.000         151.000
 118738342.78448  92523380.21648  22595159.2404   22595161.0214   22595159.8514
       222.000         167.000
 115813469.81148  90244266.75748  22038564.8544   22038567.6824   22038564.8584
       224.000         168.000
 132999141.48748  85843470.57848  23405971.6674   23405976.4634   23405972.2184
       212.000         147.000
 118362273.89248  92230330.38948  22523601.2664   22523603.4894   22523601.0434
       224.000         167.000
 125579417.20148  97854091.47648  23896968.8434   23896970.5994   23896969.1684
       214.000         146.000
 105828897.60648  82464074.85148  20138570.7084   20138571.2004   20138570.5454
       243.000         212.000
 12  9 20  0 36  0.0000000  0  9G05G30G25G21G26G18G15G02G29
 116052217.37548  90430300.78048  22084001.7624   22084002.6144   22084001.3874
       232.000         183.000
 125792907.54548  98020426.42048  23937611.1314   23937615.0734   23937612.0514
       214.000         145.000
 123241226.45948  96032081.32348  23452059.7534   23452067.8754   23452060.0694
       208.000         151.000
 118679759.72848  92477731.13548  22584011.3414   22584012.9004   22584011.8114
       223.000         168.000
 115760243.15948  90202791.51848  22028436.1724   22028438.7034   22028436.1404
       223.000         168.000
 132912678.32148  85776096.93348  23389518.1014   23389522.4254   23389518.8924
       213.000         147.000
 118275454.88748  92162679.32948  22507079.9934   22507082.1784   22507080.0834
       224.000         168.000
 125656722.11148  97914329.05248  23911679.5264   23911680.9664   23911680.0454
       216.000         147.000
 105831752.77348  82466299.66448  20139114.0754   20139114.5244   20139113.9344
       243.000         213.000
 12  9 20  0 36 30.0000000  0  9G05G30G25G21G26G18G15G02G29
 116133483.60248  90493625.09948  22099466.1894   22099467.0254   22099466.0304
       232.000         182.000
 125772154.79348  98004255.48848  23933662.1994   23933666.0264   23933663.2164
       214.000         146.000
 123335483.61548  96105528.34848  23469996.9504   23470004.0304   23469996.6854
       207.000         151.000
 118621252.23948  92432140.93148  22572877.8604   22572879.3954   22572878.2954
       223.000         166.000
 115707594.76548  90161766.88048  22018417.5654   22018420.0744   22018417.3614
       223.000         168.000
 132826425.23248  85708886.97948  23373104.9714   23373108.5034   23373105.4624
       213.000         148.000
 118188926.41048  92095254.66548  22490614.1814   22490616.2034   22490614.2464
       224.000         167.000
 125734128.20248  97974645.47148  23926409.7434   23926411.0884   23926409.8574
       215.000         148.000
 105835116.45648  82468920.72548  20139754.1704   20139754.6124   20139754.0564
       244.000         212.000
 12  9 20  0 37  0.0000000  0  9G05G30G25G21G26G18G15G02G29
 116214999.95148  90557144.31448  22114978.4144   22114979.0374   22114978.2334
       232.000         183.000
 125751989.52648  97988542.33348  23929824.8494   23929828.9604   23929825.8544
       215.000         146.000
 123429886.83548  96179089.19848  23487961.3424   23487969.0064   23487961.4334
       209.000         151.000
 118562820.47148  92386609.71248  22561758.2304   22561759.7254   22561758.9254
       222.000         168.000
 115655527.31348  90121194.92348  22008509.1554   22008511.8024   22008509.1614
       223.000         167.000
 132740383.48448  85641841.68448  23356731.3004   23356735.0814   23356731.7424
       213.000         147.000
 118102691.39848  92028058.68148  22474204.1204   22474206.2534   22474204.0544
       226.000         168.000
 125811635.22248  98035040.53748  23941157.9194   23941160.4314   23941158.4944
       214.000         148.000
 105838989.36648  82471938.58948  20140491.1764   20140491.5644   20140491.0534
       243.000         212.000
 12  9 20  0 37 30.0000000  0  9G05G30G25G21G26G18G15G02G29
 116296764.34948  90620856.81548  22130537.7354   22130538.2954   22130537.4604
       232.000         183.000
 125732412.28848  97973287.38648  23926099.4384   23926102.9744   23926100.1864
       211.000         146.000
 123524432.98248  96252761.41048  23505952.5414   23505960.5464   23505953.2094
       207.000         151.000
 118504464.77448  92341137.78548  22550653.5894   22550655.1054   22550654.0184
       223.000         167.000
 115604043.57948  90081077.80648  21998712.1254   21998714.3444   21998712.0244
       223.000         167.000
 132654554.17748  85574961.93648  23340398.0344   23340402.2824   23340398.7254
       214.000         147.000
 118016752.98648  91961093.79248  22457850.3844   22457852.5424   22457850.2614
       226.000         169.000
 125889243.15448  98095514.22948  23955926.3764   23955928.7484   23955926.7824
       213.000         147.000
 105843372.16248  82475353.76248  20141325.1524   20141325.5434   20141325.0264
       244.000         213.000
 12  9 20  0 38  0.0000000  0  9G05G30G25G21G26G18G15G02G29
 116378774.15848  90684760.54848  22146143.6744   22146144.3504   22146143.3604
       232.000         182.000
 125713423.05648  97958490.62948  23922485.7424   23922490.0354   23922486.1684
       213.000         144.000
 123619118.91848  96326542.55548  23523971.1684   23523979.3944   23523971.3814
       204.000         149.000
 118446185.50548  92295725.40148  22539563.3444   22539564.9514   22539564.1384
       223.000         168.000
 115553146.29348  90041417.65848  21989026.6084   21989028.7544   21989026.5734
       224.000         166.000
 132568938.22448  85508248.41748  23324105.5294   23324109.8584   23324106.3164
       213.000         147.000
 117931114.06848  91894362.27948  22441553.7164   22441556.2094   22441553.4844
       225.000         170.000
 125966951.86048  98156066.44448  23970712.6194   23970715.4004   23970713.8544
       212.000         148.000
 105848265.91448  82479167.08148  20142256.3824   20142256.8884   20142256.2194
       243.000         213.000
 12  9 20  0 38 30.0000000  0  9G05G30G25G21G26G18G15G02G29
 116461027.15648  90748853.78548  22161795.7104   22161796.5554   22161795.4454
       231.000         182.000
 125695022.34948  97944152.46948  23918983.8264   23918988.1324   23918984.7194
       211.000         144.000
 123713941.57048  96400430.24648  23542015.9364   23542023.2194   23542015.7364
       208.000         149.000
 118387982.75748  92250372.66048  22528487.8044   22528489.2474   22528488.4204
       224.000         168.000
 115502838.03748  90002216.49748  21979453.0294   21979455.2404   21979453.2314
       224.000         166.000
 132483536.71348  85441701.99148  23307853.5594   23307858.4594   23307854.6344
       211.000         147.000
 117845778.07048  91827866.81148  22425314.8974   22425317.2244   22425314.5254
       226.000         170.000
 126044760.62248  98216696.61548  23985519.9834   23985522.2944   23985519.9834
       211.000         147.000
 105853670.89648  82483378.75848  20143284.9204   20143285.4504   20143284.7614
       243.000         212.000
 12  9 20  0 39  0.0000000  0  9G05G30G25G21G26G18G15G02G29
 116543521.01248  90813134.69348  22177493.7544   22177494.7784   22177493.3834
       230.000         182.000
 125677210.19048  97930272.91348  23915594.2084   23915598.7324   23915594.9264
       212.000         143.000
 123808897.69348  96474421.94848  23560084.9184   23560092.7004   23560085.1884
       208.000         149.000
 118329856.78748  92205079.73348  22517427.0364   22517428.4364   22517427.4874
       223.000         168.000
 115453121.54748  89963476.43848  21969992.5694   21969994.3444   21969992.4554
       225.000         168.000
 132398350.55348  85375323.35748  23291643.4174   23291647.7324   23291643.9774
       214.000         147.000
 117760747.74748  91761609.53048  22409134.1544   22409136.4594   22409134.0214
       225.000         170.000
 126122670.06348  98277405.26648  24000345.8864   24000348.1124   24000346.0154
       211.000         147.000
 105859587.95348  82487989.45848  20144410.8294   20144411.4064   20144410.6894
       243.000         213.000
 12  9 20  0 39 30.0000000  0  9G05G30G25G21G26G18G15G02G29
 116626253.62748  90877601.65848  22193237.0184   22193238.4954   22193236.7744
       231.000         181.000
 125659986.66248  97916852.02748  23912316.7584   23912321.1344   23912317.2944
       212.000         143.000
 123903984.16848  96548515.22248  23578179.3594   23578186.4654   23578179.1654
       206.000         147.000
 118271807.87148  92159846.86548  22506380.3484   22506382.0534   22506381.1234
       224.000         169.000
 115403999.46148  89925199.55948  21960644.8944   21960646.9744   21960644.9624
       225.000         168.000
 132313381.57948  85309113.96148  23275474.3414   23275478.5834   23275474.8654
       213.000         146.000
 117676026.23048  91695592.88448  22393011.6774   22393014.0814   22393011.6224
       223.000         170.000
 126200679.65448  98338191.92748  24015190.5034   24015192.7264   24015191.1294
       209.000         145.000
 105866017.67548  82492999.63748  20145634.4184   20145634.9014   20145634.2714
       244.000         213.000
 12  9 20  0 40  0.0000000  0  9G05G30G25G21G26G18G15G02G29
 116709222.58648  90942252.78448  22209025.3844   22209026.9074   22209025.1364
       230.000         180.000
 125643352.02848  97903890.02048  23909151.2224   23909155.1814   23909152.4364
       212.000         143.000
 123999197.88348  96622707.60848  23596297.8954   23596305.2304   23596297.8134
       206.000         147.000
 118213836.41448  92114674.35248  22495348.8974   22495350.4254   22495349.2424
       223.000         169.000
 115355474.35748  89887387.86148  21951410.9344   21951413.3474   21951411.0804
       225.000         170.000
 132228630.02148  85243073.95648  23259346.1324   23259350.1964   23259346.9234
       216.000         145.000
 117591616.38548  91629819.11348  22376948.8534   22376951.3954   22376948.5644
       224.000         170.000
 126278789.29048  98399056.55848  24030054.6004   24030056.4274   24030054.3824
       208.000         144.000
 105872960.59748  82498409.71248  20146955.6074   20146956.0924   20146955.4624
       243.000         212.000
 12  9 20  0 40 30.0000000  0  9G05G30G25G21G26G18G15G02G29
 116792425.56048  91007086.26748  22224858.3574   22224860.0174   22224857.9574
       229.000         180.000
 125627306.32748  97891386.91448  23906098.4614   23906101.3304   23906098.6304
       214.000         143.000
 124094535.71848  96696996.73148  23614439.6494   23614447.3754   23614440.3364
       209.000         147.000
 118155942.77348  92069562.49448  22484332.1744   22484333.5504   22484332.7624
       224.000         169.000
 115307548.76548  89850043.31548  21942290.7664   21942293.2844   21942290.9444
       225.000         169.000
 132144097.29648  85177204.47148  23243260.3224   23243263.9994   23243260.8354
       214.000         147.000
 117507521.50948  91564290.76848  22360945.9674   22360948.6854   22360945.6604
       224.000         171.000
 126356998.99948  98459999.16448  24044937.2244   24044938.9934   24044937.0004
       206.000         142.000
 105880417.71148  82504220.45748  20148374.5934   20148375.1434   20148374.5054
       244.000         212.000
 12  9 20  0 41  0.0000000  0  9G05G30G25G21G26G18G15G02G29
 116875860.23548  91072100.28948  22240735.5214   22240737.0364   22240735.2314
       229.000         179.000
 125611849.71648  97879342.86148  23903156.9164   23903159.4774   23903157.7664
       214.000         144.000
 124189994.51248  96771380.11448  23632605.6914   23632612.6314   23632605.8114
       208.000         147.000
 118098127.25948  92024511.49648  22473330.1944   22473331.3444   22473330.7004
       225.000         169.000
 115260225.35148  89813167.98148  21933285.4384   21933287.7504   21933285.5074
       226.000         170.000
 132059784.29248  85111506.21148  23227215.9794   23227219.2674   23227216.7074
       217.000         147.000
 117423744.58048  91499010.16748  22345003.9924   22345006.3064   22345003.7804
       225.000         171.000
 126435308.69348  98521019.70348  24059838.1374   24059840.7384   24059838.7274
       203.000         140.000
 105888389.32348  82510432.10848  20149891.5014   20149892.0554   20149891.3364
       243.000         212.000
 12  9 20  0 41 30.0000000  0  9G05G30G25G21G26G18G15G02G29
 116959524.36548  91137293.11348  22256656.4514   22256657.8034   22256656.1864
       230.000         179.000
 125596982.42948  97867758.00448  23900327.6984   23900331.5374   23900328.5984
       213.000         146.000
 124285571.17148  96845855.32548  23650793.0814   23650800.7414   23650793.1574
       206.000         146.000
 118040389.89548  91979521.41948  22462342.9104   22462344.2254   22462343.4894
       225.000         170.000
 115213506.55848  89776763.80348  21924395.3614   21924397.2074   21924395.0954
       226.000         172.000
 131975692.27348  85045980.12948  23211213.4794   23211216.7724   23211214.7674
       217.000         147.000
 117340288.63748  91433979.68848  22329122.7574   22329125.1524   22329122.5034
       224.000         172.000
 126513717.82648  98582117.72348  24074760.1854   24074762.0144   24074759.5114
       204.000         135.000
 105896875.96648  82517045.08648  20151506.3874   20151507.0244   20151506.2234
       243.000         212.000
 12  9 20  0 42  0.0000000  0  9G05G30G25G21G26G18G15G02G29
 117043415.54348  91202662.85148  22272620.3244   22272621.6334   22272620.1564
       230.000         179.000
 125582704.07848  97856632.07648  23897610.8794   23897614.5194   23897611.5754
       214.000         145.000
 124381262.51548  96920419.88048  23669002.7714   23669009.9354   23669002.3654
       208.000         145.000
 117982731.29548  91934592.70548  22451371.0904   22451372.1494   22451371.3664
       226.000         170.000
 115167394.94448  89740832.72848  21915620.5524   21915622.4154   21915620.3834
       226.000         170.000
 131891822.13448  84980626.96048  23195254.2554   23195256.5844   23195254.5754
       216.000         147.000
 117257156.61648  91369201.61648  22313302.9904   22313305.4354   22313302.7614
       224.000         171.000
 126592226.30148  98643293.14748  24089699.2584   24089702.2194   24089699.6354
       203.000         135.000
 105905878.56148  82524060.10548  20153219.5714   20153220.1354   20153219.4474
       243.000         212.000
 12  9 20  0 42 30.0000000  0  9G05G30G25G21G26G18G15G02G29
 117127531.36748  91268207.63948  22288627.0804   22288628.2874   22288626.7904
       230.000         179.000
 125569014.98148  97845965.28048  23895005.7734   23895009.6174   23895006.6304
       214.000         145.000
 124477065.49848  96995071.43548  23687233.2244   23687241.4144   23687233.2144
       207.000         146.000
 117925151.66648  91889725.52548  22440413.8404   22440414.9874   22440414.3214
       224.000         170.000
 115121892.94048  89705376.69548  21906961.6174   21906963.4934   21906961.7054
       225.000         171.000
 131808174.91248  84915447.46848  23179336.3814   23179339.1264   23179336.8874
       216.000         147.000
 117174351.46648  91304678.24748  22297545.5764   22297548.0224   22297545.3634
       224.000         171.000
 126670834.09448  98704545.96448  24104657.8984   24104661.2574   24104658.2644
       203.000         135.000
 105915397.42748  82531477.41648  20155030.9144   20155031.4894   20155030.7804
       243.000         212.000
 12  9 20  0 43  0.0000000  0  9G05G30G25G21G26G18G15G02G29
 117211869.83248  91333925.91348  22304676.1954   22304677.3474   22304675.8244
       230.000         177.000
 125555915.07248  97835757.60848  23892512.9294   23892516.5264   23892513.8844
       212.000         144.000
 124572976.99248  97069807.59248  23705484.8044   23705492.2994   23705484.4174
       208.000         146.000
 117867651.17748  91844920.02248  22429471.5594   22429472.8894   22429472.0404
       226.000         170.000
 115077003.05648  89670397.63048  21898419.2864   21898421.2444   21898419.2214
       225.000         171.000
 131724751.79848  84850442.60548  23163460.9404   23163463.3734   23163461.9424
       217.000         148.000
 117091876.35348  91240412.05248  22281851.0874   22281853.5184   22281850.7854
       223.000         171.000
 126749541.24848  98765876.21048  24119635.2674   24119636.9874   24119635.9414
       203.000         134.000
 105925433.19448  82539297.50448  20156940.6944   20156941.1474   20156940.5734
       244.000         212.000
 12  9 20  0 43 30.0000000  0  9G05G30G25G21G26G18G15G02G29
 117296428.65448  91399815.89248  22320767.2914   22320768.1934   22320767.0014
       229.000         177.000
 125543404.09148  97826008.84348  23890131.3704   23890135.9144   23890132.1084
       211.000         145.000
 124668993.86848  97144625.83148  23723755.8994   23723764.4714   23723755.5414
       207.000         145.000
 117810230.37348  91800176.61648  22418544.8084   22418545.8094   22418545.3284
       227.000         170.000
 115032727.76648  89635897.48248  21889993.8164   21889996.2624   21889993.7214
       224.000         170.000
 131641553.74648  84785613.12448  23147628.9954   23147631.3004   23147629.5834
       217.000         148.000
 117009734.33848  91176405.41848  22266219.8254   22266222.2484   22266219.7074
       223.000         170.000
 126828347.46948  98827283.66448  24134631.9584   24134634.3204   24134632.5404
       206.000         135.000
 105935986.38448  82547520.78548  20158948.9024   20158949.3904   20158948.7954
       244.000         212.000
 12  9 20  0 44  0.0000000  0  9G05G30G25G21G26G18G15G02G29
 117381205.29648  91465875.61148  22336899.6114   22336900.5834   22336899.4364
       228.000         176.000
 125531482.38248  97816719.22648  23887863.0484   23887866.7684   23887864.2284
       211.000         144.000
 124765113.02248  97219523.78648  23742046.9604   23742055.4914   23742047.1604
       207.000         145.000
 117752889.41948  91755495.42548  22407633.1684   22407634.0424   22407633.8094
       226.000         170.000
 114989069.39448  89601878.04248  21881685.4894   21881688.2444   21881685.5634
       224.000         169.000
 131558581.80448  84720959.82548  23131839.5594   23131842.1744   23131840.3384
       217.000         149.000
 116927928.62948  91112660.82948  22250652.6334   22250654.6854   22250652.4524
       223.000         171.000
 126907252.30248  98888767.93848  24149647.3794   24149648.5194   24149648.0704
       207.000         137.000
 105947057.83448  82556147.90348  20161055.7474   20161056.1914   20161055.6504
       243.000         212.000
 12  9 20  0 44 30.0000000  0  9G05G30G25G21G26G18G15G02G29
 117466197.58248  91532103.35748  22353073.2884   22353074.1164   22353072.9924
       228.000         176.000
 125520149.30848  97807888.29848  23885706.1164   23885710.6644   23885707.0574
       211.000         144.000
 124861331.34048  97294499.01348  23760356.6314   23760365.3874   23760357.0414
       210.000         146.000
 117695628.85048  91710876.87248  22396736.7604   22396737.7404   22396737.3594
       227.000         170.000
 114946030.35648  89568341.19248  21873495.2764   21873498.2464   21873495.4154
       225.000         169.000
 131475836.41548  84656483.04848  23116093.5564   23116095.8264   23116094.4634
       217.000         150.000
 116846461.70048  91049180.23248  22235149.7154   22235151.9534   22235149.4544
       223.000         171.000
 126986255.87848  98950329.18248  24164681.2714   24164683.4084   24164681.9744
       209.000         138.000
 105958647.44448  82565178.78348  20163261.1034   20163261.5474   20163260.9594
       243.000         212.000
 12  9 20  0 45  0.0000000  0  9G05G30G25G21G26G18G15G02G29
 117551403.14048  91598497.30648  22369287.3094   22369288.3114   22369286.8614
       227.000         175.000
 125509405.26448  97799516.37148  23883662.0114   23883666.3804   23883662.7214
       214.000         144.000
 124957645.71548  97369549.07548  23778685.1974   23778693.3544   23778685.2374
       208.000         146.000
 117638448.86848  91666321.10548  22385855.9044   22385856.6974   22385856.3974
       227.000         170.000
 114903613.00948  89535288.78048  21865423.7514   21865426.3184   21865423.8864
       225.000         169.000
 131393319.15748  84592184.05148  23100390.8554   23100393.5894   23100391.6034
       218.000         149.000
 116765336.82048  90985966.15948  22219712.1104   22219714.4194   22219711.8504
       223.000         171.000
 127065358.21848  99011967.38948  24179733.7324   24179735.9154   24179734.3164
       208.000         139.000
 105970755.94448  82574613.99048  20165565.2764   20165565.6904   20165565.0954
       244.000         212.000
 12  9 20  0 45 30.0000000  0  9G05G30G25G21G26G18G15G02G29
 117636820.04948  91665055.93948  22385541.4084   22385542.8144   22385541.1624
       226.000         175.000
 125499249.71148  97791602.96148  23881729.7054   23881733.7384   23881730.4004
       212.000         144.000
 125054053.05848  97444671.59148  23797030.9754   23797039.2704   23797031.0704
       209.000         147.000
 117581349.81748  91621828.40348  22374990.2354   22374990.9604   22374990.6454
       226.000         171.000
 114861819.67348  89502722.62448  21857470.8134   21857472.8314   21857470.9004
       225.000         169.000
 131311030.73148  84528063.37148  23084731.5414   23084735.0894   23084732.7514
       218.000         152.000
 116684556.93348  90923020.90748  22204339.7154   22204342.4034   22204339.6444
       223.000         172.000
 127144558.96848  99073682.25448  24194805.8384   24194806.6414   24194805.0914
       204.000         138.000
 105983383.54248  82584453.69448  20167968.2254   20167968.6714   20167968.0874
       244.000         212.000
 12  9 20  0 46  0.0000000  0  9G05G30G25G21G26G18G15G02G29
 117722445.86148  91731777.36548  22401835.3724   22401837.0584   22401835.1554
       226.000         176.000
 125489682.47748  97784148.01048  23879909.0074   23879912.5284   23879909.4674
       213.000         143.000
 125150550.25048  97519864.10848  23815394.4004   23815401.9384   23815394.4514
       210.000         147.000
 117524332.11448  91577399.08648  22364139.9424   22364140.8484   22364140.4754
       227.000         171.000
 114820652.75348  89470644.57948  21849636.8734   21849638.6834   21849637.0014
       226.000         169.000
 131228972.17648  84464121.79948  23069116.9264   23069119.3204   23069117.3714
       218.000         151.000
 116604125.20348  90860346.94648  22189034.1764   22189036.5034   22189033.7094
       225.000         174.000
 127223857.81048  99135473.59248  24209894.3404   24209896.8924   24209894.7474
       204.000         138.000
 105996530.91148  82594698.40748  20170470.1274   20170470.5664   20170469.9544
       244.000         212.000
 12  9 20  0 46 30.0000000  0  9G05G30G25G21G26G18G15G02G29
 117808278.45548  91798659.91948  22418168.9134   22418170.3474   22418168.5564
       227.000         175.000
 125480703.61248  97777151.52548  23878200.1634   23878203.4664   23878200.6074
       211.000         142.000
 125247134.23248  97595124.26148  23833773.5224   23833781.4124   23833773.8944
       209.000         147.000
 117467396.16048  91533033.45648  22353305.2454   22353306.3994   22353305.8764
       228.000         172.000
 114780114.43348  89439056.34548  21841922.6644   21841924.5684   21841922.7034
       226.000         169.000
 131147144.49748  84400360.12648  23053545.4304   23053548.8624   23053545.8584
       219.000         151.000
 116524044.27348  90797946.33248  22173795.4614   22173797.6574   22173795.1354
       225.000         175.000
 127303254.91048  99197341.48048  24225003.6054   24225006.0864   24225003.2404
       205.000         139.000
 106010198.41548  82605348.42248  20173070.9474   20173071.4304   20173070.8314
       243.000         212.000
 12  9 20  0 47  0.0000000  0  9G05G30G25G21G26G18G15G02G29
 117894315.19648  91865701.54648  22434541.1374   22434542.8004   22434540.9814
       227.000         175.000
 125472312.74748  97770613.21848  23876603.5804   23876606.6604   23876604.0644
       213.000         143.000
 125343801.87848  97670449.60348  23852168.7694   23852175.7014   23852168.8984
       211.000         146.000
 117410542.30848  91488731.80848  22342486.5654   22342487.3524   22342487.2314
       228.000         172.000
 114740206.96648  89407959.66948  21834328.5324   21834330.5064   21834328.5594
       226.000         169.000
 131065548.66048  84336779.09748  23038018.0764   23038020.8904   23038018.7364
       217.000         151.000
 116444317.20948  90735821.44948  22158623.9224   22158625.9054   22158623.5864
       225.000         175.000
 127382749.91948  99259285.64548  24240129.9184   24240134.0154   24240130.8724
       204.000         139.000
 106024386.35448  82616403.97248  20175770.7414   20175771.2684   20175770.6164
       244.000         211.000
 12  9 20  0 47 30.0000000  0  9G05G30G25G21G26G18G15G02G29
 117980554.36048  91932900.91148  22450951.9204   22450953.6794   22450951.6174
       227.000         176.000
 125464509.61748  97764532.87848  23875118.2024   23875121.7894   23875119.4484
       212.000         144.000
 125440550.09748  97745837.72848  23870579.0314   23870587.0694   23870579.5974
       210.000         146.000
 117353770.76248  91444494.29148  22331683.3354   22331683.9534   22331683.7914
       228.000         172.000
 114700932.55848  89377356.29948  21826854.9074   21826856.8194   21826854.7984
       227.000         171.000
 130984185.57148  84273379.43848  23022535.0284   23022537.9354   23022535.4964
       218.000         152.000
 116364946.72048  90673974.43348  22143520.0584   22143522.1974   22143519.9794
       226.000         176.000
 127462342.50448  99321305.83648  24255276.2284   24255279.3954   24255277.4494
       205.000         140.000
 106039095.15448  82627865.39148  20178569.7464   20178570.2394   20178569.5924
       243.000         211.000
 12  9 20  0 48  0.0000000  0  9G05G30G25G21G26G18G15G02G29
 118066993.45848  92000256.06448  22467400.7484   22467402.4184   22467400.4354
       227.000         177.000
 125457294.01448  97758910.37948  23873745.0304   23873748.5444   23873745.7504
       215.000         144.000
 125537375.81948  97821286.23248  23889004.9074   23889011.7444   23889004.7674
       210.000         146.000
 117297082.11048  91400321.37448  22320895.7174   22320896.3644   22320896.3764
       228.000         172.000
 114662293.46748  89347247.98048  21819502.1544   21819503.9694   21819502.1714
       228.000         170.000
 130903056.28648  84210161.94648  23007096.6074   23007099.4324   23007097.1084
       217.000         153.000
 116285936.10548  90612407.83448  22128484.8594   22128486.9054   22128484.7274
       226.000         177.000
 127542032.77448  99383402.15848  24270441.3844   24270443.9094   24270442.8874
       207.000         141.000
 106054325.24648  82639733.00848  20181467.9214   20181468.3864   20181467.7574
       243.000         211.000
 12  9 20  0 48 30.0000000  0  9G05G30G25G21G26G18G15G02G29
 118153630.48148  92067765.42548  22483887.2474   22483888.8594   22483886.9894
       227.000         176.000
 125450665.58648  97753745.42048  23872484.2534   23872487.7464   23872484.3954
       214.000         144.000
 125634275.98748  97896792.74848  23907444.4764   23907451.7544   23907444.5054
       211.000         146.000
 117240476.43048  91356213.10948  22310124.0434   22310124.5764   22310124.4494
       229.000         173.000
 114624291.80748  89317636.35148  21812270.6734   21812272.2904   21812270.7514
       226.000         170.000
 130822161.76148  84147127.39548  22991702.4824   22991705.5084   22991703.0964
       217.000         153.000
 116207288.29448  90551123.93048  22113518.4814   22113520.6714   22113518.3314
       226.000         177.000
 127621820.70248  99445574.56748  24285625.5384   24285627.3884   24285626.0934
       205.000         140.000
 106070077.06148  82652007.16048  20184465.3754   20184465.8154   20184465.2604
       243.000         211.000
 12  9 20  0 49  0.0000000  0  9G05G30G25G21G26G18G15G02G29
 118240462.81548  92135426.98748  22500410.7384   22500412.5024   22500410.4694
       225.000         174.000
 125444623.83748  97749037.59848  23871334.2284   23871337.3324   23871335.4594
       215.000         145.000
 125731247.51648  97972354.87348  23925896.8514   23925904.7864   23925897.3594
       209.000         146.000
 117183954.43248  91312170.04048  22299368.2544   22299368.7644   22299368.8484
       229.000         173.000
 114586929.72248  89288523.09548  21805160.5624   21805162.4794   21805160.6544
       226.000         170.000
 130741502.76848  84084276.38748  22976353.3934   22976356.5514   22976353.8804
       217.000         153.000
 116129005.91948  90490124.79648  22098621.7534   22098623.8184   22098621.5784
       227.000         179.000
 127701705.67048  99507822.60548  24300826.9134   24300827.9754   24300827.5164
       204.000         139.000
 106086350.72148  82664687.94748  20187562.1664   20187562.6164   20187562.0764
       243.000         212.000
 12  9 20  0 49 30.0000000  0  9G05G30G25G21G26G18G15G02G29
 118327488.52448  92203239.22548  22516971.1014   22516972.6994   22516970.9384
       225.000         174.000
 125439168.61948  97744786.80748  23870295.9644   23870299.2184   23870297.6094
       213.000         145.000
 125828287.39248  98047970.26948  23944363.5024   23944371.2654   23944363.0774
       211.000         148.000
 117127516.41648  91268192.41748  22288628.2844   22288628.8874   22288628.8454
       229.000         173.000
 114550209.34248  89259909.87648  21798172.7484   21798174.7104   21798172.6624
       226.000         170.000
 130661080.02848  84021609.45948  22961049.4714   22961052.4014   22961049.9534
       219.000         152.000
 116051092.23148  90429412.94748  22083795.5504   22083797.2184   22083795.3934
       228.000         179.000
 127781688.19448  99570146.66148  24316047.2694   24316049.7704   24316047.7064
       203.000         137.000
 106103146.69048  82677775.72748  20190758.4034   20190758.8204   20190758.3054
       244.000         211.000
 12  9 20  0 50  0.0000000  0  9G05G30G25G21G26G18G15G02G29
 118414705.27248  92271200.32948  22533568.0684   22533569.6024   22533567.7034
       224.000         174.000
 125434299.39648  97740992.64248  23869369.4964   23869373.0954   23869369.6794
       213.000         146.000
 125925392.45848  98123636.45948  23962841.9384   23962850.4094   23962842.0124
       211.000         148.000
 117071162.74948  91224280.52548  22277904.6344   22277905.4694   22277905.1714
       229.000         173.000
 114514132.80048  89231798.34948  21791307.5694   21791309.8184   21791307.5964
       226.000         171.000
 130580894.87748  83959127.64848  22945790.8694   22945793.5434   22945791.2514
       219.000         153.000
 115973550.13548  90368990.65748  22069039.6854   22069041.4224   22069039.5644
       229.000         180.000
 127861767.45148  99632546.08248  24331285.5844   24331288.2674   24331285.8754
       200.000         135.000
 106120465.36048  82691270.81048  20194053.9594   20194054.4544   20194053.9114
       243.000         212.000
 12  9 20  0 50 30.0000000  0  9G05G30G25G21G26G18G15G02G29
 118502111.01248  92339308.69148  22550200.7924   22550202.2804   22550200.4774
       225.000         173.000
 125430015.69348  97737654.70848  23868554.5074   23868558.2784   23868554.6954
       213.000         144.000
 126022559.70148  98199351.10248  23981332.3064   23981340.5894   23981332.5684
       211.000         148.000
 117014894.06948  91180434.85448  22267197.0694   22267197.5894   22267197.6054
       229.000         174.000
 114478702.10948  89204190.09248  21784565.0684   21784567.5964   21784565.3024
       226.000         171.000
 130500948.11348  83896831.58848  22930577.1154   22930579.9314   22930577.9204
       219.000         153.000
 115896382.33948  90308860.02048  22054355.0344   22054356.6874   22054355.0874
       229.000         180.000
 127941943.50548  99695020.90548  24346543.2904   24346544.0124   24346541.9594
       197.000         132.000
 106138306.47348  82705172.98948  20197449.0224   20197449.4974   20197448.8944
       243.000         212.000
 12  9 20  0 51  0.0000000  0  9G05G30G25G21G26G18G15G02G29
 118589703.34048  92407562.44748  22566869.0574   22566870.2554   22566868.7544
       224.000         171.000
 125426317.32048  97734772.88648  23867850.9484   23867854.4044   23867851.4174
       213.000         145.000
 126119786.04648  98275111.79248  23999833.9694   23999842.7264   23999834.2994
       209.000         148.000
 116958710.65748  91136655.62448  22256505.4634   22256506.1914   22256506.0494
       229.000         174.000
 114443919.36048  89177086.71348  21777946.1164   21777948.5894   21777946.3024
       226.000         171.000
 130421240.37948  83834721.80848  22915409.3264   22915411.6564   22915410.0904
       219.000         153.000
 115819591.77648  90249023.33748  22039742.0934   22039744.0134   22039741.8454
       228.000         180.000
 128022216.23348  99757571.07948  24361817.8714   24361817.5744   24361816.6214
       193.000         130.000
 106156670.47148  82719482.60848  20200943.5844   20200944.0234   20200943.4464
       243.000         211.000
 12  9 20  0 51 30.0000000  0  9G05G30G25G21G26G18G15G02G29
 118677480.14948  92475959.96048  22583572.3254   22583573.6794   22583571.9554
       222.000         170.000
 125423203.36948  97732346.44548  23867258.2384   23867262.0084   23867258.9004
       215.000         146.000
 126217068.48948  98350916.19948  24018346.3164   24018354.8614   24018346.6114
       209.000         148.000
 116902612.99148  91092943.20748  22245830.5254   22245831.2004   22245831.0264
       229.000         175.000
 114409786.41248  89150489.67548  21771451.0054   21771453.1354   21771450.9334
       226.000         172.000
 130341772.73248  83772799.10348  22900287.3494   22900289.7564   22900287.7364
       219.000         154.000
 115743181.61448  90189483.06948  22025201.3794   22025203.3194   22025201.0114
       227.000         180.000
 128102585.57348  99820196.56148  24377110.9014   24377113.7234   24377110.3484
       196.000         128.000
 106175557.68048  82734199.92748  20204537.6424   20204538.1574   20204537.5284
       243.000         211.000
 12  9 20  0 52  0.0000000  0  9G05G30G25G21G26G18G15G02G29
 118765439.57348  92544499.76048  22600310.4464   22600311.5184   22600310.1164
       222.000         169.000
 125420673.92948  97730375.45548  23866776.0894   23866780.6694   23866777.1214
       213.000         144.000
 126314403.92848  98426761.87148  24036868.7044   24036877.2054   24036868.7634
       209.000         148.000
 116846601.28948  91049297.78348  22235171.5514   22235172.4074   22235172.1884
       228.000         174.000
 114376305.36948  89124400.61348  21765079.6404   21765082.0224   21765079.7214
       227.000         173.000
 130262546.28148  83711064.31848  22885210.5624   22885212.8464   22885211.3474
       220.000         153.000
 115667154.09348  90130240.96348  22010733.7824   22010735.6984   22010733.4974
       228.000         180.000
 128183051.10648  99882896.98648  24392423.7194   24392424.0474   24392422.9204
       198.000         130.000
 106194968.18148  82749325.00448  20208231.3064   20208231.8534   20208231.1914
       243.000         211.000
 12  9 20  0 52 30.0000000  0  9G05G30G25G21G26G18G15G02G29
 118853579.07448  92613179.88748  22617082.8754   22617084.2374   22617082.5354
       223.000         169.000
 125418727.77748  97728858.98248  23866406.3204   23866410.4754   23866406.4934
       215.000         145.000
 126411789.34848  98502646.53048  24055400.9434   24055408.8044   24055400.9144
       210.000         148.000
 116790676.10348  91005719.77248  22224529.4584   22224530.1814   22224530.1394
       229.000         173.000
 114343478.13648  89098821.01448  21758832.6494   21758835.1594   21758832.8744
       227.000         174.000
 130183561.55348  83649517.91548  22870180.0834   22870182.9464   22870180.8554
       220.000         154.000
 115591512.50448  90071299.57848  21996339.7354   21996341.4934   21996339.4214
       228.000         180.000
 128263612.70448  99945672.28748  24407754.3774   24407755.3404   24407754.0864
       203.000         131.000
 106214902.38448  82764858.16248  20212024.7014   20212025.1234   20212024.5584
       243.000         211.000
 12  9 20  0 53  0.0000000  0  9G05G30G25G21G26G18G15G02G29
 118941896.47048  92681998.62448  22633889.0274   22633890.0824   22633888.9894
       224.000         169.000
 125417364.94148  97727797.05448  23866147.2874   23866151.3384   23866147.5624
       215.000         147.000
 126509221.69748  98578567.71748  24073941.7064   24073949.7654   24073942.3124
       209.000         147.000
 116734837.84248  90962209.49348  22213903.8784   22213904.6934   22213904.2924
       228.000         175.000
 114311306.63048  89073752.36248  21752710.6374   21752713.0854   21752710.6224
       227.000         174.000
 130104819.35248  83588160.47148  22855196.1294   22855198.6904   22855196.7154
       219.000         153.000
 115516259.53048  90012661.01348  21982019.3114   21982021.2244   21982019.2074
       228.000         181.000
 128344270.25048 100008522.36748  24423103.1474   24423105.2664   24423103.3944
       207.000         132.000
 106235360.53848  82780799.58648  20215917.6754   20215918.2924   20215917.5944
       243.000         211.000
 12  9 20  0 53 30.0000000  0  9G05G30G25G21G26G18G15G02G29
 119030389.63948  92750954.32848  22650729.0334   22650729.8414   22650728.8164
       224.000         170.000
 125416584.54448  97727188.97348  23865998.3764   23866002.5224   23865999.7294
       212.000         147.000
 126606698.00148  98654523.15648  24092491.1484   24092498.9874   24092491.6364
       208.000         146.000
 116679087.05948  90918767.38648  22203294.5504   22203295.4204   22203295.1344
       228.000         175.000
 114279792.73248  89049196.12648  21746714.0664   21746716.2654   21746713.7624
       228.000         174.000
 130026320.82548  83526992.92448  22840257.9384   22840260.0014   22840258.9054
       220.000         154.000
 115441398.00248  89954327.45948  21967773.7224   21967775.4744   21967773.4994
       229.000         181.000
 128425023.56948 100071447.06448  24438469.5714   24438471.2114   24438470.7224
       211.000         134.000
 106256342.54948  82797149.21148  20219910.4384   20219911.0834   20219910.3074
       242.000         211.000
 12  9 20  0 54  0.0000000  0  9G05G30G25G21G26G18G15G02G29
 119119056.59548  92820045.45048  22667601.9504   22667602.7624   22667601.8364
       225.000         170.000
 125416386.17948  97727034.43348  23865960.4624   23865964.6824   23865961.7264
       215.000         146.000
 126704215.17448  98730510.42748  24111047.9694   24111055.7704   24111048.3774
       208.000         145.000
 116623424.19448  90875393.77348  22192702.1524   22192703.0244   22192702.8014
       229.000         175.000
 114248938.31048  89025153.77348  21740842.6444   21740844.6864   21740842.5864
       229.000         174.000
 129948066.38148  83466015.56148  22825366.4624   22825369.0584   22825367.6274
       220.000         153.000
 115366930.90548  89896301.25248  21953602.8844   21953604.4994   21953602.7344
       230.000         182.000
 128505872.50448 100134446.25348  24453855.5914   24453854.1144   24453855.5434
       211.000         135.000
 106277848.45948  82813907.06948  20224002.9194   20224003.4974   20224002.7844
       242.000         211.000
 12  9 20  0 54 30.0000000  0  9G05G30G25G21G26G18G15G02G29
 119207894.99748  92889270.16748  22684507.4504   22684508.3734   22684507.1944
       225.000         171.000
 125416768.80748  97727332.60348  23866032.6424   23866037.8064   23866034.3674
       216.000         146.000
 126801770.21648  98806527.21548  24129612.5594   24129619.7134   24129612.3894
       207.000         144.000
 116567849.56548  90832088.91248  22182126.7434   22182127.4894   22182127.2434
       228.000         175.000
 114218745.12948  89001626.67848  21735097.0334   21735098.9684   21735097.1084
       229.000         175.000
 129870057.04848  83405229.17548  22810522.3204   22810524.1364   22810522.6444
       221.000         155.000
 115292861.01548  89838584.55148  21939508.0324   21939509.3394   21939507.7574
       230.000         182.000
 128586816.90148 100197519.85348  24469258.4544   24469259.2064   24469258.9144
       210.000         137.000
 106299878.48848  82831073.33148  20228195.0384   20228195.6544   20228194.8854
       243.000         211.000
 12  9 20  0 55  0.0000000  0  9G05G30G25G21G26G18G15G02G29
 119296902.81248  92958626.89248  22701444.9944   22701445.9944   22701444.9834
       224.000         171.000
 125417732.47348  97728083.52148  23866216.5824   23866220.8264   23866217.8634
       215.000         145.000
 126899360.13148  98882571.18948  24148182.7484   24148190.4804   24148182.9714
       206.000         144.000
 116512363.62448  90788853.14248  22171568.2434   22171568.7314   22171568.9974
       229.000         175.000
 114189215.07948  88978616.30448  21729477.5254   21729479.5344   21729477.7224
       228.000         174.000
 129792293.98948  83344634.73048  22795723.6654   22795725.8484   22795724.5484
       220.000         155.000
 115219191.08148  89781179.50748  21925488.9934   21925490.3724   21925488.6714
       230.000         181.000
 128667856.59248 100260667.68348  24484679.1244   24484681.2834   24484679.4624
       207.000         137.000
 106322432.67748  82848648.03248  20232487.0154   20232487.5064   20232486.8974
       242.000         211.000
 12  9 20  0 55 30.0000000  0  9G05G30G25G21G26G18G15G02G29
 119386077.86048  93028113.92348  22718414.6894   22718415.4614   22718414.2474
       224.000         171.000
 125419275.72248  97729286.09048  23866510.6404   23866514.2144   23866511.1864
       215.000         145.000
 126996981.91648  98958639.97948  24166759.1084   24166768.0454   24166759.5264
       207.000         142.000
 116456966.82248  90745686.85548  22161026.6484   22161026.8574   22161027.3614
       228.000         175.000
 114160349.90448  88956124.00848  21723984.6374   21723986.3814   21723984.6744
       229.000         173.000
 129714777.80648  83284232.61348  22780973.0364   22780975.1154   22780973.4794
       219.000         155.000
 115145923.96548  89724088.34548  21911546.5444   21911547.8944   21911546.3394
       230.000         182.000
 128748991.40148 100323889.63748  24500118.3904   24500122.1784   24500118.2174
       204.000         136.000
 106345511.10248  82866631.23048  20236878.7974   20236879.1364   20236878.6454
       243.000         211.000
 12  9 20  0 56  0.0000000  0  9G05G30G25G21G26G18G15G02G29
 119475418.17548  93097729.73148  22735415.6264   22735416.3644   22735415.4734
       224.000         171.000
 125421398.13948  97730939.92148  23866914.3554   23866917.6454   23866915.3364
       214.000         145.000
 127094632.50748  99034731.23648  24185342.0064   24185350.7854   24185341.9034
       205.000         141.000
 116401659.98148  90702590.65948  22150502.0254   22150502.4644   22150502.7054
       228.000         175.000
 114132151.25848  88934151.09048  21718618.3924   21718620.4304   21718618.3754
       228.000         173.000
 129637509.40248  83224023.60048  22766268.9884   22766271.6974   22766269.5614
       220.000         156.000
 115073062.37848  89667313.18148  21897681.4654   21897682.7564   21897681.2324
       231.000         181.000
 128830221.08948 100387185.50948  24515575.8334   24515578.9154   24515575.8454
       201.000         133.000
 106369113.74548  82885022.91148  20241370.2174   20241370.4924   20241370.1094
       243.000         210.000
 12  9 20  0 56 30.0000000  0  9G05G30G25G21G26G18G15G02G29
 119564921.47548  93167472.54148  22752447.4834   22752448.3214   22752447.4594
       224.000         170.000
 125424099.33548  97733044.77048  23867428.8274   23867431.0644   23867429.4014
       213.000         144.000
 127192308.95248  99110842.62748  24203930.1244   24203937.0014   24203929.4184
       207.000         141.000
 116346443.86248  90659565.15248  22139994.5894   22139995.0444   22139995.2784
       228.000         175.000
 114104620.93948  88912698.94448  21713379.4104   21713381.4834   21713379.2754
       228.000         173.000
 129560489.51848  83164008.21648  22751612.3934   22751614.9874   22751613.0174
       221.000         157.000
 115000609.10148  89610856.17548  21883893.8864   21883895.2724   21883893.7114
       232.000         182.000
 128911545.45948 100450555.18748  24531050.9494   24531054.2394   24531051.6514
       202.000         134.000
 106393240.66148  82903823.11448  20245961.3784   20245961.6744   20245961.2164
       242.000         210.000
 12  9 20  0 57  0.0000000  0  9G05G30G25G21G26G18G15G02G29
 119654585.83748  93237340.86048  22769510.0264   22769510.8754   22769509.8284
       223.000         170.000
 125427377.93548  97735599.54548  23868052.2634   23868056.0654   23868053.0384
       213.000         145.000
 127290008.26348  99186971.84848  24222520.1144   24222529.6804   24222521.1184
       207.000         140.000
 116291318.34648  90616610.23248  22129504.4984   22129505.0054   22129505.0074
       228.000         175.000
 114077760.59748  88891768.87648  21708268.1374   21708270.1644   21708268.1744
       228.000         174.000
 129483718.71448  83104186.93348  22737003.5884   22737005.6564   22737004.0054
       221.000         158.000
 114928566.93948  89554719.52448  21870184.7674   21870186.0214   21870184.7014
       232.000         182.000
 128992964.35648 100513998.47948  24546546.2804   24546548.5324   24546546.1034
       200.000         132.000
 106417892.03948  82923031.98548  20250652.2934   20250652.6864   20250652.1864
       242.000         210.000
 12  9 20  0 57 30.0000000  0  9G05G30G25G21G26G18G15G02G29
 119744408.79148  93307332.76448  22786602.8174   22786603.6584   22786602.5354
       222.000         169.000
 125431233.55348  97738603.92048  23868785.8534   23868789.8494   23868786.4784
       214.000         143.000
 127387727.45948  99263116.54748  24241116.6344   24241124.7054   24241116.6344
       206.000         140.000
 116236284.09348  90573726.43348  22119031.8454   22119032.4194   22119032.3644
       228.000         175.000
 114051571.88548  88871362.15448  21703284.7684   21703286.4834   21703284.7024
       229.000         174.000
 129407197.91748  83044560.44948  22722442.1874   22722444.4884   22722442.6984
       222.000         158.000
 114856939.11448  89498905.72048  21856554.4534   21856555.5584   21856554.2004
       232.000         183.000
 129074477.70848 100577515.37648  24562057.1814   24562059.1914   24562057.6404
       200.000         129.000
 106443067.62048  82942649.33048  20255442.9704   20255443.4934   20255442.8394
       242.000         210.000
 12  9 20  0 58  0.0000000  0  9G05G30G25G21G26G18G15G02G29
 119834388.59048  93377446.87148  22803725.2564   22803726.2994   22803724.9564
       223.000         169.000
 125435665.26448  97742057.21048  23869628.8354   23869633.5974   23869629.8044
       213.000         144.000
 127485463.54648  99339274.42448  24259716.5194   24259723.2684   24259715.7074
       208.000         140.000
 116181341.51648  90530914.06848  22108576.5494   22108577.0864   22108577.0494
       227.000         175.000
 114026056.35448  88851479.98448  21698429.3164   21698431.0174   21698429.2144
       229.000         174.000
 129330928.11548  82985129.55848  22707928.8284   22707930.7364   22707929.1984
       223.000         160.000
 114785727.56748  89443416.28748  21843003.3104   21843004.3234   21843003.0454
       231.000         182.000
 129156085.20048 100641105.63448  24577586.4434   24577588.2384   24577587.2274
       203.000         128.000
 106468767.75248  82962675.42148  20260333.6194   20260334.0244   20260333.4864
       243.000         210.000
 12  9 20  0 58 30.0000000  0  9G05G30G25G21G26G18G15G02G29
 119924522.99048  93447681.46448  22820876.9944   22820878.3424   22820876.9104
       221.000         167.000
 125440672.21948  97745958.74648  23870581.6154   23870585.6824   23870582.2254
       213.000         147.000
 127583213.57348  99415443.15048  24278316.6744   24278324.8764   24278317.3834
       208.000         141.000
 116126491.04948  90488173.48948  22098138.6454   22098139.4184   22098139.2454
       227.000         175.000
 114001215.61948  88832123.62048  21693701.9964   21693703.8454   21693702.1324
       229.000         175.000
 129254909.78448  82925894.61648  22693462.9474   22693464.6374   22693463.5534
       224.000         160.000
 114714935.24848  89388253.52648  21829531.8794   21829532.9184   21829531.5664
       231.000         183.000
 129237786.50048 100704769.01948  24593134.1724   24593135.5514   24593134.0984
       199.000         128.000
 106494992.14948  82983110.02348  20265324.0634   20265324.3374   20265324.0044
       243.000         210.000
 12  9 20  0 59  0.0000000  0  9G05G30G25G21G26G18G15G02G29
 120014810.11248  93518035.04748  22838057.9614   22838059.4884   22838058.0314
       220.000         166.000
 125446253.45948  97750307.77648  23871644.6994   23871647.8504   23871644.6704
       212.000         146.000
 127680974.50348  99491620.40448  24296919.9964   24296927.7924   24296920.5194
       209.000         141.000
 116071733.01648  90445504.93148  22087718.7764   22087719.1804   22087719.2034
       227.000         176.000
 113977051.29048  88813294.32248  21689103.9484   21689105.5474   21689104.0014
       230.000         176.000
 129179143.72648  82866856.25348  22679044.9764   22679047.0834   22679045.7374
       224.000         162.000
 114644564.99948  89333419.65448  21816140.5844   21816141.9934   21816140.3264
       231.000         182.000
 129319581.50148 100768505.38548  24608700.6894   24608699.1134   24608698.5664
       197.000         129.000
 106521740.33848  83003952.78248  20270414.0134   20270414.3144   20270413.9154
       242.000         210.000
 12  9 20  0 59 30.0000000  0  9G05G30G25G21G26G18G15G02G29
 120105247.44448  93588505.67048  22855267.6814   22855268.8914   22855267.5204
       221.000         164.000
 125452408.37448  97755103.82848  23872815.8194   23872819.8554   23872816.3144
       214.000         146.000
 127778743.44448  99567803.87748  24315525.4314   24315532.9214   24315524.9844
       209.000         141.000
 116017068.72248  90402909.42448  22077316.2294   22077317.0254   22077316.8444
       227.000         176.000
 113953564.77348  88794993.19348  21684634.5134   21684636.2934   21684634.7074
       230.000         177.000
 129103630.92748  82808015.23748  22664675.2174   22664677.3604   22664675.7474
       223.000         162.000
 114574619.49348  89278916.74348  21802830.5954   21802831.8274   21802830.4684
       231.000         182.000
 129401470.33948 100832314.87148  24624280.1524   24624281.1804   24624281.3054
       199.000         128.000
 106549012.63248  83025203.93348  20275603.7014   20275604.0494   20275603.5894
       242.000         209.000
 12  9 20  1  0  0.0000000  0  9G05G30G25G21G26G18G15G02G29
 120195833.12848  93659091.89048  22872505.5804   22872506.7074   22872505.2924
       220.000         163.000
 125459135.54648  97760345.78948  23874096.0454   23874099.9004   23874097.0534
       214.000         148.000
 127876517.40248  99643991.29248  24334130.1004   24334138.9504   24334130.4764
       205.000         140.000
 115962498.71148  90360387.39148  22066931.9064   22066932.6934   22066932.6364
       227.000         176.000
 113930757.57948  88777221.40348  21680294.6144   21680296.2494   21680294.6684
       230.000         177.000
 129028372.19648  82749372.18548  22650353.6614   22650355.9604   22650354.2204
       223.000         162.000
 114505101.48948  89224746.96448  21789601.6094   21789602.9604   21789601.5724
       231.000         182.000
 129483452.57248 100896197.19648  24639881.5144   24639879.4124   24639881.7044
       197.000         131.000
 106576808.76448  83046863.26648  20280893.0904   20280893.4334   20280893.0004
       242.000         209.000
 12  9 20  1  0 30.0000000  0  9G05G30G25G21G26G18G15G02G29
 120286565.11648  93729792.13748  22889771.3974   22889772.0844   22889771.0074
       219.000         163.000
 125466434.59248  97766033.37648  23875484.4864   23875488.6294   23875485.3384
       213.000         148.000
 127974293.45348  99720180.30248  24352735.7904   24352745.0844   24352736.5514
       205.000         139.000
 115908023.00248  90317938.84348  22056565.5244   22056566.2624   22056566.1984
       227.000         175.000
 113908631.26448  88759980.16848  21676083.8804   21676085.7224   21676084.0104
       230.000         177.000
 128953367.85948  82690927.36548  22636080.7514   22636082.8104   22636081.1804
       223.000         162.000
 114436013.51548  89170912.26348  21776454.6614   21776455.6594   21776454.3694
       231.000         182.000
 129565527.97848 100960152.09748  24655499.1234   24655501.1204   24655499.2434
       197.000         130.000
 106605128.64648  83068930.71948  20286282.0454   20286282.5244   20286281.9404
       241.000         209.000
 12  9 20  1  1  0.0000000  0  9G05G30G25G21G26G18G15G02G29
 120377441.56248  93800604.94348  22907064.4554   22907065.5374   22907064.3434
       220.000         161.000
 125474304.25848  97772165.61148  23876981.8414   23876986.2924   23876982.4954
       213.000         147.000
 128072068.60348  99796368.61548  24371343.0364   24371351.6694   24371342.7214
       206.000         140.000
 115853642.41548  90275564.40748  22046217.2424   22046217.9684   22046217.7824
       227.000         176.000
 113887187.13048  88743270.49148  21672003.2064   21672004.9474   21672003.3174
       229.000         176.000
 128878618.98848  82632681.61248  22621856.3524   22621858.8044   22621856.8904
       224.000         162.000
 114367358.33948  89117414.80848  21763389.7364   21763390.9844   21763389.5744
       230.000         182.000
 129647696.21448 101024179.29448  24671135.8004   24671136.2214   24671136.0454
       196.000         130.000
 106633972.43848  83091406.41048  20291770.8344   20291771.3814   20291770.6974
       241.000         209.000
 12  9 20  1  1 30.0000000  0  9G05G30G25G21G26G18G15G02G29
 120468460.04948  93871528.40848  22924384.6334   22924385.7584   22924384.7744
       221.000         163.000
 125482743.39448  97778741.56748  23878587.8664   23878591.6334   23878588.1594
       214.000         147.000
 128169839.96048  99872553.96548  24389948.5894   24389957.3254   24389948.4254
       205.000         140.000
 115799357.27848  90233264.35648  22035887.0654   22035887.7834   22035887.6134
       227.000         177.000
 113866426.67448  88727093.55848  21668052.5564   21668053.8914   21668052.5234
       228.000         174.000
 128804126.08648  82574635.30748  22607680.7394   22607682.8634   22607681.1564
       224.000         163.000
 114299138.61348  89064256.67048  21750407.8404   21750409.0634   21750407.4834
       230.000         182.000
 129729957.28048 101088278.84748  24686789.6474   24686790.3804   24686789.6114
       194.000         130.000
 106663339.49748  83114289.84348  20297359.1874   20297359.7804   20297359.0594
       242.000         209.000
 12  9 20  1  2  0.0000000  0  9G05G30G25G21G26G18G15G02G29
 120559618.71648  93942561.11348  22941731.7344   22941732.4944   22941731.5134
       219.000         161.000
 125491751.25248  97785760.69848  23880302.2554   23880306.3874   23880303.5354
       216.000         149.000
 128267604.55348  99948734.04048  24408552.3114   24408561.1714   24408552.7274
       208.000         141.000
 115745167.49548  90191038.62048  22025575.0654   22025575.7694   22025575.4274
       227.000         176.000
 113846351.18848  88711450.36048  21664232.2464   21664233.6264   21664232.1784
       228.000         173.000
 128729889.69848  82516788.89948  22593554.1154   22593556.1584   22593554.4504
       224.000         162.000
 114231357.10648  89011439.99348  21737509.2014   21737510.5544   21737508.9634
       229.000         181.000
 129812311.13348 101152450.68548  24702460.2734   24702462.8544   24702460.0114
       188.000         128.000
 106693230.03148  83137581.17948  20303047.2134   20303047.8164   20303047.1274
       241.000         209.000
 12  9 20  1  2 30.0000000  0  9G05G30G25G21G26G18G15G02G29
 120650915.93148  94013701.78948  22959105.1184   22959106.0554   22959104.8294
       219.000         162.000
 125501326.68248  97793222.08848  23882124.7814   23882128.9764   23882125.6754
       214.000         148.000
 128365359.49248 100024906.60648  24427154.2234   24427163.4874   24427155.4184
       205.000         142.000
 115691074.51448  90148888.30048  22015281.2514   22015282.0584   22015281.9124
       227.000         176.000
 113826961.98848  88696341.94248  21660542.2644   21660543.8554   21660542.3854
       227.000         172.000
 128655910.83848  82459143.15248  22579476.0044   22579477.9554   22579476.7144
       225.000         162.000
 114164016.26348  88958966.69548  21724694.2644   21724695.9854   21724693.9434
       228.000         181.000
 129894757.40048 101216694.54348  24718149.0824   24718152.0214   24718148.1424
       189.000         128.000
 106723643.66148  83161280.12448  20308834.7274   20308835.2414   20308834.6474
       241.000         208.000
 12  9 20  1  3  0.0000000  0  9G05G30G25G21G26G18G15G02G29
 120742349.05748  94084948.36848  22976504.3104   22976504.9594   22976503.8794
       219.000         162.000
 125511468.50348  97801124.82548  23884054.3964   23884058.1804   23884054.2284
       213.000         147.000
 128463101.83848 100101069.36048  24445754.2444   24445763.0534   24445755.0624
       202.000         141.000
 115637078.95148  90106813.89448  22005006.3174   22005007.0484   22005006.7864
       228.000         177.000
 113808260.39548  88681769.31748  21656983.4534   21656984.7604   21656983.5144
       227.000         171.000
 128582190.19348  82401698.60948  22565447.3184   22565449.6164   22565448.0214
       225.000         164.000
 114097118.48548  88906838.64148  21711964.0934   21711965.6054   21711963.7564
       229.000         180.000
 129977295.62848 101281010.02848  24733856.4234   24733857.9594   24733854.7984
       192.000         130.000
 106754579.90348  83185386.29848  20314721.6634   20314722.2104   20314721.4954
       240.000         208.000
 12  9 20  1  3 30.0000000  0  9G05G30G25G21G26G18G15G02G29
 120833916.18048  94156299.35948  22993928.8444   22993930.0624   22993928.4984
       217.000         163.000
 125522175.88748  97809468.24648  23886092.2114   23886095.6804   23886093.0434
       213.000         146.000
 128560828.72548 100177220.02848  24464351.3554   24464360.2924   24464351.5894
       203.000         140.000
 115583181.26848  90064815.75848  21994749.9314   21994750.7324   21994750.4544
       228.000         178.000
 113790247.67348  88667733.47948  21653555.7594   21653557.2894   21653555.7934
       227.000         173.000
 128508728.48848  82344455.83348  22551468.1414   22551469.9934   22551468.6294
       225.000         165.000
 114030666.71348  88855058.12948  21699318.9204   21699320.1464   21699318.7044
       230.000         181.000
 130059926.19248 101345397.46148  24749579.2494   24749582.6784   24749580.0354
       194.000         130.000
 106786038.64448  83209899.61348  20320708.0374   20320708.6054   20320707.9504
       241.000         208.000
 12  9 20  1  4  0.0000000  0  9G05G30G25G21G26G18G15G02G29
 120925615.48148  94227753.33848  23011378.6514   23011379.8754   23011378.2164
       219.000         161.000
 125533447.39448  97818251.25948  23888236.1494   23888240.4134   23888237.1414
       210.000         146.000
 128658537.14548 100253356.33848  24482945.4814   24482953.5694   24482945.0534
       202.000         140.000
 115529382.34248  90022894.58548  21984512.1404   21984512.9954   21984512.7304
       228.000         178.000
 113772925.12648  88654235.44248  21650259.4194   21650260.8564   21650259.6504
       228.000         173.000
 128435526.43848  82287415.37548  22537538.3434   22537540.0594   22537538.6774
       226.000         165.000
 113964663.31348  88803626.99248  21686758.8804   21686759.9924   21686758.7524
       230.000         181.000
 130142648.56448 101409856.46848  24765322.5204   24765324.5614   24765322.1514
       203.000         132.000
 106818019.69548  83234819.92448  20326793.8274   20326794.3694   20326793.6674
       240.000         207.000
 12  9 20  1  4 30.0000000  0  9G05G30G25G21G26G18G15G02G29
 121017445.03048  94299308.81348  23028853.0014   23028854.5404   23028852.8414
       218.000         161.000
 125545281.93348  97827472.98848  23890488.5174   23890492.5674   23890488.1684
       212.000         144.000
 128756224.30948 100329476.08448  24501534.1464   24501543.1784   24501534.4024
       200.000         138.000
 115475682.45848  89981050.57448  21974293.6864   21974294.2394   21974294.1284
       229.000         178.000
 113756293.83848  88641276.04948  21647094.6734   21647096.1084   21647094.8144
       228.000         174.000
 128362584.41748  82230577.54148  22523657.6094   22523659.5054   22523658.5714
       226.000         164.000
 113899111.12448  88752547.45248  21674284.7764   21674285.8034   21674284.5774
       230.000         181.000
 130225462.29548 101474386.67048  24781082.0594   24781082.9804   24781082.0194
       199.000         132.000
 106850522.87348  83260147.08748  20332978.9764   20332979.4904   20332978.8644
       240.000         207.000
 12  9 20  1  5  0.0000000  0  9G05G30G25G21G26G18G15G02G29
 121109402.75948  94370964.16448  23046352.3074   23046353.5814   23046351.8894
       218.000         161.000
 125557678.59248  97837132.73648  23892847.3674   23892850.8404   23892848.0334
       210.000         145.000
 128853887.26848 100405576.96448  24520118.2554   24520126.3574   24520118.3674
       201.000         138.000
 115422081.83848  89939283.91348  21964093.8224   21964094.4274   21964094.4494
       229.000         178.000
 113740355.02748  88628856.24748  21644061.7274   21644063.1664   21644061.5784
       229.000         176.000
 128289903.13148  82173942.88948  22509826.8614   22509828.7834   22509827.6854
       226.000         164.000
 113834012.66448  88701821.46948  21661896.9004   21661897.8834   21661896.6454
       230.000         183.000
 130308367.44848 101538988.09048  24796856.4794   24796858.5254   24796858.4414
       200.000         130.000
 106883547.66648  83285880.70348  20339263.4844   20339263.8974   20339263.3844
       241.000         207.000
 12  9 20  1  5 30.0000000  0  9G05G30G25G21G26G18G15G02G29
 121201486.64248  94442717.83348  23063875.3864   23063876.3064   23063874.8124
       218.000         161.000
 125570635.85448  97847229.31548  23895312.5444   23895317.1114   23895313.7114
       211.000         147.000
 128951523.15148 100481656.75448  24538698.3384   24538706.6434   24538697.5104
       200.000         137.000
 115368581.20248  89897595.15648  21953912.9294   21953913.5214   21953913.6224
       230.000         179.000
 113725109.77248  88616976.88048  21641160.5514   21641162.1644   21641160.4874
       229.000         176.000
 128217483.39648  82117512.01948  22496045.8074   22496047.8014   22496046.5684
       225.000         165.000
 113769370.35548  88651450.92948  21649595.7794   21649596.7744   21649595.6294
       231.000         183.000
 130391363.61048 101603660.43648  24812651.5764   24812653.5264   24812650.7164
       203.000         130.000
 106917093.82448  83312020.57748  20345647.1904   20345647.5484   20345647.0794
       241.000         207.000
 12  9 20  1  6  0.0000000  0  9G05G30G25G21G26G18G15G02G29
 121293694.35848  94514567.99348  23081421.8094   23081423.2484   23081421.4014
       216.000         161.000
 125584152.53348  97857761.79148  23897885.0464   23897889.9754   23897885.4584
       213.000         148.000
 129049129.08048 100557713.22348  24557272.3814   24557281.6464   24557271.8084
       198.000         135.000
 115315181.40948  89855984.98548  21943751.2244   21943751.9074   21943751.8154
       229.000         179.000
 113710559.21348  88605638.83348  21638391.6724   21638393.1344   21638391.6954
       229.000         176.000
 128145325.89248  82061285.47348  22482314.5384   22482316.3844   22482315.1824
       226.000         164.000
 113705186.83048  88601437.88048  21637381.9604   21637383.0304   21637381.8084
       231.000         184.000
 130474450.65348 101668403.61448  24828460.3654   24828462.7714   24828462.1404
       207.000         130.000
 106951160.90848  83338566.36648  20352129.8594   20352130.2954   20352129.7554
       241.000         207.000
 12  9 20  1  6 30.0000000  0  9G05G30G25G21G26G18G15G02G29
 121386024.58948  94586513.59648  23098991.6804   23098993.2104   23098991.1384
       218.000         162.000
 125598227.60148  97868729.37748  23900563.8564   23900568.1874   23900565.2434
       212.000         147.000
 129146702.20048 100633744.12148  24575839.6634   24575848.7664   24575839.0414
       198.000         134.000
 115261883.33448  89814454.06348  21933608.9184   21933609.4974   21933609.2544
       229.000         179.000
 113696704.35648  88594842.88348  21635755.2514   21635756.5594   21635755.2394
       230.000         177.000
 128073430.89948  82005263.48148  22468633.1644   22468635.2084   22468633.7464
       227.000         164.000
 113641464.43348  88551784.15248  21625255.8484   21625257.1404   21625255.6124
       230.000         184.000
 130557628.54848 101733217.58148  24844290.2514   24844292.6394   24844290.2594
       202.000         129.000
 106985748.67048  83365517.88148  20358711.6434   20358712.1074   20358711.4684
       240.000         207.000
 12  9 20  1  7  0.0000000  0  9G05G30G25G21G26G18G15G02G29
 121478474.90848  94658552.79348  23116583.9924   23116585.7014   23116584.0064
       215.000         159.000
 125612859.49048  97880130.84648  23903348.1174   23903351.5774   23903348.7144
       213.000         147.000
 129244239.58248 100709747.14348  24594399.4684   24594410.5024   24594399.9094
       195.000         133.000
 115208687.18648  89773002.56048  21923485.8944   21923486.5084   21923486.4354
       228.000         178.000
 113683546.31748  88584589.91948  21633251.3994   21633252.7224   21633251.6274
       231.000         177.000
 128001799.73948  81949447.06048  22455002.1974   22455003.9864   22455002.7164
       226.000         164.000
 113578205.90648  88502491.88648  21613218.1484   21613219.2284   21613217.8844
       231.000         184.000
 130640897.00248 101798102.13748  24860135.4574   24860136.3414   24860136.1964
       206.000         129.000
 107020856.69548  83392874.79648  20365392.5114   20365392.8514   20365392.3164
       241.000         206.000
 12  9 20  1  7 30.0000000  0  9G05G30G25G21G26G18G15G02G29
 121571043.63948  94730684.23848  23134199.3394   23134201.2264   23134199.0864
       215.000         160.000
 125628047.24748  97891965.47748  23906238.3784   23906242.4274   23906238.8634
       213.000         147.000
 129341738.47148 100785720.23148  24612955.1084   24612963.9964   24612953.8614
       201.000         133.000
 115155593.62748  89731631.00248  21913382.3694   21913383.0984   21913382.8894
       229.000         178.000
 113671085.97048  88574880.60648  21630880.1024   21630881.4024   21630880.2584
       229.000         176.000
 127930432.71748  81893836.46748  22441421.2174   22441423.2824   22441421.8114
       226.000         165.000
 113515413.34748  88453562.70848  21601269.0244   21601270.0834   21601268.6944
       231.000         184.000
 130724255.63048 101863056.91248  24876000.4584   24876000.0184   24875999.2674
       200.000         124.000
 107056484.43148  83420636.67848  20372172.3744   20372172.6024   20372172.2204
       241.000         207.000
 12  9 20  1  8  0.0000000  0  8G05G30G25G21G26G18G15G29
 121663728.90148  94802906.49348  23151836.8134   23151838.2604   23151836.3474
       216.000         160.000
 125643789.31948  97904232.01948  23909233.9444   23909238.1294   23909234.6484
       214.000         147.000
 129439195.94448 100861660.99548  24631499.8684   24631509.3954   24631499.2684
       202.000         133.000
 115102603.09548  89690339.71848  21903298.5034   21903299.2284   21903299.1184
       227.000         179.000
 113659324.45548  88565715.84648  21628641.6384   21628643.4504   21628641.5924
       228.000         174.000
 127859329.93848  81838431.78348  22427890.8684   22427892.7324   22427891.3924
       227.000         165.000
 113453089.40448  88404998.68848  21589409.1464   21589410.0394   21589408.8564
       231.000         185.000
 107092631.53448  83448803.26448  20379050.9854   20379051.1034   20379050.8794
       241.000         206.000
 12  9 20  1  8 30.0000000  0  8G05G30G25G21G26G18G15G29
 121756528.60648  94875217.91748  23169496.2654   23169497.8114   23169495.6674
       216.000         160.000
 125660084.31048  97916929.43248  23912334.4004   23912338.9074   23912335.1194
       213.000         146.000
 129536609.10648 100937567.25648  24650036.8214   24650047.5124   24650037.9024
       203.000         136.000
 115049716.54748  89649129.46648  21893234.4684   21893235.2964   21893234.9874
       228.000         178.000
 113648262.63248  88557096.29948  21626536.6434   21626538.1434   21626536.5384
       229.000         175.000
 127788492.35248  81783233.74748  22414410.9864   22414412.8254   22414411.4504
       226.000         166.000
 113391236.59448  88356801.77948  21577638.9324   21577639.7884   21577638.7484
       231.000         185.000
 107129297.63948  83477374.26948  20386028.1874   20386028.4604   20386028.1004
       240.000         206.000
 12  9 20  1  9  0.0000000  0  8G05G30G25G21G26G18G15G29
 121849440.70148  94947616.95148  23187176.7914   23187178.5414   23187176.4714
       216.000         160.000
 125676931.00948  97930056.70248  23915540.9994   23915544.0284   23915541.6864
       213.000         147.000
 129633975.14948 101013436.77248  24668565.2564   24668575.2514   24668565.2684
       202.000         136.000
 114996934.68748  89608000.78048  21883190.5574   21883191.2794   21883190.8734
       228.000         179.000
 113637901.30648  88549022.58648  21624565.0614   21624566.1584   21624565.0174
       230.000         175.000
 127717920.67148  81728242.88248  22400981.7934   22400983.1814   22400982.3044
       228.000         166.000
 113329857.15848  88308973.73648  21565958.7384   21565959.5334   21565958.5424
       232.000         186.000
 107166482.44048  83506349.45248  20393104.2334   20393104.5514   20393104.0274
       240.000         206.000
 12  9 20  1  9 30.0000000  0  8G05G30G25G21G26G18G15G29
 121942463.18048  95020102.00148  23204877.9754   23204880.0834   23204878.0704
       216.000         159.000
 125694328.02748  97943612.81348  23918851.3604   23918855.1794   23918852.1804
       211.000         147.000
 129731291.33348 101089267.46448  24687083.2864   24687093.4344   24687083.3654
       202.000         134.000
 114944258.27448  89566954.26748  21873166.5944   21873167.1784   21873167.0454
       228.000         179.000
 113628241.38148  88541495.41148  21622726.8614   21622727.8564   21622726.9974
       230.000         175.000
 127647615.47548  81673459.68648  22387603.1064   22387604.6894   22387603.7924
       228.000         167.000
 113268953.71748  88261516.60248  21554369.0244   21554369.7464   21554368.7924
       231.000         185.000
 107204185.09548  83535728.15748  20400278.8274   20400279.1414   20400278.7294
       240.000         206.000
 12  9 20  1 10  0.0000000  0  8G05G30G25G21G26G18G15G29
 122035594.47848  95092671.83848  23222600.4814   23222602.5894   23222600.2414
       216.000         159.000
 125712273.72848  97957596.47548  23922265.7904   23922270.1634   23922266.4024
       213.000         145.000
 129828554.80848 101165057.07648  24705592.1804   24705602.0164   24705591.8814
       202.000         135.000
 114891688.19748  89525990.61048  21863162.8954   21863163.3864   21863163.5134
       227.000         179.000
 113619283.76448  88534515.48948  21621022.3524   21621023.2174   21621022.4104
       231.000         175.000
 127577577.53648  81618884.75648  22374275.2174   22374276.6214   22374275.8674
       228.000         166.000
 113208528.76048  88214432.30648  21542870.4284   21542871.2594   21542870.0654
       231.000         186.000
 107242404.95148  83565509.87748  20407551.7414   20407552.1254   20407551.5944
       239.000         205.000
 12  9 20  1 10 30.0000000  0  8G05G30G25G21G26G18G15G29
 122128832.47448  95165324.80248  23240342.8684   23240345.1334   23240342.6944
       215.000         160.000
 125730766.72948  97972006.58248  23925784.9814   23925788.6104   23925785.8084
       212.000         145.000
 129925762.70748 101240803.39948  24724089.6814   24724100.5554   24724090.0554
       199.000         131.000
 114839224.73548  89485110.03048  21853179.2224   21853179.7494   21853179.7674
       228.000         179.000
 113611029.14348  88528083.33848  21619451.5894   21619452.4294   21619451.4514
       231.000         176.000
 127507807.55248  81564518.61348  22360998.3384   22360999.8254   22360998.8584
       228.000         167.000
 113148584.38648  88167722.49248  21531463.3364   21531464.2774   21531463.0914
       232.000         186.000
 107281141.84548  83595694.48048  20414923.0644   20414923.4154   20414922.8914
       239.000         205.000
 12  9 20  1 11  0.0000000  0  8G05G30G25G21G26G18G15G29
 122222175.36148  95238059.51748  23258105.4374   23258107.9784   23258105.1754
       215.000         159.000
 125749805.80248  97986842.20948  23929408.1164   23929412.1224   23929408.3734
       211.000         144.000
 130022912.26148 101316504.25348  24742577.9534   24742587.1664   24742577.2654
       201.000         131.000
 114786868.56248  89444313.05448  21843216.1024   21843216.6154   21843216.6164
       228.000         178.000
 113603478.28848  88522199.59148  21618014.6634   21618015.7804   21618014.7094
       231.000         175.000
 127438305.33748  81510361.09748  22347772.4524   22347773.9904   22347772.9724
       227.000         168.000
 113089123.09848  88121389.10648  21520148.2714   21520149.2104   21520148.0084
       232.000         187.000
 107320395.03048  83626281.38848  20422392.7454   20422392.9354   20422392.6344
       239.000         204.000
 12  9 20  1 11 30.0000000  0  8G05G30G25G21G26G18G15G29
 122315621.33948  95310874.54848  23275888.0614   23275889.7514   23275887.3184
       215.000         158.000
 125769389.24348  98002102.04948  23933134.1794   23933138.9484   23933134.8574
       211.000         147.000
 130120000.63948 101392157.44248  24761054.3964   24761063.9094   24761052.9314
       199.000         130.000
 114734620.53148  89403600.33848  21833273.5604   21833274.3174   21833274.1554
       227.000         179.000
 113596632.03348  88516864.87548  21616711.8914   21616712.9334   21616711.9064
       231.000         177.000
 127369071.58748  81456412.80348  22334597.6424   22334599.2844   22334598.2594
       227.000         167.000
 113030146.82548  88075433.65448  21508925.1474   21508926.4274   21508925.0184
       232.000         187.000
 107360164.20648  83657270.37048  20429960.5074   20429960.7984   20429960.4174
       239.000         204.000
 12  9 20  1 12  0.0000000  0  8G05G30G25G21G26G18G15G29
 122409168.53548  95383768.47048  23293689.3594   23293690.8234   23293689.0794
       215.000         158.000
 125789515.41848  98017784.77548  23936964.8414   23936968.2964   23936965.5354
       212.000         146.000
 130217025.08248 101467760.81348  24779515.9704   24779526.1314   24779515.9154
       202.000         131.000
 114682481.29748  89362972.40448  21823351.6614   21823352.3574   21823352.1494
       227.000         178.000
 113590490.98748  88512079.68748  21615543.0144   21615544.4654   21615543.0844
       231.000         176.000
 127300107.32648  81402674.49648  22321473.9004   22321475.7914   22321474.5784
       228.000         169.000
 112971658.70348  88029858.57848  21497795.1884   21497796.3904   21497794.8794
       232.000         186.000
 107400448.39548  83688660.66048  20437626.3404   20437626.6324   20437626.1474
       239.000         204.000
 12  9 20  1 12 30.0000000  0  8G05G30G25G21G26G18G15G29
 122502815.13348  95456739.83348  23311509.8204   23311511.0314   23311509.5324
       216.000         157.000
 125810183.21148  98033889.52948  23940897.5404   23940901.4994   23940898.4344
       212.000         145.000
 130313982.81448 101543312.19948  24797967.5014   24797977.6864   24797967.8074
       202.000         132.000
 114630451.39848  89322429.66648  21813450.7344   21813451.2604   21813451.3424
       227.000         179.000
 113585055.79248  88507844.50848  21614508.7204   21614509.9524   21614508.7864
       230.000         176.000
 127231412.61548  81349146.22148  22308401.5064   22308403.5974   22308401.9944
       227.000         168.000
 112913660.93248  87984665.59748  21486758.5974   21486759.5854   21486758.2644
       231.000         187.000
 107441247.22248  83720451.96648  20445390.0134   20445390.4374   20445389.8244
       239.000         203.000
 12  9 20  1 13  0.0000000  0  8G05G30G25G21G26G18G15G29
 122596559.08248  95529787.05448  23329348.8734   23329350.4054   23329348.6374
       215.000         156.000
 125831390.45748  98050414.64448  23944933.7984   23944936.8704   23944934.1984
       211.000         145.000
 130410871.01248 101618809.36548  24816404.0484   24816414.5704   24816405.4034
       202.000         133.000
 114578531.75348  89281972.84148  21803570.8384   21803571.2104   21803571.3394
       228.000         179.000
 113580327.03948  88504159.80048  21613608.6344   21613610.1764   21613608.8084
       230.000         176.000
 127162988.27348  81295828.62748  22295380.6674   22295382.8374   22295381.1614
       227.000         168.000
 112856155.39548  87939856.18048  21475815.5984   21475816.6154   21475815.3904
       232.000         187.000
 107482559.99748  83752643.74948  20453251.5794   20453251.8934   20453251.4234
       238.000         203.000
 12  9 20  1 13 30.0000000  0  8G05G30G25G21G26G18G15G29
 122690398.58048  95602908.73348  23347206.2594   23347207.3564   23347205.8444
       216.000         154.000
 125853136.37248  98067359.51448  23949071.1474   23949074.7204   23949071.8704
       211.000         144.000
 130507687.01848 101694250.30948  24834827.6314   24834836.8374   24834829.0864
       204.000         136.000
 114526722.87748  89241602.33148  21793711.7434   21793712.1754   21793712.3714
       229.000         179.000
 113576305.44348  88501026.13448  21612843.2564   21612845.0794   21612843.3594
       230.000         176.000
 127094834.84448  81242722.14048  22282411.7534   22282413.4244   22282412.1344
       228.000         168.000
 112799144.57848  87895432.25248  21464966.5944   21464967.7404   21464966.3824
       231.000         187.000
 107524386.06248  83785235.49948  20461210.8374   20461211.1474   20461210.7614
       238.000         203.000
 12  9 20  1 14  0.0000000  0  8G05G30G25G21G26G18G15G29
 122784331.64648  95676103.32648  23365080.4714   23365081.6454   23365080.4744
       216.000         156.000
 125875418.52548  98084722.21348  23953311.2894   23953315.1484   23953312.0284
       212.000         143.000
 130604427.96548 101769632.77148  24853237.2354   24853247.8304   24853238.8394
       201.000         136.000
 114475025.74348  89201318.89248  21783874.0574   21783874.8054   21783874.7594
       228.000         180.000
 113572991.48348  88498443.87048  21612212.9124   21612214.3774   21612213.0464
       230.000         177.000
 127026952.74348  81189827.10248  22269493.9554   22269495.6124   22269494.8294
       229.000         169.000
 112742630.69948  87851395.55248  21454212.3724   21454213.3514   21454212.0574
       231.000         188.000
 107566724.57848  83818226.56448  20469267.6204   20469267.8574   20469267.5334
       238.000         202.000
 12  9 20  1 14 30.0000000  0  8G05G30G25G21G26G18G15G29
 122878356.57148  95749369.49848  23382973.0544   23382974.1604   23382972.8724
       216.000         156.000
 125898235.76248  98102501.87648  23957653.3224   23957657.5304   23957654.0964
       211.000         144.000
 130701091.07248 101844954.53448  24871632.1054   24871640.5364   24871632.5384
       197.000         134.000
 114423440.99748  89161123.02248  21774057.9794   21774058.3404   21774058.1944
       229.000         180.000
 113570385.58648  88496413.34048  21611716.8344   21611718.3244   21611716.9654
       230.000         176.000
 126959342.47948  81137143.87648  22256628.1814   22256629.7594   22256628.8934
       228.000         169.000
 112686615.93148  87807747.77248  21443553.1164   21443554.0464   21443552.8514
       232.000         188.000
 107609575.04348  83851616.55248  20477421.7574   20477421.9204   20477421.5934
       238.000         202.000
 12  9 20  1 15  0.0000000  0  8G05G30G25G21G26G18G15G29
 122972471.71048  95822705.97048  23400882.7294   23400883.6514   23400882.7404
       217.000         155.000
 125921586.39648  98120697.18348  23962096.5214   23962100.5464   23962096.7464
       211.000         144.000
 130797673.67048 101920213.63048  24890010.7054   24890021.2704   24890011.1224
       190.000         131.000
 114371969.38348  89121015.31648  21764263.2294   21764263.6094   21764263.6714
       229.000         180.000
 113568488.40448  88494935.05148  21611355.7174   21611357.2404   21611355.7204
       231.000         176.000
 126892004.48748  81084672.81248  22243813.9644   22243815.7454   22243814.6794
       229.000         170.000
 112631102.53848  87764490.67148  21432989.2004   21432990.0444   21432988.9534
       232.000         188.000
 107652937.05548  83885405.14748  20485673.1324   20485673.3524   20485672.9944
       237.000         201.000
 12  9 20  1 15 30.0000000  0  8G05G30G25G21G26G18G15G29
 123066675.08848  95896111.17748  23418809.0774   23418810.5594   23418808.7934
       216.000         155.000
 125945468.57648  98139306.66648  23966641.3374   23966645.1024   23966641.8944
       211.000         145.000
 130894173.04648 101995407.82048  24908372.7644   24908382.0574   24908373.3294
       185.000         128.000
 114320611.24448  89080996.02548  21754490.1474   21754490.4174   21754490.6114
       229.000         180.000
 113567300.28748  88494009.27548  21611129.7184   21611131.0314   21611129.7314
       231.000         176.000
 126824939.38448  81032414.40348  22231051.8064   22231053.4274   22231052.4414
       229.000         170.000
 112576092.92348  87721626.12048  21422521.1764   21422522.0174   21422520.8574
       232.000         188.000
 107696809.77048  83919591.68948  20494021.9294   20494022.1384   20494021.7414
       237.000         201.000
 12  9 20  1 16  0.0000000  0  8G05G30G25G21G26G18G15G29
 123160964.91048  95969583.72548  23436752.0964   23436753.0684   23436751.9394
       216.000         157.000
 125969880.84648  98158329.19848  23971287.2904   23971290.8054   23971288.0904
       212.000         147.000
 130990586.43848 102070534.94148  24926719.0384   24926731.1884   24926719.0044
       185.000         127.000
 114269367.60248  89041065.95848  21744738.6784   21744738.9964   21744739.1844
       229.000         180.000
 113566821.75448  88493636.41848  21611038.6194   21611039.6684   21611038.7504
       232.000         176.000
 126758147.69048  80980369.04248  22218341.9214   22218343.3504   22218342.3814
       230.000         170.000
 112521588.91448  87679155.55248  21412149.4594   21412150.2694   21412149.2224
       233.000         188.000
 107741192.12548  83954175.35648  20502467.5134   20502467.9754   20502467.4314
       237.000         201.000
 12  9 20  1 16 30.0000000  0  8G05G30G25G21G26G18G15G29
 123255339.45948  96043122.32748  23454711.1884   23454711.9584   23454710.9174
       217.000         157.000
 125994821.20848  98177763.22948  23976033.3854   23976037.0064   23976034.4424
       214.000         147.000
 131086911.03948 102145593.02148  24945049.2884   24945059.8534   24945048.5174
       180.000         128.000
 114218239.52448  89001225.93348  21735009.2904   21735009.5554   21735009.8104
       229.000         180.000
 113567053.06748  88493816.68448  21611082.8744   21611083.6194   21611082.8024
       231.000         176.000
 126691629.59448  80928536.85948  22205683.8324   22205685.2624   22205684.5244
       230.000         172.000
 112467592.85148  87637080.77948  21401874.4394   21401874.9104   21401874.1904
       232.000         187.000
 107786083.15048  83989155.39048  20511010.0154   20511010.4934   20511009.9014
       237.000         201.000
 12  9 20  1 17  0.0000000  0  8G05G30G25G21G26G18G15G29
 123349796.83148  96116725.45748  23472685.4624   23472686.8864   23472685.2614
       217.000         158.000
 126020288.12748  98197607.58348  23980879.9064   23980883.7704   23980880.6674
       213.000         147.000
 131183144.26548 102220579.84048  24963363.8914   24963374.8894   24963361.0044
       192.000         129.000
 114167227.76548  88961476.55448  21725302.0974   21725302.4304   21725302.5684
       229.000         181.000
 113567994.59948  88494550.37048  21611261.8064   21611262.9064   21611262.0344
       230.000         175.000
 126625385.83348  80876918.45048  22193078.0904   22193079.2674   22193078.6044
       230.000         172.000
 112414106.96448  87595403.54448  21391696.1674   21391696.7274   21391696.0694
       232.000         188.000
 107831482.16948  84024531.26448  20519649.2164   20519649.6174   20519649.0314
       238.000         201.000
 12  9 20  1 17 30.0000000  0  9G05G30G25G21G26G18G15G16G29
 123444335.23948  96190391.73748  23490675.7574   23490676.6494   23490675.0014
       217.000         158.000
 126046279.63548  98217860.68848  23985824.9654   23985829.2094   23985825.9664
       211.000         146.000
 131279283.32248 102295493.30448  24981658.0964   24981669.4444   24981657.7664
       193.000         129.000
 114116332.66548  88921818.07548  21715616.9684   21715617.3274   21715617.5444
       229.000         181.000
 113569646.71448  88495837.76948  21611575.8544   21611577.3554   21611575.9684
       228.000         173.000
 126559416.90848  80825514.19748  22180524.3674   22180525.7944   22180525.1474
       230.000         172.000
 112361133.60148  87554125.68148  21381615.6084   21381616.0484   21381615.3774
       232.000         187.000
 139987947.86258  91289299.32558  24735891.8145   24735894.9635   24735891.4895
       207.000         136.000
 107877388.77748  84060302.66148  20528384.9454   20528385.2244   20528384.8824
       237.000         200.000
 12  9 20  1 18  0.0000000  0  9G05G30G25G21G26G18G15G16G29
 123538953.03448  96264119.87748  23508680.7434   23508682.1604   23508680.4114
       216.000         157.000
 126072794.29748  98238521.44448  23990871.2974   23990875.2874   23990871.5564
       210.000         144.000
 131375325.62148 102370331.34748  24999933.7974   24999945.1534   24999934.1144
       199.000         134.000
 114065555.18048  88882251.25048  21705954.4514   21705954.6034   21705954.9454
       230.000         181.000
 113572009.71548  88497679.09448  21612025.3544   21612027.1374   21612025.4004
       228.000         174.000
 126493723.01548  80774324.25548  22168023.1404   22168024.5544   22168023.8014
       230.000         172.000
 112308674.54148  87513248.57148  21371632.8124   21371633.3234   21371632.6134
       232.000         187.000
 139955996.83048  91264402.46848  24729810.7024   24729815.4864   24729811.6624
       208.000         134.000
 107923801.96448  84096468.79248  20537216.8744   20537217.3154   20537216.7674
       236.000         199.000
 12  9 20  1 18 30.0000000  0  9G05G30G25G21G26G18G15G16G29
 123633648.26448  96337908.35548  23526700.4724   23526701.7094   23526700.3944
       216.000         157.000
 126099829.98648  98259588.20448  23996015.7694   23996019.5434   23996016.2204
       210.000         144.000
 131471268.37448 102445091.81148  25018192.2234   25018201.7804   25018192.2814
       199.000         135.000
 114014896.33648  88842776.86948  21696314.4124   21696314.7174   21696314.8774
       230.000         182.000
 113575083.70848  88500074.45048  21612610.2414   21612612.2164   21612610.2684
       228.000         174.000
 126428304.65448  80723349.01448  22155574.3574   22155575.7204   22155574.9304
       230.000         173.000
 112256731.99248  87472773.93448  21361748.6034   21361748.9404   21361748.3474
       232.000         187.000
 139924568.49148  91239912.90248  24723830.7844   24723834.3314   24723830.4914
       204.000         134.000
 107970720.93848  84133029.04148  20546145.2084   20546145.6494   20546145.0664
       236.000         199.000
 12  9 20  1 19  0.0000000  0  9G05G30G25G21G26G18G15G16G29
 123728419.62948  96411756.15648  23544735.2934   23544735.9534   23544734.6084
       214.000         156.000
 126127384.95348  98281059.58348  24001258.9224   24001263.3814   24001259.5434
       209.000         143.000
 131567108.95748 102519772.70548  25036430.2864   25036440.2734   25036430.4464
       201.000         136.000
 113964356.76248  88803395.42048  21686696.9724   21686697.2574   21686697.4894
       229.000         181.000
 113578868.95148  88503024.02048  21613330.7004   21613332.5474   21613330.7174
       228.000         176.000
 126363162.39748  80672588.92448  22143178.2534   22143179.5004   22143178.7434
       230.000         173.000
 112205308.01148  87432703.38048  21351962.8314   21351963.3274   21351962.4994
       231.000         187.000
 139893663.78448  91215831.35948  24717948.7004   24717953.2394   24717949.2224
       205.000         133.000
 108018144.66648  84169982.61148  20555169.6004   20555170.0154   20555169.4274
       236.000         199.000
 12  9 20  1 19 30.0000000  0  9G05G30G25G21G26G18G15G16G29
 123823264.93048  96485661.58548  23562783.2824   23562784.9034   23562783.5294
       214.000         154.000
 126155457.49048  98302934.30248  24006600.9284   24006605.1444   24006601.7184
       211.000         143.000
 131662844.67148 102594371.84748  25054649.0194   25054657.9454   25054649.2304
       197.000         133.000
 113913937.03148  88764107.37048  21677102.3494   21677102.6654   21677103.0134
       230.000         182.000
 113583365.65548  88506527.97448  21614186.8024   21614188.3044   21614186.8044
       229.000         177.000
 126298296.57548  80622044.21948  22130834.6594   22130835.7474   22130835.2424
       232.000         174.000
 112154404.63748  87393038.48448  21342276.0534   21342276.7264   21342275.8014
       230.000         186.000
 139863283.42148  91192158.41948  24712167.2874   24712172.0664   24712168.5934
       204.000         133.000
 108066072.25448  84207328.79648  20564289.9714   20564290.4014   20564289.8664
       237.000         199.000
 12  9 20  1 20  0.0000000  0  9G05G30G25G21G26G18G15G16G29
 123918182.44148  96559623.26148  23580845.4484   23580846.8164   23580845.0244
       214.000         154.000
 126184045.38448  98325210.56048  24012040.7734   24012044.9154   24012042.0524
       211.000         142.000
 131758472.91148 102668887.25848  25072846.6224   25072855.3504   25072846.6634
       191.000         131.000
 113863638.33348  88724913.61548  21667530.8614   21667531.0444   21667531.4654
       230.000         183.000
 113588573.94648  88510586.41348  21615177.8704   21615179.4914   21615177.8584
       230.000         178.000
 126233707.63448  80571715.26148  22118543.7594   22118544.8074   22118544.3734
       232.000         175.000
 112104023.88148  87353780.82948  21332688.8404   21332689.4494   21332688.4734
       231.000         186.000
 139833428.16848  91168894.63148  24706486.9914   24706489.6414   24706487.3794
       207.000         133.000
 108114503.03248  84245067.07748  20573506.1054   20573506.5514   20573505.9414
       237.000         199.000
 12  9 20  1 20 30.0000000  0  9G05G30G25G21G26G18G15G16G29
 124013170.73548  96633640.11948  23598921.2884   23598922.8534   23598920.9004
       213.000         154.000
 126213147.19748  98347887.28148  24017579.3684   24017582.2484   24017580.7044
       214.000         143.000
 131853990.98048 102743316.79448  25091020.8824   25091033.7804   25091022.7114
       198.000         131.000
 113813461.23048  88685814.62048  21657982.4254   21657982.6484   21657983.0274
       230.000         183.000
 113594493.94448  88515199.42548  21616304.3164   21616305.9334   21616304.4384
       230.000         177.000
 126169395.79548  80521602.25448  22106305.5414   22106306.7184   22106306.1184
       232.000         175.000
 112054168.02848  87314932.18448  21323201.8354   21323202.0984   21323201.5414
       231.000         187.000
 139804098.51348  91146040.42248  24700905.7684   24700908.4204   24700905.9904
       204.000         133.000
 108163435.92348  84283196.61448  20582817.6954   20582818.1944   20582817.7204
       236.000         199.000
 12  9 20  1 21  0.0000000  0  9G05G30G25G21G26G18G15G16G29
 124108227.86748  96707710.60648  23617009.9954   23617011.4294   23617009.7444
       214.000         155.000
 126242760.59248  98370962.65048  24023214.7954   24023217.8894   24023215.6944
       214.000         144.000
 131949396.24148 102817658.45948  25109176.4284   25109189.6854   25109177.7554
       194.000         131.000
 113763406.52348  88646810.98848  21648457.2884   21648457.5384   21648457.7274
       230.000         182.000
 113601125.65948  88520367.01348  21617566.4264   21617567.8124   21617566.3164
       230.000         177.000
 126105361.47248  80471705.49548  22094120.2124   22094121.2304   22094120.6444
       232.000         176.000
 112004838.46948  87276493.63748  21313814.6764   21313814.9604   21313814.5634
       232.000         186.000
 139775295.18848  91123596.29548  24695424.3434   24695426.5554   24695425.1794
       205.000         131.000
 108212870.10848  84321716.76748  20592224.7294   20592225.1554   20592224.5274
       236.000         199.000
 12  9 20  1 21 30.0000000  0  9G05G30G25G21G26G18G15G16G29
 124203352.33348  96781833.56848  23635111.3864   23635112.6974   23635111.0934
       214.000         154.000
 126272883.94448  98394435.37548  24028946.9654   24028950.3884   24028947.1494
       214.000         146.000
 132044686.07848 102891910.17248  25127311.0264   25127319.6444   25127310.7234
       200.000         132.000
 113713475.16448  88607903.48348  21638955.5154   21638955.8744   21638956.0694
       230.000         183.000
 113608469.16148  88526089.24748  21618963.7074   21618965.0444   21618963.7584
       229.000         176.000
 126041605.19248  80422025.37548  22081987.5814   22081988.7764   22081988.1234
       233.000         176.000
 111956037.50448  87238466.97648  21304527.8854   21304528.3314   21304527.6684
       231.000         186.000
 139747019.06348  91101563.01548  24690042.9644   24690045.8744   24690043.8894
       205.000         131.000
 108262804.55748  84360626.73548  20601726.8314   20601727.4094   20601726.6604
       236.000         199.000
 12  9 20  1 22  0.0000000  0  9G05G30G25G21G26G18G15G16G29
 124298542.22448  96856007.50748  23653225.9484   23653226.8184   23653225.4044
       215.000         155.000
 126303514.95648  98418303.69048  24034776.4694   24034779.1864   24034776.4744
       213.000         145.000
 132139857.81948 102966069.89648  25145420.3664   25145430.0034   25145421.5304
       203.000         134.000
 113663667.84948  88569092.62848  21629477.6864   21629477.8894   21629478.1944
       230.000         183.000
 113616524.50848  88532366.16948  21620496.6584   21620497.8914   21620496.5774
       229.000         175.000
 125978127.39348  80372562.25048  22069908.1124   22069909.1364   22069908.5964
       232.000         176.000
 111907767.22448  87200853.83748  21295342.2534   21295342.5604   21295341.9304
       232.000         187.000
 139719270.68448  91079940.94848  24684763.3584   24684765.8014   24684764.0864
       203.000         129.000
 108313238.19248  84399925.68448  20611324.0154   20611324.5514   20611323.8824
       236.000         199.000
 12  9 20  1 22 30.0000000  0  9G05G30G25G21G26G18G15G16G29
 124393795.92948  96930231.19448  23671351.9154   23671353.2624   23671351.5304
       213.000         154.000
 126334652.18948  98442566.46448  24040701.0424   24040704.9634   24040702.0304
       212.000         145.000
 132234908.83148 103040135.54848  25163508.3024   25163518.9874   25163509.4974
       202.000         133.000
 113613985.43748  88530379.10248  21620023.4174   21620023.5374   21620024.0954
       230.000         182.000
 113625291.54648  88539197.64548  21622164.7724   21622165.8724   21622164.7214
       228.000         173.000
 125914928.19048  80323316.22148  22057881.7054   22057882.7614   22057882.3054
       232.000         176.000
 111860029.76648  87163655.88248  21286258.3124   21286258.5224   21286257.9544
       232.000         187.000
 139692050.52848  91058730.48248  24679582.2864   24679586.3224   24679584.2334
       202.000         130.000
 108364170.33748  84439613.08148  20621016.0874   20621016.5524   20621016.0614
       236.000         199.000
 12  9 20  1 23  0.0000000  0  9G05G30G25G21G26G18G15G16G29
 124489111.78748  97004503.28048  23689489.8094   23689491.1884   23689489.7004
       214.000         153.000
 126366293.05448  98467221.66448  24046721.8744   24046725.7664   24046722.4304
       211.000         144.000
 132329836.60448 103114105.13948  25181573.9524   25181582.9734   25181574.1014
       199.000         132.000
 113564429.05048  88491763.77648  21610593.1424   21610593.3124   21610593.5674
       230.000         183.000
 113634770.26048  88546583.68048  21623968.3344   21623969.6884   21623968.4334
       227.000         173.000
 125852008.09148  80274287.66748  22045908.4024   22045909.2994   22045908.9534
       233.000         177.000
 111812826.91848  87126874.51348  21277275.7214   21277276.0364   21277275.4924
       232.000         187.000
 139665359.36248  91037932.22148  24674504.4694   24674507.0484   24674504.2654
       202.000         131.000
 108415599.53948  84479687.79648  20630802.8074   20630803.1414   20630802.7294
       237.000         198.000
 12  9 20  1 23 30.0000000  0  9G05G30G25G21G26G18G15G16G29
 124584488.00348  97078822.41648  23707639.7354   23707640.6094   23707639.3264
       214.000         153.000
 126398435.87848  98492268.00248  24052838.6184   24052842.4744   24052839.5994
       209.000         142.000
 132424638.48748 103187976.64748  25199613.5464   25199623.0714   25199613.2794
       204.000         131.000
 113514999.14348  88453247.00748  21601186.7404   21601186.9964   21601187.2044
       229.000         183.000
 113644960.63948  88554524.24748  21625907.4494   21625908.8174   21625907.3644
       228.000         173.000
 125789367.46048  80225476.87848  22033988.2154   22033989.0974   22033988.8374
       233.000         177.000
 111766160.58348  87090511.19948  21268395.1174   21268395.6984   21268394.8164
       232.000         187.000
 139639197.78748  91017546.65648  24669525.1014   24669528.1614   24669525.7894
       203.000         131.000
 108467524.86648  84520149.09748  20640683.9974   20640684.2524   20640683.8644
       237.000         198.000
 12  9 20  1 24  0.0000000  0  9G05G30G25G21G26G18G15G16G29
 124679923.13548  97153187.46148  23725800.2144   23725801.6644   23725799.9504
       215.000         153.000
 126431078.77148  98517704.01248  24059050.6924   24059054.3584   24059051.1154
       208.000         141.000
 132519311.81648 103261748.01248  25217629.7064   25217639.3554   25217629.9264
       200.000         128.000
 113465697.16948  88414829.92348  21591804.7314   21591805.2324   21591805.1654
       229.000         181.000
 113655862.41748  88563019.15948  21627982.1254   21627983.2534   21627981.9674
       228.000         173.000
 125727006.83348  80176884.29148  22022121.2444   22022122.1614   22022121.8844
       233.000         178.000
 111720032.30048  87054567.14348  21259617.2484   21259617.6784   21259616.9624
       232.000         188.000
 139613566.36948  90997574.17248  24664648.4024   24664651.8484   24664648.2254
       199.000         129.000
 108519945.28648  84560996.18848  20650659.3614   20650659.5414   20650659.2274
       237.000         199.000
 12  9 20  1 24 30.0000000  0  9G05G30G25G21G26G18G15G16G29
 124775415.52348  97227597.13448  23743972.0794   23743973.5864   23743971.3624
       215.000         152.000
 126464219.29648  98543527.76448  24065356.4974   24065360.5204   24065357.5504
       208.000         142.000
 132613854.11148 103335417.26448  25235620.3654   25235628.1634   25235620.4134
       201.000         127.000
 113416523.61748  88376512.90748  21582447.3094   21582447.6664   21582447.7214
       229.000         182.000
 113667475.46548  88572068.31848  21630192.1024   21630193.4724   21630192.2034
       229.000         175.000
 125664926.40548  80128509.99748  22010307.7814   22010308.5094   22010308.2754
       234.000         178.000
 111674443.95848  87019043.81948  21250942.2454   21250942.6724   21250942.0814
       233.000         188.000
 139588465.77448  90978015.28948  24659871.6364   24659874.6394   24659871.9454
       202.000         131.000
 108572859.93548  84602228.39048  20660728.4874   20660728.8864   20660728.4294
       236.000         198.000
 12  9 20  1 25  0.0000000  0  9G05G30G25G21G26G18G15G16G29
 124870963.31648  97302049.95848  23762154.1644   23762155.6494   23762154.0124
       217.000         153.000
 126497855.39948  98569737.68748  24071757.7664   24071761.7464   24071758.2044
       209.000         142.000
 132708262.70948 103408982.34248  25253585.2584   25253595.4444   25253586.6454
       204.000         123.000
 113367479.28548  88338296.58548  21573114.5044   21573114.7044   21573114.9024
       229.000         182.000
 113679799.55948  88581671.53648  21632537.5544   21632538.5754   21632537.4514
       229.000         177.000
 125603126.26748  80080354.12448  21998547.4674   21998548.3174   21998548.1154
       233.000         178.000
 111629397.47948  86983942.71848  21242370.1864   21242370.5204   21242369.9894
       233.000         189.000
 139563896.06248  90958870.11048  24655195.6824   24655197.5294   24655195.9224
       203.000         131.000
 108626267.36148  84643844.57648  20670891.4654   20670892.0064   20670891.3214
       236.000         198.000
 12  9 20  1 25 30.0000000  0  9G05G30G25G21G26G18G15G16G29
 124966564.93948  97376544.75648  23780346.3074   23780347.9304   23780346.2594
       216.000         154.000
 126531985.41748  98596332.49748  24078251.9724   24078256.1344   24078252.6424
       209.000         143.000
 132802535.14648 103482441.33248  25271525.1914   25271533.9124   25271525.4694
       200.000         124.000
 113318565.04448  88300181.63348  21563806.4344   21563806.6064   21563806.9534
       230.000         182.000
 113692834.52748  88591828.67348  21635017.9004   21635019.2144   21635017.9164
       230.000         178.000
 125541606.97048  80032417.09848  21986840.8294   21986841.6774   21986841.4514
       234.000         179.000
 111584894.92248  86949265.45648  21233901.4924   21233901.8624   21233901.3124
       233.000         189.000
 139539857.99148  90940139.18748  24650622.0494   24650625.6844   24650621.7214
       204.000         132.000
 108680166.69048  84685844.05848  20681148.2294   20681148.7424   20681148.1084
       237.000         197.000
 12  9 20  1 26  0.0000000  0  8G05G30G21G26G18G15G16G29
 125062218.56248  97451080.05548  23798548.8704   23798549.9404   23798548.5384
       216.000         154.000
 126566606.82148  98623310.18248  24084840.9564   24084844.3744   24084841.0894
       208.000         142.000
 113269781.86648  88262168.81148  21554523.4204   21554523.4144   21554524.0714
       230.000         182.000
 113706579.98948  88602539.44048  21637633.6744   21637634.9304   21637633.6674
       230.000         177.000
 125480368.80248  79984699.12548  21975187.4744   21975188.3844   21975188.1514
       234.000         179.000
 111540937.75848  86915013.17248  21225536.7654   21225537.1194   21225536.4904
       234.000         190.000
 139516352.05548  90921822.91848  24646147.9584   24646151.8624   24646149.4704
       205.000         132.000
 108734556.89548  84728226.04448  20691498.3594   20691498.7614   20691498.2814
       237.000         198.000
 12  9 20  1 26 30.0000000  0  8G05G30G21G26G18G15G16G29
 125157922.96748  97525654.93348  23816760.9044   23816761.9504   23816760.4154
       216.000         154.000
 126601717.50048  98650669.13048  24091521.8204   24091526.1014   24091522.6754
       209.000         143.000
 113221130.99948  88224259.08348  21545265.4184   21545265.4024   21545266.0464
       230.000         183.000
 113721035.64848  88613803.61748  21640384.4234   21640385.7174   21640384.4254
       229.000         176.000
 125419412.35748  79937200.67148  21963587.8374   21963588.5924   21963588.3924
       234.000         180.000
 111497528.18748  86881187.59148  21217276.0874   21217276.4554   21217275.8364
       234.000         190.000
 139493378.54348  90903921.50548  24641776.2494   24641779.4894   24641777.1844
       202.000         132.000
 108789436.71748  84770989.55248  20701941.6284   20701942.0414   20701941.5364
       238.000         198.000
 12  9 20  1 27  0.0000000  0  8G05G30G21G26G18G15G16G29
 125253676.51848  97600268.09948  23834981.7064   23834983.3924   23834981.5024
       216.000         154.000
 126637315.46948  98678407.79248  24098296.4914   24098300.2244   24098296.7744
       209.000         144.000
 113172612.84848  88186452.77548  21536032.5744   21536032.8074   21536033.1594
       230.000         182.000
 113736201.24548  88625620.99148  21643270.2084   21643271.4974   21643270.1974
       229.000         175.000
 125358737.37748  79889921.52348  21952041.5774   21952042.4274   21952042.1164
       234.000         180.000
 111454667.69748  86847789.85948  21209119.9594   21209120.2784   21209119.6584
       233.000         190.000
 139470937.91148  90886435.33348  24637504.7174   24637508.5224   24637506.4874
       205.000         133.000
 108844804.98148  84814133.66048  20712478.0844   20712478.2414   20712477.9584
       238.000         197.000
 12  9 20  1 27 30.0000000  0  8G05G30G21G26G18G15G16G29
 125349477.45948  97674918.19148  23853211.9814   23853213.6874   23853211.9144
       214.000         154.000
 126673398.58248  98706524.47748  24105162.8504   24105166.9404   24105163.5484
       209.000         142.000
 113124228.27448  88148750.54948  21526825.1764   21526825.4244   21526825.7434
       230.000         182.000
 113752076.29248  88637991.17648  21646291.1094   21646292.3164   21646291.1434
       228.000         174.000
 125298344.11948  79842861.90248  21940549.2544   21940549.8604   21940549.7934
       234.000         180.000
 111412357.79648  86814821.15348  21201068.5574   21201068.7104   21201068.3954
       234.000         190.000
 139449030.61748  90869364.75148  24633337.4104   24633340.6614   24633337.9404
       203.000         133.000
 108900660.59648  84857657.52148  20723107.0734   20723107.1884   20723106.9594
       239.000         197.000
 12  9 20  1 28  0.0000000  0  8G05G30G21G26G18G15G16G29
 125445324.27548  97749604.03748  23871450.9454   23871452.6614   23871450.6734
       214.000         152.000
 126709964.32848  98735017.23748  24112121.2754   24112125.0514   24112121.9554
       209.000         143.000
 113075978.66548  88111153.49648  21517643.5554   21517643.6854   21517644.0524
       230.000         182.000
 113768660.49548  88650913.94548  21649446.7144   21649447.9294   21649446.8694
       228.000         174.000
 125238233.16548  79796022.26648  21929110.4994   21929111.2674   21929111.0284
       234.000         180.000
 111370600.26648  86782282.86448  21193122.4414   21193122.3834   21193122.1644
       234.000         190.000
 139427657.03348  90852710.06248  24629270.8444   24629272.2084   24629270.5984
       207.000         135.000
 108957002.11248  84901560.00748  20733828.4684   20733828.5704   20733828.2854
       238.000         197.000
 12  9 20  1 28 30.0000000  0  8G05G30G21G26G18G15G16G29
 125541215.54348  97824324.50948  23889698.4924   23889700.1214   23889698.4984
       212.000         152.000
 126747010.81048  98763884.61248  24119170.5124   24119174.1484   24119171.2884
       209.000         142.000
 113027864.69448  88073662.13048  21508487.6854   21508487.8334   21508488.2174
       229.000         182.000
 113785953.27648  88664388.85848  21652737.5864   21652738.5874   21652737.5974
       229.000         174.000
 125178405.19248  79749403.14548  21917725.5074   21917726.2044   21917726.1414
       233.000         180.000
 111329396.83048  86750176.34348  21185281.5804   21185281.7614   21185281.3684
       233.000         190.000
 139406817.38848  90836471.41048  24625304.6454   24625307.8374   24625305.2864
       206.000         134.000
 109013828.56348  84945840.36848  20744642.1924   20744642.2774   20744642.0214
       238.000         197.000
 12  9 20  1 29  0.0000000  0  8G05G30G21G26G18G15G16G29
 125637149.26048  97899078.06948  23907954.1844   23907955.2224   23907953.7854
       213.000         151.000
 126784535.72048  98793124.77048  24126311.8014   24126314.4264   24126311.6834
       207.000         142.000
 112979887.19548  88036277.10348  21499357.8534   21499357.8104   21499358.3554
       230.000         182.000
 113803954.24048  88678415.59948  21656163.1624   21656164.0614   21656163.0584
       229.000         174.000
 125118859.82748  79703004.22748  21906394.2614   21906395.2374   21906394.8094
       234.000         180.000
 111288749.55248  86718503.18548  21177546.6244   21177546.8594   21177546.3864
       233.000         190.000
 139386512.06848  90820649.15548  24621441.1924   24621444.0184   24621441.0554
       208.000         134.000
 109071138.76748  84990497.67648  20755547.7724   20755548.0124   20755547.6124
       238.000         197.000
 12  9 20  1 29 30.0000000  0  8G05G30G21G26G18G15G16G29
 125733124.30548  97973863.82748  23926218.0024   23926218.7944   23926217.3254
       212.000         150.000
 126822536.73548  98822735.90648  24133542.9254   24133547.6864   24133543.5094
       206.000         141.000
 112932047.03148  87998999.09348  21490254.3084   21490254.1074   21490254.8444
       231.000         183.000
 113822662.83448  88692993.72848  21659723.0294   21659724.0004   21659723.1214
       229.000         173.000
 125059597.64048  79656825.97048  21895117.1044   21895117.7944   21895117.6834
       234.000         180.000
 111248659.59348  86687264.30348  21169917.5784   21169918.0874   21169917.3304
       233.000         190.000
 139366741.48948  90805243.53448  24617679.1584   24617681.8164   24617679.0434
       207.000         134.000
 109128931.22548  85035530.76748  20766545.2124   20766545.5454   20766545.0994
       238.000         197.000
 12  9 20  1 30  0.0000000  0  8G05G30G21G26G18G15G16G29
 125829138.82648  98048680.35748  23944488.8274   23944489.6294   23944488.6344
       211.000         151.000
 126861011.66548  98852716.35448  24140863.7424   24140868.5084   24140864.5254
       206.000         139.000
 112884345.68748  87961829.25448  21481177.0284   21481176.7964   21481177.6794
       231.000         182.000
 113842078.60148  88708122.90648  21663417.7964   21663418.8734   21663417.7764
       229.000         175.000
 125000618.71148  79610868.44448  21883893.7294   21883894.4404   21883894.3334
       233.000         180.000
 111209128.75148  86656461.09548  21162395.1354   21162395.6314   21162394.9164
       233.000         190.000
 139347506.01548  90790254.89748  24614016.5434   24614021.2274   24614018.3274
       207.000         136.000
 109187204.50248  85080938.51648  20777634.4084   20777634.5994   20777634.1794
       237.000         196.000
 12  9 20  1 30 30.0000000  0  8G05G30G21G26G18G15G16G29
 125925191.37648  98123526.49748  23962766.7344   23962768.0494   23962766.5394
       212.000         152.000
 126899958.35648  98883064.39048  24148275.5884   24148278.0254   24148275.8714
       206.000         139.000
 112836784.16448  87924768.36648  21472126.2274   21472126.1274   21472126.9114
       231.000         182.000
 113862200.87048  88723802.60948  21667247.0624   21667248.1674   21667247.1274
       229.000         175.000
 124941923.23148  79565131.77048  21872724.2244   21872724.9734   21872724.7864
       233.000         180.000
 111170158.68648  86626094.85648  21154979.4684   21154979.7774   21154979.2714
       233.000         191.000
 139328805.45548  90775683.08248  24610459.5524   24610462.7634   24610459.9544
       208.000         137.000
 109245957.68548  85126720.22848  20788814.8524   20788814.9534   20788814.7254
       238.000         196.000
 12  9 20  1 31  0.0000000  0  8G05G30G21G26G18G15G16G29
 126021280.46548  98198401.12948  23981052.3614   23981053.0464   23981051.7794
       211.000         152.000
 126939374.03248  98913777.87748  24155775.7994   24155779.8224   24155775.9964
       205.000         138.000
 112789362.91048  87887816.77248  21463102.1374   21463102.1674   21463102.6784
       230.000         183.000
 113883029.04048  88740032.35448  21671210.4934   21671211.6864   21671210.5924
       228.000         174.000
 124883511.51648  79519616.20048  21861608.8264   21861609.4984   21861609.3004
       233.000         179.000
 111131750.75648  86596166.64048  21147670.6414   21147670.6794   21147670.4344
       233.000         190.000
 139310640.44148  90761528.57948  24607002.9184   24607006.4254   24607003.6584
       207.000         137.000
 109305189.35748  85172874.77948  20800086.2644   20800086.4554   20800086.0724
       238.000         196.000
 12  9 20  1 31 30.0000000  0  8G05G30G21G26G18G15G16G29
 126117404.68548  98273303.11248  23999344.1274   23999345.4434   23999343.6384
       210.000         153.000
 126979257.00648  98944855.47948  24163365.5504   24163369.2194   24163365.6724
       205.000         140.000
 112742083.13748  87850975.42748  21454105.2444   21454105.2604   21454105.6914
       231.000         184.000
 113904562.50148  88756811.69548  21675307.9404   21675309.6254   21675308.0104
       227.000         174.000
 124825384.06648  79474322.18348  21850547.4454   21850548.0314   21850548.0084
       233.000         180.000
 111093906.43848  86566677.61248  21140468.9684   21140469.1204   21140468.6424
       233.000         190.000
 139293011.33248  90747791.64748  24603647.7614   24603649.4454   24603647.7064
       205.000         135.000
 109364898.19848  85219401.15248  20811448.4894   20811448.6434   20811448.3394
       238.000         196.000
 12  9 20  1 32  0.0000000  0  8G05G30G21G26G18G15G16G29
 126213562.35048  98348231.17848  24017642.1404   24017643.0444   24017641.8934
       211.000         152.000
 127019604.58048  98976295.10148  24171042.9614   24171047.2854   24171044.2494
       206.000         140.000
 112694945.13948  87814244.55248  21445135.2184   21445135.1014   21445135.7904
       231.000         184.000
 113926800.46348  88774139.99348  21679539.6384   21679541.2544   21679539.6194
       227.000         174.000
 124767540.70448  79429249.51048  21839540.1384   21839540.7834   21839540.6804
       233.000         180.000
 111056627.33648  86537629.00248  21133375.0494   21133375.0044   21133374.8294
       233.000         190.000
 139275917.68648  90734471.98448  24600394.5794   24600397.6044   24600395.3134
       203.000         136.000
 109425083.07548  85266298.46048  20822901.1974   20822901.4214   20822901.0764
       237.000         196.000
 12  9 20  1 32 30.0000000  0  8G05G30G21G26G18G15G16G29
 126309751.99848  98423184.16348  24035946.0804   24035947.5824   24035946.0094
       213.000         152.000
 127060414.38948  99008094.91148  24178809.5714   24178813.6844   24178810.3214
       206.000         141.000
 112647950.13748  87777625.10348  21436192.3584   21436192.2934   21436192.9394
       232.000         184.000
 113949742.34148  88792016.80348  21683905.2084   21683907.0624   21683905.0864
       227.000         173.000
 124709981.85848  79384398.54948  21828586.8784   21828587.4974   21828587.5134
       233.000         180.000
 111019915.13148  86509022.13548  21126388.9054   21126389.1044   21126388.6674
       232.000         190.000
 139259359.97048  90721569.91048  24597244.1914   24597248.3424   24597243.9244
       205.000         136.000
 109485742.41648  85313565.48248  20834444.1624   20834444.5144   20834444.0134
       237.000         195.000
 12  9 20  1 33  0.0000000  0  8G05G30G21G26G18G15G16G29
 126405972.09748  98498160.89048  24054256.3184   24054257.5764   24054256.0004
       213.000         153.000
 127101684.31748  99040253.26648  24186663.3284   24186667.2024   24186663.5834
       207.000         141.000
 112601099.84648  87741118.41848  21427276.9084   21427276.8664   21427277.3904
       231.000         184.000
 113973387.36248  88810441.50648  21688404.7024   21688406.4654   21688404.8284
       226.000         172.000
 124652707.72848  79339769.41448  21817687.8794   21817688.6414   21817688.4784
       233.000         180.000
 110983771.12148  86480858.01348  21119510.8494   21119511.0554   21119510.4574
       233.000         191.000
 139243338.43248  90709085.64348  24594195.6144   24594197.8014   24594195.6404
       204.000         135.000
 109546874.92848  85361201.20748  20846077.3824   20846077.6014   20846077.1714
       237.000         196.000
 12  9 20  1 33 30.0000000  0  9G05G30G22G21G26G18G15G16G29
 126502221.17348  98573160.20548  24072571.8414   24072572.8064   24072571.5894
       213.000         152.000
 127143411.60348  99072767.98748  24194602.9724   24194607.5644   24194603.6154
       207.000         142.000
 141526936.40658  92488514.39458  25028748.2055   25028752.4855   25028749.6785
       192.000         137.000
 112554394.96048  87704725.02548  21418389.2344   21418389.1964   21418389.7294
       231.000         184.000
 113997734.64548  88829413.42548  21693038.0894   21693039.4924   21693038.0194
       228.000         171.000
 124595718.22748  79295362.08048  21806843.1044   21806843.8964   21806843.7524
       233.000         180.000
 110948197.02548  86453137.97948  21112741.2024   21112741.4864   21112740.9634
       233.000         191.000
 139227853.24048  90697019.32048  24591246.6824   24591249.7894   24591248.6594
       203.000         135.000
 109608478.74948  85409204.18248  20857800.2414   20857800.4474   20857800.1774
       237.000         195.000
 12  9 20  1 34  0.0000000  0  9G05G30G22G21G26G18G15G16G29
 126598497.54448  98648180.77848  24090892.1574   24090893.4314   24090891.8844
       216.000         152.000
 127185594.23048  99105637.53048  24202630.5794   24202634.6474   24202631.0574
       207.000         142.000
 141435083.36948  92416940.86648  25011268.8044   25011273.7264   25011268.9954
       184.000         128.000
 112507836.34348  87668445.62448  21409529.4914   21409529.3084   21409529.8544
       231.000         184.000
 114022783.41148  88848931.94948  21697804.8284   21697805.7344   21697804.8094
       229.000         172.000
 124539013.53048  79251176.69148  21796052.6564   21796053.2434   21796053.1954
       233.000         181.000
 110913193.93448  86425862.88648  21106080.3924   21106080.6744   21106080.1344
       233.000         191.000
 139212904.25648  90685370.80548  24588403.8614   24588407.5044   24588403.5514
       204.000         134.000
 109670552.89248  85457573.64148  20869612.6394   20869612.7104   20869612.4724
       237.000         195.000
 12  9 20  1 34 30.0000000  0  8G05G30G21G26G18G15G16G29
 126694800.21248  98723221.84848  24109218.3554   24109219.4044   24109217.9034
       214.000         152.000
 127228229.42848  99138859.73148  24210743.6474   24210748.3394   24210743.9064
       208.000         142.000
 112461425.08048  87632281.03448  21400697.7404   21400697.6244   21400698.1554
       231.000         184.000
 114048532.91848  88868996.51048  21702704.7434   21702705.5794   21702704.7244
       228.000         171.000
 124482594.39248  79207213.81848  21785316.1454   21785316.8044   21785316.8994
       233.000         180.000
 110878763.31848  86399033.87848  21099528.3964   21099528.6944   21099528.2034
       234.000         191.000
 139198491.54148  90674140.16348  24585661.4674   24585663.5294   24585661.5604
       203.000         135.000
 109733096.09248  85506308.60048  20881514.2344   20881514.3404   20881514.0674
       237.000         195.000
 12  9 20  1 35  0.0000000  0  9G05G30G22G21G26G18G15G16G29
 126791127.48448  98798282.09748  24127548.7114   24127550.0434   24127548.3544
       214.000         151.000
 127271315.05048  99172432.90648  24218942.0564   24218946.2934   24218943.1524
       209.000         141.000
 131251825.37258 102274166.22558  24976378.8725   24976378.5845   24976378.1095
       187.000         128.000
 112415162.70348  87596232.46148  21391894.0874   21391894.1144   21391894.7144
       231.000         185.000
 114074982.14948  88889606.30448  21707737.8424   21707738.6814   21707737.7914
       227.000         172.000
 124426460.46848  79163473.18748  21774634.1054   21774634.8184   21774634.9334
       234.000         181.000
 110844906.63648  86372652.08048  21093085.7054   21093085.8534   21093085.4554
       234.000         192.000
 139184615.37448  90663327.63748  24583020.3294   24583024.2084   24583020.3434
       206.000         136.000
 109796106.68448  85555407.75648  20893504.6144   20893504.9604   20893504.4814
       237.000         195.000
 12  9 20  1 35 30.0000000  0  9G05G30G22G21G26G18G15G16G29
 126887477.96048  98873360.42048  24145883.3124   24145884.6064   24145883.4234
       214.000         150.000
 127314848.37848  99206354.92748  24227226.5924   24227229.6324   24227227.9564
       212.000         141.000
 131160322.31848 102202865.45648  24958964.5834   24958968.2524   24958965.3444
       193.000         134.000
 112369048.84948  87560299.62048  21383118.7274   21383118.9064   21383119.2964
       230.000         185.000
 114102130.19548  88910760.63348  21712903.7214   21712904.8094   21712903.7434
       227.000         171.000
 124370612.01548  79119954.96748  21764006.5594   21764007.0624   21764007.2464
       233.000         180.000
 110811625.15548  86346718.49648  21086752.4174   21086752.4314   21086752.2394
       233.000         191.000
 139171275.60248  90652933.05048  24580481.4504   24580485.6154   24580482.2674
       204.000         136.000
 109859583.16048  85604869.94048  20905583.6954   20905584.1234   20905583.6214
       236.000         195.000
 12  9 20  1 36  0.0000000  0  9G05G30G22G21G26G18G15G16G29
 126983850.00948  98948455.53448  24164222.1314   24164224.0884   24164222.0144
       211.000         147.000
 127358827.18548  99240624.10748  24235596.1814   24235599.6814   24235596.5454
       208.000         140.000
 131068937.40448 102131656.68648  24941573.8604   24941577.5534   24941575.4504
       199.000         135.000
 112323085.30248  87524483.90148  21374372.1854   21374372.2974   21374372.7474
       229.000         185.000
 114129976.18748  88932458.83248  21718202.5474   21718203.7364   21718202.7744
       226.000         171.000
 124315049.34148  79076659.43448  21753433.2104   21753433.8114   21753433.7144
       233.000         181.000
 110778920.43248  86321234.33448  21080528.9824   21080528.8804   21080528.7034
       234.000         192.000
 139158472.31648  90642956.49448  24578046.0454   24578049.0464   24578046.6004
       206.000         137.000
 109923524.19348  85654694.11648  20917751.3904   20917751.7094   20917751.2194
       236.000         195.000
 12  9 20  1 36 30.0000000  0  9G05G30G22G21G26G18G15G16G29
 127080242.41148  99023566.48948  24182565.4304   24182566.7184   24182565.0654
       210.000         144.000
 127403248.83648  99275238.36248  24244048.5724   24244052.6384   24244048.6054
       208.000         139.000
 130977671.72948 102060540.87048  24924207.2294   24924211.1064   24924207.3124
       203.000         136.000
 112277273.15848  87488786.15748  21365654.3734   21365654.6334   21365654.8974
       230.000         184.000
 114158519.12648  88954700.09348  21723634.2554   21723635.4094   21723634.2394
       227.000         171.000
 124259772.63948  79033586.74048  21742914.4414   21742915.0774   21742914.8234
       233.000         181.000
 110746793.57248  86296200.44848  21074415.4084   21074415.3784   21074415.1354
       234.000         192.000
 139146205.56948  90633398.05148  24575712.4744   24575715.2404   24575711.8274
       204.000         138.000
 109987928.10348  85704878.97848  20930007.0864   20930007.2234   20930006.9904
       236.000         194.000
 12  9 20  1 37  0.0000000  0  9G05G30G22G21G26G18G15G16G29
 127176653.54648  99098692.06248  24200911.4534   24200912.1744   24200911.5854
       208.000         143.000
 127448110.99648  99310195.86948  24252586.0604   24252589.5844   24252585.6024
       206.000         139.000
 130886526.18548 101989518.65748  24906861.6304   24906865.4634   24906862.8704
       207.000         138.000
 112231614.03948  87453207.65148  21356965.6414   21356965.9014   21356966.2944
       230.000         185.000
 114187757.98648  88977483.63848  21729198.2604   21729199.2954   21729198.2454
       226.000         172.000
 124204781.72548  78990736.72248  21732449.9794   21732450.4804   21732450.4874
       234.000         181.000
 110715245.93348  86271617.91048  21068411.9944   21068412.1564   21068411.7154
       233.000         192.000
 139134475.34348  90624257.64948  24573478.6614   24573482.2964   24573478.8884
       204.000         138.000
 110052793.49248  85755423.42848  20942350.5744   20942350.9034   20942350.4134
       236.000         194.000
 12  9 20  1 37 30.0000000  0  9G05G30G22G21G26G18G15G16G29
 127273082.30648  99173831.36548  24219260.8824   24219263.1954   24219261.3014
       206.000         143.000
 127493410.90048  99345494.45748  24261205.5764   24261210.3884   24261206.2794
       210.000         139.000
 130795501.50548 101918590.61748  24889540.2264   24889543.8684   24889541.2394
       205.000         137.000
 112186107.91848  87417748.36348  21348306.1444   21348306.3674   21348306.5474
       230.000         184.000
 114217691.78448  89000808.69148  21734894.3944   21734895.4954   21734894.5484
       227.000         172.000
 124150076.84048  78948109.58048  21722039.9984   21722040.3384   21722040.6364
       234.000         182.000
 110684278.70348  86247487.63048  21062519.0804   21062519.3314   21062518.8274
       234.000         193.000
 139123281.22448  90615535.02248  24571349.2294   24571352.1074   24571349.2304
       207.000         139.000
 110118118.86648  85806326.30948  20954781.5974   20954781.8324   20954781.4974
       237.000         194.000
 12  9 20  1 38  0.0000000  0  9G05G30G22G21G26G18G15G16G29
 127369527.04748  99248983.10348  24237614.4304   24237615.2644   24237614.1524
       206.000         142.000
 127539146.11248  99381132.26048  24269909.6114   24269912.8874   24269909.9394
       210.000         137.000
 130704598.41748 101847757.29648  24872241.5124   24872245.3444   24872242.7694
       210.000         138.000
 112140756.29248  87382409.46848  21339676.1724   21339676.1394   21339676.8294
       230.000         185.000
 114248319.33248  89024674.33048  21740722.7774   21740723.8314   21740722.8614
       228.000         173.000
 124095658.08848  78905705.43748  21711684.4664   21711684.7374   21711685.0074
       234.000         182.000
 110653893.11748  86223810.58748  21056736.8964   21056737.0454   21056736.7754
       234.000         192.000
 139112623.10448  90607230.02348  24569320.2034   24569323.7224   24569321.5794
       208.000         139.000
 110183902.79648  85857586.50148  20967299.8234   20967299.9854   20967299.7964
       236.000         193.000
 12  9 20  1 38 30.0000000  0  9G05G30G22G21G26G18G15G16G29
 127465986.51848  99324146.32748  24255970.3734   24255971.2544   24255969.9224
       204.000         140.000
 127585314.27448  99417107.41848  24278695.2014   24278699.0664   24278695.7024
       210.000         139.000
 130613817.96148 101777019.51948  24854966.4564   24854969.7734   24854967.8534
       215.000         137.000
 112095560.25248  87347191.79948  21331075.5894   21331075.5164   21331076.0944
       230.000         185.000
 114279639.57548  89049079.73148  21746682.8264   21746684.0354   21746682.8804
       228.000         173.000
 124041525.81248  78863524.50948  21701383.2874   21701383.6194   21701383.8724
       233.000         182.000
 110624090.43048  86200587.74748  21051065.6424   21051065.8284   21051065.4884
       234.000         193.000
 139102501.09648  90599342.78048  24567396.0204   24567398.5274   24567395.6514
       209.000         138.000
 110250143.59848  85909202.70048  20979905.0404   20979905.2174   20979904.9114
       236.000         193.000
 12  9 20  1 39  0.0000000  0  9G05G30G22G21G26G18G15G16G29
 127562459.13448  99399319.78048  24274328.3934   24274328.7844   24274328.1494
       207.000         141.000
 127631912.55048  99453417.74848  24287561.9844   24287566.3474   24287562.8064
       207.000         139.000
 130523161.02748 101706377.97848  24837716.0364   24837718.9044   24837716.8394
       216.000         140.000
 112050521.02748  87312096.32948  21322504.8724   21322504.9544   21322505.3794
       231.000         185.000
 114311651.40048  89074024.02648  21752774.3194   21752775.7524   21752774.4734
       228.000         172.000
 123987680.02548  78821566.81648  21691136.7944   21691137.2234   21691137.2744
       233.000         182.000
 110594871.66648  86177819.90248  21045505.3334   21045505.5564   21045505.0534
       234.000         193.000
 139092915.09648  90591873.22548  24565570.1294   24565573.3724   24565571.0244
       210.000         139.000
 110316839.47248  85961173.50148  20992596.7414   20992597.0334   20992596.5964
       234.000         192.000
 12  9 20  1 39 30.0000000  0  9G05G30G22G21G26G18G15G16G29
 127658943.51048  99474502.42048  24292689.3314   24292687.9714   24292688.8694
       209.000         141.000
 127678938.64648  99490061.42348  24296510.1974   24296515.2134   24296510.5494
       209.000         140.000
 130432627.89648 101635832.87748  24820489.3774   24820490.0704   24820488.9044
       218.000         140.000
 112005639.48848  87277123.72648  21313964.2084   21313964.1844   21313964.6434
       231.000         186.000
 114344353.59848  89099506.25448  21758997.3734   21758998.5924   21758997.3664
       228.000         171.000
 123934120.68548  78779832.32548  21680944.7384   21680945.0324   21680945.2964
       235.000         182.000
 110566237.98748  86155507.97748  21040056.5004   21040056.7784   21040056.2344
       234.000         193.000
 139083864.83148  90584821.11448  24563849.0694   24563850.3574   24563848.5934
       207.000         139.000
 110383989.01048  86013497.80748  21005374.9514   21005375.1794   21005374.8034
       234.000         192.000
 12  9 20  1 40  0.0000000  0  9G05G30G22G21G26G18G15G16G29
 127755438.58948  99549693.39148  24311051.2124   24311052.0594   24311051.2634
       207.000         142.000
 127726389.61948  99527036.18348  24305541.3924   24305544.2694   24305540.2834
       212.000         138.000
 130342219.63148 101565385.06148  24803283.9594   24803285.6144   24803284.5364
       217.000         140.000
 111960916.67948  87242274.81148  21305453.7074   21305453.7144   21305454.2324
       230.000         186.000
 114377744.90348  89125525.45848  21765351.6934   21765352.3514   21765351.7124
       228.000         171.000
 123880848.07148  78738321.24748  21670807.3294   21670807.6524   21670807.9574
       233.000         183.000
 110538190.82848  86133653.08248  21034719.2424   21034719.4724   21034718.9124
       234.000         193.000
 139075350.08148  90578186.28948  24562228.3984   24562231.3484   24562228.5384
       210.000         139.000
 110451590.68748  86066174.43348  21018239.1734   21018239.3754   21018239.0394
       235.000         192.000
 12  9 20  1 40 30.0000000  0  9G05G30G22G21G26G18G15G16G29
 127851942.76348  99624891.44448  24329415.3954   24329415.8504   24329415.0624
       209.000         143.000
 127774263.23348  99564340.27248  24314650.2224   24314654.5004   24314651.6734
       211.000         139.000
 130251937.13448 101495035.21248  24786103.3974   24786104.7114   24786104.1444
       217.000         139.000
 111916353.97048  87207550.65548  21296973.6134   21296973.6704   21296974.2414
       231.000         186.000
 114411824.25448  89152080.79148  21771836.7974   21771837.2254   21771836.9204
       227.000         170.000
 123827862.21548  78697033.61548  21660724.3424   21660724.7194   21660724.8584
       234.000         183.000
 110510731.18548  86112255.98748  21029493.7504   21029494.0354   21029493.4454
       233.000         193.000
 139067370.73348  90571968.64748  24560710.4894   24560712.3584   24560710.3794
       209.000         139.000
 110519642.84548  86119202.07548  21031189.1094   21031189.2544   21031189.0694
       234.000         192.000
 12  9 20  1 41  0.0000000  0  9G05G30G22G21G26G18G15G16G29
 127948454.71848  99700095.56848  24347781.0214   24347781.3044   24347780.3134
       209.000         145.000
 127822556.70948  99601971.50648  24323840.0654   24323843.3604   24323842.0874
       211.000         136.000
 130161781.15748 101424783.95248  24768947.2014   24768948.9644   24768948.3694
       218.000         140.000
 111871951.80848  87172951.59548  21288524.2324   21288524.1154   21288524.7794
       231.000         186.000
 114446590.16748  89179171.11648  21778452.3484   21778452.9984   21778452.4694
       227.000         170.000
 123775163.28848  78655969.56748  21650696.0024   21650696.4274   21650696.6144
       234.000         183.000
 110483859.85748  86091317.31948  21024380.3994   21024380.5834   21024380.2074
       234.000         193.000
 139059926.62648  90566168.09048  24559292.7504   24559294.9044   24559293.0054
       208.000         139.000
 110588143.93148  86172579.53348  21044224.4634   21044224.6054   21044224.3174
       233.000         191.000
 12  9 20  1 41 30.0000000  0  9G05G30G22G21G26G18G15G16G29
 128044973.28048  99775304.82448  24366147.6474   24366148.8614   24366147.0224
       209.000         147.000
 127871267.41348  99639927.87148  24333110.8084   24333114.1184   24333110.8204
       209.000         137.000
 130071752.25848 101354631.71748  24751814.7534   24751817.6904   24751816.4444
       213.000         136.000
 111827711.85148  87138478.92648  21280105.7354   21280105.5214   21280106.2494
       231.000         186.000
 114482041.63648  89206795.64548  21785198.2264   21785199.2004   21785198.3424
       225.000         170.000
 123722751.33648  78615129.13748  21640722.3244   21640722.6794   21640722.8244
       235.000         184.000
 110457578.39448  86070838.28148  21019379.3374   21019379.3794   21019379.1404
       234.000         194.000
 139053017.29648  90560784.21848  24557978.2544   24557979.8554   24557978.1844
       205.000         138.000
 110657092.12648  86226305.38348  21057344.6584   21057345.0844   21057344.5974
       233.000         191.000
 12  9 20  1 42  0.0000000  0  9G05G30G22G21G26G18G15G16G29
 128141497.10748  99850518.20248  24384515.2554   24384516.6584   24384514.9664
       210.000         148.000
 127920392.62948  99678207.22248  24342457.6934   24342461.6764   24342458.7814
       209.000         136.000
 129981851.75248 101284579.51048  24734706.8614   24734710.0544   24734708.2744
       210.000         136.000
 111783635.15748  87104133.48248  21271718.1794   21271717.8934   21271718.6624
       232.000         186.000
 114518176.99448  89234953.08448  21792074.4354   21792076.0674   21792074.3474
       226.000         171.000
 123670625.87648  78574511.92548  21630803.2414   21630803.4934   21630803.7984
       235.000         184.000
 110431887.43148  86050819.37448  21014490.5274   21014490.6314   21014490.3914
       235.000         194.000
 139046642.54148  90555816.92648  24556763.9644   24556768.2084   24556764.8014
       210.000         139.000
 110726485.77948  86280378.35248  21070549.9604   21070550.3204   21070549.7934
       233.000         191.000
 12  9 20  1 42 30.0000000  0  9G05G30G22G21G26G18G15G16G29
 128238024.73448  99925734.51248  24402883.7454   24402885.6874   24402883.7494
       211.000         151.000
 127969929.72248  99716807.52248  24351884.2074   24351887.8214   24351885.2584
       207.000         135.000
 129892080.40348 101214627.96848  24717624.3734   24717627.0554   24717624.8924
       210.000         137.000
 111739722.70048  87069916.00948  21263361.8424   21263361.6304   21263362.3274
       231.000         186.000
 114554995.16848  89263642.56848  21799080.7654   21799082.4274   21799080.7714
       227.000         172.000
 123618787.54948  78534118.45748  21620938.6984   21620939.0904   21620939.3154
       236.000         185.000
 110406788.15948  86031261.52048  21009714.1234   21009714.3324   21009713.9334
       235.000         194.000
 139040802.29048  90551266.11248  24555653.1934   24555656.7524   24555653.8104
       207.000         138.000
 110796323.25948  86334797.15848  21083839.5194   21083839.9204   21083839.5104
       233.000         191.000
 12  9 20  1 43  0.0000000  0  9G05G30G22G21G26G18G15G16G29
 128334554.92848 100000952.85948  24421253.2634   24421254.5414   24421253.0194
       213.000         152.000
 128019876.12148  99755726.75648  24361389.0754   24361391.6184   24361389.1224
       206.000         135.000
 129802438.32048 101144777.18748  24700566.2434   24700568.0744   24700566.6234
       208.000         139.000
 111695975.42648  87035827.25548  21255036.8854   21255036.8194   21255037.3394
       231.000         187.000
 114592494.68648  89292862.97648  21806217.0384   21806218.3364   21806217.0974
       228.000         173.000
 123567236.14948  78493948.57048  21611128.8174   21611129.1134   21611129.3814
       235.000         184.000
 110382281.46548  86012165.41548  21005050.5404   21005050.8114   21005050.2924
       234.000         193.000
 139035495.76148  90547131.16148  24554643.5754   24554646.3694   24554644.1924
       207.000         140.000
 110866602.82948  86389560.44448  21097213.3544   21097213.6804   21097213.1794
       234.000         191.000
 12  9 20  1 43 30.0000000  0  9G05G30G22G21G26G18G15G16G29
 128431086.42748 100076172.20648  24439622.5134   24439623.7734   24439622.4224
       214.000         152.000
 128070229.17148  99794962.86548  24370970.1594   24370974.3054   24370971.2574
       207.000         132.000
 129712926.81148 101075028.14748  24683531.7184   24683533.7124   24683532.7514
       204.000         138.000
 111652394.76148  87001868.32948  21246743.7754   21246743.6354   21246744.3874
       232.000         187.000
 114630674.06848  89322613.15348  21813482.4464   21813483.4784   21813482.6314
       229.000         173.000
 123515971.88948  78454002.44548  21601373.3844   21601373.7784   21601374.0324
       235.000         185.000
 110358368.22148  85993531.73848  21000499.9344   21000500.3264   21000499.7544
       234.000         194.000
 139030722.83448  90543412.03748  24553735.2934   24553737.4864   24553735.3814
       209.000         138.000
 110937322.99548  86444667.05848  21110670.9714   21110671.2344   21110670.8724
       232.000         190.000
 12  9 20  1 44  0.0000000  0  9G05G30G22G21G26G18G15G16G29
 128527617.72748 100151391.40648  24457991.3804   24457993.0994   24457991.3314
       212.000         151.000
 128120985.95648  99834513.60648  24380629.1294   24380633.6284   24380630.8574
       207.000         134.000
 129623546.39448 101005381.31448  24666522.9474   24666526.7854   24666523.9304
       200.000         138.000
 111608981.61148  86968039.92548  21238482.5074   21238482.3764   21238483.0474
       232.000         188.000
 114669531.93948  89352892.01648  21820876.9384   21820877.6624   21820877.0644
       228.000         172.000
 123464994.92548  78414280.18048  21591672.8664   21591673.1264   21591673.4404
       234.000         184.000
 110335049.49148  85975361.32248  20996062.6454   20996062.9084   20996062.4654
       234.000         194.000
 139026482.83048  90540108.16048  24552929.0724   24552931.5044   24552928.7604
       207.000         139.000
 111008481.57348  86500115.28648  21124211.9484   21124212.2774   21124211.8224
       233.000         190.000
 12  9 20  1 44 30.0000000  0  9G05G30G22G21G26G18G15G16G29
 128624147.58448 100226609.47148  24476360.5504   24476361.9944   24476360.1634
       210.000         149.000
 128172144.01048  99874376.99948  24390364.7174   24390369.6754   24390365.4674
       205.000         134.000
 129534297.80148 100935837.19448  24649539.5024   24649542.0884   24649539.9434
       199.000         138.000
 111565737.30148  86934343.09348  21230253.4374   21230253.2394   21230253.8824
       232.000         188.000
 114709066.84748  89383698.42948  21828400.1084   21828400.9204   21828400.0264
       228.000         172.000
 123414305.05148  78374781.62348  21582026.9234   21582027.0494   21582027.3844
       235.000         185.000
 110312326.25848  85957654.92448  20991738.5344   20991738.7554   20991738.3264
       235.000         194.000
 139022775.79848  90537219.61148  24552222.7414   24552225.3284   24552223.6404
       210.000         139.000
 111080077.03148  86555903.94148  21137836.2424   21137836.4174   21137836.0674
       234.000         190.000
 12  9 20  1 45  0.0000000  0  9G05G30G22G21G26G18G15G16G29
 128720674.88848 100301825.54948  24494729.3974   24494730.4444   24494728.7694
       208.000         148.000
 128223700.55948  99914550.91648  24400174.6514   24400178.9214   24400175.8314
       207.000         134.000
 129445182.35748 100866396.82648  24632580.6004   24632583.9354   24632581.6624
       200.000         136.000
 111522663.10648  86900778.81848  21222056.7504   21222056.4104   21222057.1464
       233.000         188.000
 114749277.17648  89415031.14948  21836051.7764   21836052.7444   21836051.5834
       227.000         172.000
 123363902.20048  78335506.71848  21572435.4374   21572435.7014   21572435.9324
       234.000         184.000
 110290199.36348  85940413.20848  20987528.0064   20987528.0334   20987527.7424
       235.000         194.000
 139019601.08948  90534745.81448  24551619.0114   24551621.1094   24551620.1934
       210.000         139.000
 111152107.61448  86612031.65448  21151543.2224   21151543.4314   21151543.1014
       233.000         190.000
 12  9 20  1 45 30.0000000  0  9G05G30G22G21G26G18G15G16G29
 128817198.31148 100377038.58348  24513096.8764   24513097.2724   24513096.7634
       207.000         143.000
 128275652.66148  99955033.08248  24410061.8424   24410065.2914   24410062.0064
       208.000         137.000
 129356200.03548 100797060.22048  24615649.0734   24615650.5134   24615649.1444
       202.000         137.000
 111479759.66848  86867347.59148  21213892.4264   21213892.1334   21213892.9664
       233.000         188.000
 114790161.48048  89446889.05548  21843831.5454   21843832.7964   21843831.6444
       228.000         171.000
 123313786.51848  78296455.57548  21562898.5574   21562898.9214   21562899.1134
       234.000         184.000
 110268669.57648  85923636.76748  20983431.0444   20983431.0234   20983430.8784
       236.000         195.000
 139016958.33348  90532686.55548  24551116.7094   24551118.9554   24551117.6404
       209.000         141.000
 111224571.78648  86668497.22248  21165332.7044   21165333.0074   21165332.5754
       233.000         191.000
 12  9 20  1 46  0.0000000  0  9G05G30G22G21G26G18G15G16G29
 128913716.67648 100452247.67148  24531464.3934   24531464.3164   24531463.8464
       204.000         141.000
 128327997.80948  99995821.49148  24420022.9054   24420027.6354   24420022.9934
       208.000         137.000
 129267351.89048 100727828.12448  24598740.8614   24598742.6644   24598742.0964
       203.000         137.000
 111437028.50348  86834050.60648  21205760.9674   21205760.6634   21205761.4764
       232.000         188.000
 114831718.11648  89479270.84248  21851739.5804   21851740.6874   21851739.8204
       228.000         170.000
 123263958.16648  78257628.33448  21553416.6404   21553416.8824   21553417.2324
       234.000         185.000
 110247737.80848  85907326.31548  20979447.8174   20979447.9274   20979447.6644
       237.000         195.000
 139014847.04248  90531041.40748  24550714.5234   24550717.3394   24550715.2604
       209.000         138.000
 111297467.55848  86725299.11248  21179204.3244   21179204.5554   21179204.1624
       233.000         190.000
 12  9 20  1 46 30.0000000  0  9G05G30G22G21G26G18G15G16G29
 129010228.42948 100527451.59248  24549830.4124   24549829.4834   24549829.2964
       202.000         137.000
 128380733.15648 100036913.94948  24430057.9004   24430062.2114   24430058.1784
       209.000         140.000
 129178638.74148 100658701.24848  24581859.4144   24581861.5214   24581859.5964
       204.000         138.000
 111394470.67448  86800888.68548  21197662.4984   21197662.0514   21197663.0114
       232.000         188.000
 114873945.51348  89512175.29748  21859775.3744   21859776.6064   21859775.4594
       228.000         171.000
 123214416.93048  78219024.81648  21543989.2884   21543989.4154   21543989.8544
       234.000         184.000
 110227404.74048  85891482.38048  20975578.5314   20975578.7564   20975578.2714
       237.000         196.000
 139013266.74248  90529810.03048  24550412.6154   24550416.9234   24550413.5674
       209.000         139.000
 111370793.14048  86782435.90948  21193157.7194   21193158.0684   21193157.6024
       233.000         190.000
 12  9 20  1 47  0.0000000  0  9G05G30G22G21G26G18G15G16G29
 129106732.82848 100602649.80748  24568193.0864   24568193.4774   24568193.6174
       200.000         135.000
 128433855.88948 100078308.27848  24440166.9854   24440170.9534   24440167.2674
       210.000         139.000
 129090061.07648 100589679.90948  24565002.8964   24565005.0024   24565003.6224
       204.000         139.000
 111352088.01148  86767863.25948  21189597.4064   21189596.8994   21189597.9414
       233.000         188.000
 114916842.08448  89545601.19848  21867938.4654   21867939.5494   21867938.4114
       228.000         171.000
 123165162.95848  78180645.13648  21534616.4014   21534616.7714   21534616.9534
       234.000         184.000
 110207671.20548  85876105.62048  20971823.3794   20971823.5544   20971823.1284
       236.000         195.000
 139012216.77148  90528991.88448  24550214.2914   24550216.1154   24550213.5514
       207.000         140.000
 111444546.68048  86839906.18448  21207192.6724   21207192.9424   21207192.5674
       234.000         190.000
 12  9 20  1 47 30.0000000  0  9G05G30G22G21G26G18G15G16G29
 129203228.37348 100677841.09148  24586556.2934   24586555.4224   24586555.4724
       201.000         135.000
 128487363.10648 100120002.19448  24450348.8944   24450353.5954   24450349.9754
       211.000         139.000
 129001619.64048 100520764.78148  24548173.0284   24548174.9724   24548173.3814
       201.000         138.000
 111309880.65748  86734974.43348  21181565.5024   21181565.1554   21181566.0334
       232.000         188.000
 114960406.20048  89579547.24748  21876228.2374   21876229.2884   21876228.3284
       227.000         171.000
 123116196.15048  78142489.22748  21525298.2674   21525298.6584   21525298.9774
       234.000         184.000
 110188538.07648  85861196.70848  20968182.3884   20968182.6154   20968182.1974
       237.000         195.000
 139011696.58148  90528586.53748  24550115.0384   24550118.8234   24550115.5164
       210.000         138.000
 111518726.67448  86897708.76148  21221308.6154   21221308.8874   21221308.5524
       233.000         190.000
 12  9 20  1 48  0.0000000  0  9G05G30G22G21G26G18G15G16G29
 129299713.75448 100753024.49448  24604916.8004   24604915.7484   24604916.4234
       204.000         134.000
 128541252.32648 100161993.75948  24460604.2364   24460607.2794   24460605.1424
       211.000         141.000
 128913315.43448 100451956.56048  24531367.6994   24531371.5344   24531368.7774
       201.000         138.000
 111267849.78748  86702223.13148  21173567.1374   21173566.9094   21173567.6694
       232.000         189.000
 115004636.04748  89614012.06048  21884645.0554   21884646.1094   21884645.0434
       227.000         171.000
 123067516.42248  78104557.01948  21516034.7454   21516035.1694   21516035.3514
       234.000         184.000
 110170005.75448  85846755.95548  20964655.8234   20964655.8604   20964655.6054
       237.000         196.000
 119011543.67558 110528432.61358  24550115.2835   24550122.1175   24550117.8425
       210.000         138.000
 111593330.78148  86955841.81848  21235505.1544   21235505.6584   21235504.9874
       233.000         190.000
 12  9 20  1 48 30.0000000  0  9G05G30G22G21G26G18G15G16G29
 129396188.14148 100828199.32448  24623275.6074   24623274.1644   24623274.9694
       205.000         136.000
 128595520.62948 100204280.72748  24470930.5524   24470934.4184   24470931.8364
       211.000         141.000
 128825149.14048 100383255.78548  24514590.1834   24514593.4284   24514591.0014
       203.000         139.000
 111225997.17148  86669610.72448  21165602.9064   21165602.5464   21165603.4264
       231.000         188.000
 115049530.09948  89648994.43748  21893188.2524   21893189.2784   21893188.2454
       227.000         170.000
 123019123.77748  78066848.50548  21506825.7384   21506826.4004   21506826.3934
       233.000         184.000
 110152075.25848  85832784.16448  20961243.7044   20961243.9164   20961243.4444
       237.000         196.000
 119012081.41648 110528851.65148  24550218.0114   24550221.9044   24550218.8624
       207.000         139.000
 111668357.28648  87014304.01548  21249782.3014   21249782.7024   21249782.0234
       233.000         189.000
 12  9 20  1 49  0.0000000  0  9G05G30G22G21G26G18G15G16G29
 129492649.95848 100903364.37348  24641632.0534   24641631.4594   24641632.1294
       208.000         137.000
 128650165.05548 100246860.75948  24481329.3634   24481333.3964   24481329.9834
       211.000         140.000
 128737121.40048 100314662.96248  24497839.6504   24497841.9084   24497840.3024
       203.000         141.000
 111184323.76148  86637137.95648  21157672.6334   21157672.4084   21157673.0754
       231.000         189.000
 115095086.52748  89684492.94348  21901857.2424   21901858.3964   21901857.4864
       227.000         168.000
 122971018.28448  78029363.75048  21497671.5564   21497672.0824   21497672.0614
       233.000         184.000
 110134747.00248  85819281.64548  20957946.2474   20957946.4504   20957946.0164
       238.000         196.000
 119013147.29348 110529682.19948  24550421.4114   24550423.8514   24550421.2024
       208.000         139.000
 111743804.33248  87073093.89948  21264139.3644   21264139.8704   21264139.2684
       234.000         189.000
 12  9 20  1 49 30.0000000  0  9G05G30G22G21G26G18G15G16G29
 129589098.11148 100978518.75948  24659984.8944   24659984.4374   24659984.9964
       209.000         139.000
 128705182.82548 100289731.72248  24491798.8964   24491803.5034   24491800.2294
       210.000         140.000
 128649232.72148 100246178.49648  24481114.6524   24481118.0724   24481115.8924
       206.000         141.000
 111142830.59148  86604805.63548  21149776.7504   21149776.4664   21149777.3234
       232.000         188.000
 115141303.55648  89720506.21048  21910652.0704   21910653.1094   21910652.1224
       226.000         169.000
 122923199.87448  77992102.69148  21488571.9204   21488572.6454   21488572.5424
       232.000         184.000
 110118021.82348  85806249.05948  20954763.7634   20954763.7024   20954763.5004
       237.000         197.000
 119014740.79748 110530923.88848  24550725.0404   24550727.1024   24550725.3764
       209.000         137.000
 111819670.13848  87132210.09748  21278576.1594   21278576.7894   21278576.0854
       232.000         189.000
 12  9 20  1 50  0.0000000  0  9G05G30G22G21G26G18G15G16G29
 129685531.40548 101053661.63248  24678335.9474   24678336.2334   24678335.8114
       209.000         139.000
 128760571.25748 100332891.49848  24502338.9614   24502342.5484   24502340.0944
       207.000         139.000
 128561483.87048 100177802.95948  24464416.5754   24464419.3204   24464417.9024
       208.000         142.000
 111101519.06048  86572614.84848  21141915.4814   21141915.1444   21141916.0024
       232.000         188.000
 115188179.39848  89757032.83948  21919572.0284   21919573.1754   21919572.0744
       224.000         167.000
 122875668.39148  77955065.20948  21479526.9734   21479527.7724   21479527.5214
       233.000         185.000
 110101900.29248  85793686.84748  20951695.7194   20951695.8394   20951695.4694
       237.000         196.000
 119016861.08648 110532576.05748  24551128.6504   24551130.2544   24551129.3564
       208.000         136.000
 111895952.72748  87191651.04748  21293092.2104   21293092.9314   21293091.9754
       233.000         189.000
 12  9 20  1 50 30.0000000  0  9G05G30G22G21G26G18G15G16G29
 129781948.48248 101128791.82548  24696682.0954   24696684.6314   24696682.3774
       209.000         141.000
 128816327.21548 100376337.67148  24512949.3444   24512953.2854   24512950.1424
       206.000         139.000
 128473875.50848 100109536.88948  24447745.4704   24447748.2034   24447746.3364
       210.000         145.000
 111060390.40848  86540566.57348  21134089.0964   21134088.5574   21134089.6064
       232.000         188.000
 115235712.31848  89794071.47248  21928617.3414   21928618.1374   21928617.0724
       225.000         166.000
 122828423.84548  77918251.31948  21470536.6704   21470537.3794   21470537.2824
       232.000         185.000
 110086382.86048  85781595.35948  20948742.8144   20948742.9564   20948742.5194
       237.000         197.000
 119019507.44148 110534638.17748  24551632.2664   24551633.7334   24551632.4994
       208.000         136.000
 111972650.03248  87251415.16448  21307687.2514   21307687.8054   21307687.1534
       234.000         189.000
 12  9 20  1 51  0.0000000  0 10G05G30G22G21G26G18G15G16G29G06
 129878348.61948 101203908.81748  24715027.1744   24715027.9854   24715027.3334
       211.000         143.000
 128872448.12448 100420068.20748  24523628.6004   24523632.8794   24523628.7804
       203.000         137.000
 128386408.43348 100041380.90048  24431101.2194   24431103.4334   24431101.9284
       212.000         146.000
 111019446.01848  86508661.87348  21126297.5074   21126297.2164   21126298.0134
       231.000         188.000
 115283900.33448  89831620.56348  21937787.0084   21937788.2234   21937786.9834
       225.000         166.000
 122781466.12148  77881660.92648  21461600.7754   21461601.7014   21461601.2534
       232.000         184.000
 110071470.20948  85769975.12348  20945905.1484   20945905.2474   20945904.9424
       238.000         197.000
 119022679.33448 110537109.76748  24552235.2884   24552237.1154   24552235.8814
       206.000         137.000
 112049760.45248  87311501.18648  21322361.0654   21322361.4784   21322360.9444
       234.000         189.000
 138882695.28758  90428058.08658  24525573.4355   24525577.6525   24525574.6045
       208.000         140.000
 12  9 20  1 51 30.0000000  0 10G05G30G22G21G26G18G15G16G29G06
 129974730.50348 101279011.57648  24733368.7924   24733369.6284   24733368.1724
       210.000         143.000
 128928930.93348 100464080.76548  24534376.2534   24534379.8934   24534377.0764
       202.000         134.000
 128299083.31548  99973335.50048  24414483.8084   24414485.8184   24414484.7284
       215.000         147.000
 110978686.70048  86476901.39048  21118541.1544   21118540.8314   21118541.6374
       232.000         188.000
 115332741.72048  89869678.78148  21947081.4124   21947082.5284   21947081.3784
       225.000         164.000
 122734794.93448  77845293.80948  21452719.5404   21452720.4224   21452720.0544
       232.000         184.000
 110057162.88348  85758826.57348  20943182.5324   20943182.5594   20943182.3714
       237.000         197.000
 119026376.10448 110539990.35448  24552938.0994   24552941.4324   24552938.8174
       207.000         135.000
 112127282.11148  87371907.65748  21337112.9714   21337113.2134   21337112.8294
       233.000         189.000
 138791038.27048  90356637.12648  24508132.8084   24508135.4834   24508132.8784
       207.000         140.000
 12  9 20  1 52  0.0000000  0 10G05G30G22G21G26G18G15G16G29G06
 130071092.92348 101354099.17348  24751705.7614   24751707.1964   24751705.3954
       209.000         144.000
 128985772.90248 100508373.17148  24545193.1024   24545197.2984   24545193.9074
       200.000         133.000
 128211900.91648  99905401.30648  24397893.5384   24397895.4394   24397894.5254
       215.000         148.000
 110938113.65848  86445286.05248  21110820.1974   21110820.1504   21110820.7004
       231.000         188.000
 115382234.44848  89908244.52748  21956499.6054   21956500.7454   21956499.6474
       225.000         165.000
 122688410.37348  77809150.02848  21443892.7524   21443893.6154   21443893.2974
       232.000         185.000
 110043461.27548  85748150.00948  20940575.1324   20940575.0764   20940574.8094
       237.000         196.000
 119030596.61848 110543279.06948  24553741.6774   24553743.5414   24553742.6744
       209.000         137.000
 112205212.59148  87432632.67948  21351942.5034   21351943.0154   21351942.3154
       233.000         188.000
 138699607.15948  90285392.20648  24490734.2794   24490737.5234   24490734.3624
       207.000         140.000
 12  9 20  1 52 30.0000000  0 10G05G30G22G21G26G18G15G16G29G06
 130167434.66748 101429170.65548  24770039.1644   24770040.1314   24770038.6844
       207.000         144.000
 129042971.03848 100552943.10448  24556075.4804   24556082.2234   24556078.5454
       198.000         132.000
 128124861.73848  99837578.70148  24381330.0744   24381331.9454   24381331.1914
       212.000         145.000
 110897728.54548  86413817.15448  21103135.2484   21103134.9284   21103135.7284
       232.000         188.000
 115432376.56048  89947316.29148  21966041.3134   21966042.2894   21966041.3194
       224.000         164.000
 122642312.63648  77773229.75148  21435120.7824   21435121.4314   21435121.3984
       233.000         185.000
 110030366.18248  85737946.05348  20938083.1994   20938083.0454   20938082.8764
       237.000         196.000
 119035340.45548 110546975.56848  24554645.6044   24554646.3554   24554645.8144
       208.000         136.000
 112283550.17348  87493674.93248  21366849.5534   21366850.0854   21366849.4524
       233.000         188.000
 138608404.42348  90214325.20748  24473378.4674   24473382.0204   24473378.6904
       206.000         138.000
 12  9 20  1 53  0.0000000  0 10G05G30G22G21G26G18G15G16G29G06
 130263754.83848 101504225.32448  24788368.4364   24788369.7814   24788367.9204
       209.000         145.000
 129100522.35348 100597788.22948  24567030.6904   24567034.0364   24567029.4364
       196.000         131.000
 128037966.51848  99769868.25148  24364794.1624   24364795.6354   24364795.2824
       212.000         145.000
 110857532.19848  86382495.34648  21095486.1734   21095485.8524   21095486.6454
       231.000         188.000
 115483166.30048  89986892.70148  21975706.3074   21975707.5104   21975706.3654
       224.000         164.000
 122596501.75748  77737532.99148  21426403.2934   21426403.7284   21426403.9164
       233.000         185.000
 110017877.78348  85728214.84648  20935706.7454   20935706.7044   20935706.5064
       237.000         196.000
 119040606.34248 110551078.84948  24555646.5634   24555648.1044   24555647.9034
       208.000         137.000
 112362293.22948  87555033.13848  21381833.7674   21381834.5224   21381833.7044
       232.000         188.000
 138517432.51148  90143438.07748  24456066.8444   24456070.9164   24456067.6804
       206.000         139.000
 12  9 20  1 53 30.0000000  0 10G05G30G22G21G26G18G15G16G29G06
 130360052.17748 101579262.19548  24806692.9554   24806693.7994   24806693.0104
       205.000         142.000
 129158424.21148 100642906.49848  24578048.1044   24578050.1694   24578047.1034
       196.000         132.000
 127951215.82848  99702270.46948  24348285.8064   24348287.6694   24348287.3264
       211.000         144.000
 110817525.87648  86351321.60848  21087873.1644   21087872.9544   21087873.7064
       232.000         188.000
 115534601.48348  90026972.04548  21985494.2644   21985495.2714   21985494.3544
       223.000         164.000
 122550977.25348  77702059.38348  21417740.3834   21417740.8634   21417740.9634
       233.000         186.000
 110005996.17248  85718956.46448  20933445.6524   20933445.7424   20933445.4384
       237.000         196.000
 119046393.79648 110555588.54648  24556749.4354   24556752.1174   24556749.0704
       210.000         138.000
 112441439.31048  87616705.38448  21396894.8244   21396895.5844   21396894.6594
       233.000         188.000
 138426693.78448  90072732.66648  24438800.4744   24438803.3034   24438800.1544
       206.000         137.000
 12  9 20  1 54  0.0000000  0 10G05G30G22G21G26G18G15G16G29G06
 130456325.64648 101654280.48048  24825012.9394   24825015.1024   24825012.9134
       202.000         142.000
 129216673.41848 100688295.44748  24589131.9354   24589135.7094   24589132.1684
       200.000         131.000
 127864610.56448  99634785.99048  24331805.1024   24331807.4364   24331806.5624
       210.000         143.000
 110777711.10448  86320297.13048  21080296.5844   21080296.5114   21080297.1784
       230.000         188.000
 115586680.24348  90067552.89348  21995404.1874   21995405.1344   21995404.3224
       223.000         164.000
 122505738.94748  77666808.79048  21409131.8234   21409132.0514   21409132.4104
       234.000         186.000
 109994722.50748  85710171.80348  20931300.2904   20931300.4294   20931300.0324
       237.000         196.000
 119052702.02448 110560504.04748  24557949.2794   24557951.9444   24557950.0404
       209.000         137.000
 112520986.51048  87678690.19248  21412032.2644   21412032.8234   21412032.1534
       233.000         188.000
 138336190.49448  90002210.69848  24421577.5854   24421580.9014   24421577.7944
       204.000         136.000
 12  9 20  1 54 30.0000000  0 10G05G30G22G21G26G18G15G16G29G06
 130552573.91748 101729279.12248  24843328.3154   24843329.6834   24843327.9264
       198.000         139.000
 129275267.16048 100733952.87248  24600283.5284   24600286.8954   24600283.3174
       202.000         132.000
 127778151.21448  99567415.19048  24315351.5664   24315354.6484   24315353.3614
       207.000         140.000
 110738088.93948  86289422.73248  21072756.6834   21072756.6664   21072757.2394
       231.000         188.000
 115639400.39348  90108633.51848  22005436.4254   22005437.9754   22005436.5344
       222.000         163.000
 122460787.06648  77631781.39148  21400577.8044   21400578.1644   21400578.3054
       234.000         187.000
 109984056.98548  85701861.02048  20929270.7854   20929270.8354   20929270.4834
       237.000         196.000
 119059530.16248 110565824.66948  24559249.5494   24559249.9294   24559249.2874
       210.000         136.000
 112600932.59148  87740985.81248  21427245.6134   21427246.0104   21427245.5204
       233.000         188.000
 138245925.11148  89931874.11948  24404400.2214   24404403.2804   24404400.6814
       203.000         135.000
 12  9 20  1 55  0.0000000  0 10G05G30G22G21G26G18G15G16G29G06
 130648795.98848 101804257.33048  24861638.3844   24861639.6434   24861638.1344
       202.000         139.000
 129334202.35848 100779876.34348  24611498.1634   24611500.8184   24611498.7704
       203.000         133.000
 127691838.20748  99500158.42948  24298927.2624   24298929.5664   24298927.9854
       206.000         141.000
 110698660.74848  86258699.48748  21065253.8224   21065253.6604   21065254.3134
       232.000         188.000
 115692759.96148  90150212.38148  22015590.2594   22015591.7784   22015590.2334
       222.000         163.000
 122416121.22248  77596976.87148  21392078.0644   21392078.3854   21392078.6524
       234.000         186.000
 109973999.53248  85694024.05848  20927356.9584   20927356.9724   20927356.8034
       237.000         197.000
 119066877.20648 110571549.61548  24560646.0704   24560649.1914   24560646.5974
       208.000         136.000
 112681275.80348  87803590.88648  21442534.4704   21442534.8194   21442534.4494
       233.000         187.000
 138155900.14448  89861724.87048  24387268.9894   24387273.0184   24387268.4744
       202.000         135.000
 12  9 20  1 55 30.0000000  0 10G05G30G22G21G26G18G15G16G29G06
 130744990.99248 101879214.47148  24879944.7564   24879945.0824   24879944.4874
       201.000         139.000
 129393476.51348 100826063.97848  24622777.9634   24622780.6974   24622778.3694
       205.000         135.000
 127605672.44148  99433016.43548  24282529.9894   24282532.3694   24282531.3804
       207.000         139.000
 110659427.58648  86228128.21248  21057787.8884   21057787.7904   21057788.5794
       232.000         188.000
 115746756.86548  90192287.87548  22025865.6734   22025866.9274   22025865.6064
       223.000         163.000
 122371741.21048  77562395.07648  21383632.7334   21383633.1944   21383633.4014
       233.000         186.000
 109964550.92548  85686661.51948  20925558.8904   20925558.9184   20925558.6024
       237.000         197.000
 119074742.25048 110577678.22948  24562141.2824   24562146.0414   24562142.9894
       210.000         137.000
 112762014.08448  87866503.81148  21457898.5384   21457898.8604   21457898.4114
       233.000         187.000
 138066117.72648  89791764.64448  24370183.1914   24370187.1284   24370183.6784
       202.000         134.000
 12  9 20  1 56  0.0000000  0 10G05G30G22G21G26G18G15G16G29G06
 130841157.67548 101954149.55148  24898244.8684   24898245.7964   24898243.9694
       204.000         137.000
 129453086.24048 100872513.07948  24634120.4254   24634124.1124   24634121.7354
       206.000         135.000
 127519654.77648  99365989.82748  24266162.1784   24266163.2384   24266162.9674
       207.000         139.000
 110620390.59148  86197709.78848  21050359.4824   21050359.3744   21050360.0014
       232.000         190.000
 115801389.04148  90234858.38648  22036262.2434   22036263.0844   22036262.1944
       224.000         163.000
 122327647.18348  77528036.13248  21375241.8374   21375242.2954   21375242.2524
       233.000         186.000
 109955711.30448  85679773.51448  20923876.6714   20923876.8524   20923876.2784
       237.000         197.000
 119083124.62648 110584209.94248  24563737.4554   24563742.1134   24563737.7184
       208.000         137.000
 112843145.57348  87929723.12748  21473337.2834   21473337.8824   21473337.1594
       233.000         187.000
 137976580.47348  89721995.46448  24353144.6304   24353149.1344   24353145.3744
       202.000         136.000
 12  9 20  1 56 30.0000000  0 10G05G30G22G21G26G18G15G16G29G06
 130937294.81148 102029061.57948  24916538.0844   24916539.4704   24916538.7444
       206.000         139.000
 129513028.61848 100919221.39448  24645527.2944   24645530.2044   24645527.9744
       208.000         136.000
 127433785.26348  99299078.65448  24249820.9464   24249822.1464   24249821.9514
       205.000         138.000
 110581551.29448  86167445.41948  21042968.6534   21042968.5174   21042969.1574
       231.000         189.000
 115856654.35048  90277922.23548  22046779.1494   22046780.0704   22046779.2304
       225.000         165.000
 122283838.77548  77493899.74548  21366905.2264   21366905.8624   21366905.9084
       233.000         187.000
 109947480.83048  85673360.17148  20922310.6064   20922310.6664   20922310.3634
       237.000         197.000
 119092023.02948 110591143.75048  24565431.3854   24565433.8324   24565431.3304
       208.000         137.000
 112924667.86548  87993246.96548  21488850.3624   21488851.1284   21488850.3014
       232.000         187.000
 137887290.64548  89652419.04448  24336154.2584   24336158.4814   24336154.2614
       205.000         137.000
 12  9 20  1 57  0.0000000  0 10G05G30G22G21G26G18G15G16G29G06
 131033401.27848 102103949.76248  24934827.0154   24934826.7504   24934827.1614
       206.000         139.000
 129573300.72348 100966186.62148  24656996.3924   24657000.4774   24656997.4034
       210.000         138.000
 127348064.77348  99232283.63048  24233509.2784   24233511.7204   24233509.6474
       205.000         138.000
 110542910.96248  86137336.08248  21035615.6924   21035615.3544   21035616.2424
       232.000         190.000
 115912550.59748  90321477.73548  22057415.8744   22057416.6224   22057415.9194
       225.000         163.000
 122240316.02048  77459985.93748  21358623.1084   21358623.5984   21358623.7884
       234.000         186.000
 109939859.63048  85667421.58948  20920860.3804   20920860.3724   20920860.0794
       238.000         198.000
 119101436.58848 110598478.95648  24567223.5854   24567225.0264   24567223.7054
       210.000         136.000
 113006578.81948  88057073.65748  21504437.5594   21504438.3184   21504437.4344
       232.000         187.000
 137798250.78848  89583037.42448  24319209.6624   24319213.4324   24319211.0484
       206.000         137.000
 12  9 20  1 57 30.0000000  0 10G05G30G22G21G26G18G15G16G29G06
 131129476.70448 102178813.76448  24953109.1354   24953110.4734   24953109.0254
       208.000         138.000
 129633899.67948 101013406.56148  24668529.0214   24668532.5454   24668529.6544
       208.000         139.000
 127262493.93548  99165605.18748  24217225.2164   24217227.3734   24217226.0254
       203.000         137.000
 110504470.96948  86107382.85548  21028300.8154   21028300.5214   21028301.2684
       231.000         189.000
 115969075.64248  90365523.19948  22068172.2314   22068172.9424   22068172.1684
       224.000         163.000
 122197078.71248  77426294.55648  21350395.3794   21350395.8384   21350395.8474
       233.000         186.000
 109932848.00848  85661958.00248  20919526.0814   20919526.0514   20919525.8054
       238.000         197.000
 119111364.38048 110606214.91848  24569111.8414   24569115.9514   24569112.1464
       208.000         136.000
 113088876.71948  88121201.86248  21520098.3524   21520099.0084   21520098.2514
       232.000         187.000
 137709463.07248  89513852.27748  24302314.8684   24302318.2404   24302315.1794
       210.000         139.000
 12  9 20  1 58  0.0000000  0 10G05G30G22G21G26G18G15G16G29G06
 131225519.55748 102253652.40348  24971385.6264   24971387.1864   24971385.6684
       211.000         141.000
 129694822.52348 101060878.86248  24680122.0124   24680126.0054   24680123.0504
       208.000         139.000
 127177073.46348  99099043.94648  24200970.2584   24200971.1844   24200971.6184
       202.000         138.000
 110466232.67348  86077586.79448  21021024.2034   21021023.9504   21021024.6864
       231.000         190.000
 116026227.24548  90410056.87048  22079047.5254   22079048.5804   22079047.5844
       223.000         164.000
 122154126.69648  77392825.48348  21342221.8604   21342222.3274   21342222.4064
       234.000         186.000
 109926446.48648  85656969.81448  20918307.9944   20918307.9494   20918307.6844
       238.000         197.000
 119121805.47148 110614350.81448  24571098.3294   24571102.6734   24571099.4674
       208.000         136.000
 113171559.34348  88185629.85448  21535832.4324   21535833.0074   21535832.3864
       232.000         187.000
 137620929.87648  89444865.45748  24285467.7134   24285470.9364   24285467.9214
       208.000         140.000
 12  9 20  1 58 30.0000000  0 10G05G30G22G21G26G18G15G16G29G06
 131321528.90748 102328464.91948  24989655.7404   24989657.0974   24989655.1364
       207.000         140.000
 129756065.92748 101108600.97348  24691776.4304   24691780.4844   24691776.7634
       206.000         140.000
 127091804.40748  99032600.69948  24184744.8314   24184745.1434   24184745.2464
       206.000         139.000
 110428196.89948  86047948.54448  21013786.1094   21013785.9984   21013786.6104
       231.000         189.000
 116084003.20848  90455077.08848  22090041.7144   22090043.3374   22090041.9694
       221.000         163.000
 122111460.03548  77359578.76348  21334102.5034   21334103.0424   21334103.1434
       234.000         186.000
 109920654.88548  85652456.89148  20917205.7754   20917205.8024   20917205.5644
       237.000         197.000
 119132758.83448 110622885.89248  24573182.9574   24573184.7944   24573183.6014
       211.000         136.000
 113254624.83648  88250356.18748  21551639.2864   21551639.6774   21551639.1364
       232.000         186.000
 137532653.61448  89376078.84048  24268669.2294   24268671.8234   24268669.4044
       208.000         140.000
 12  9 20  1 59  0.0000000  0 10G05G30G22G21G26G18G15G16G29G06
 131417503.68148 102403250.49348  25007918.4574   25007919.6454   25007918.2424
       206.000         139.000
 129817627.22548 101156570.76348  24703489.6044   24703495.4254   24703491.3534
       208.000         141.000
 127006686.34548  98966275.06948  24168546.7234   24168549.2434   24168548.0364
       207.000         141.000
 110390365.22148  86018469.33348  21006586.9194   21006586.8694   21006587.4774
       231.000         189.000
 116142401.25048  90500582.03648  22101154.3834   22101155.9774   22101154.5834
       222.000         163.000
 122069078.24048  77326554.01748  21326037.4964   21326037.9644   21326038.0894
       233.000         186.000
 109915473.71348  85648419.62848  20916219.7404   20916219.7574   20916219.4184
       237.000         196.000
 119144222.85348 110631818.85948  24575365.9624   24575367.4354   24575365.8884
       211.000         137.000
 113338070.42248  88315378.68848  21567518.3824   21567518.8164   21567518.3724
       232.000         186.000
 137444636.95048  89307494.52748  24251920.1904   24251923.0124   24251920.1044
       209.000         140.000
 12  9 20  1 59 30.0000000  0 10G05G30G22G21G26G18G15G16G29G06
 131513442.92248 102478008.38248  25026175.6294   25026177.7844   25026174.7014
       210.000         142.000
 129879503.50148 101204785.99248  24715266.0224   24715269.1674   24715266.8254
       208.000         141.000
 126921720.45648  98900068.01848  24152378.5614   24152380.3064   24152379.1344
       207.000         142.000
 110352738.74648  85989150.01248  20999426.8304   20999426.6874   20999427.4044
       231.000         189.000
 116201419.11148  90546569.96248  22112385.1624   22112386.9494   22112385.2924
       223.000         164.000
 122026980.99948  77293751.00348  21318026.7084   21318027.2094   21318027.2354
       233.000         187.000
 109910902.85248  85644857.93148  20915349.9454   20915349.8934   20915349.6504
       237.000         196.000
 119156196.84248 110641149.24548  24577642.3754   24577646.7884   24577644.0584
       211.000         137.000
 113421894.28748  88380695.96348  21583469.5934   21583469.9824   21583469.3594
       232.000         185.000
 137356881.87748  89239114.03148  24235221.1614   24235223.5074   24235220.9564
       208.000         141.000
 12  9 20  2  0  0.0000000  0 10G05G30G22G21G26G18G15G16G29G06
 131609345.60048 102552737.76348  25044424.8174   25044427.3334   25044424.8364
       204.000         140.000
 129941691.28248 101253243.95348  24727099.8424   24727103.6264   24727100.9034
       208.000         142.000
 126836907.10348  98833979.81748  24136238.6464   24136240.7504   24136239.0064
       209.000         144.000
 110315319.01548  85959991.79948  20992306.1994   20992305.9634   20992306.7774
       231.000         189.000
 116261054.52148  90593039.10748  22123733.7844   22123735.2854   22123733.9954
       223.000         164.000
 121985168.49448  77261169.85848  21310069.9544   21310070.4834   21310070.5094
       234.000         187.000
 109906942.25448  85641771.76248  20914596.2474   20914596.3104   20914596.0194
       237.000         197.000
 119168679.74148 110650876.16548  24580018.7204   24580020.7944   24580018.7854
       210.000         138.000
 113506094.36948  88446306.39448  21599492.3344   21599492.8374   21599492.1604
       232.000         186.000
 137269390.97648  89170939.39948  24218571.3684   24218575.1434   24218571.7674
       208.000         139.000
 12  9 20  2  0 30.0000000  0 10G05G30G22G21G26G18G15G16G29G06
 131705210.67948 102627437.85548  25062667.4784   25062669.6554   25062667.0294
       205.000         141.000
 130004187.85848 101301942.53248  24738992.4394   24738996.7754   24738993.3844
       206.000         142.000
 126752247.01148  98768011.03348  24120128.2514   24120130.1204   24120129.1424
       209.000         145.000
 110278107.30248  85930995.66748  20985224.9524   20985224.7904   20985225.5464
       232.000         189.000
 116321305.16448  90639987.65848  22135199.2324   22135200.4724   22135199.2214
       222.000         164.000
 121943640.57448  77228810.46748  21302167.5354   21302168.0184   21302168.2024
       234.000         187.000
 109903592.06048  85639161.23248  20913958.8304   20913958.8464   20913958.6504
       238.000         197.000
 119181670.55648 110660998.88848  24582490.3264   24582492.2184   24582491.5114
       208.000         135.000
 113590668.69248  88512208.43948  21615586.4234   21615586.8744   21615586.2604
       232.000         186.000
 137182166.67648  89102972.51148  24201973.5674   24201976.1314   24201973.5904
       208.000         139.000
 12  9 20  2  1  0.0000000  0 10G05G30G22G21G26G18G15G16G29G06
 131801037.42248 102702108.06048  25080902.7744   25080905.4474   25080902.3424
       201.000         140.000
 130066990.26548 101350879.42148  24750944.1704   24750946.6544   24750944.6134
       206.000         141.000
 126667740.76248  98702162.12048  24104047.0394   24104048.7904   24104048.0884
       212.000         145.000
 110241104.71948  85902162.50048  20978183.6424   20978183.4524   20978184.2444
       233.000         190.000
 116382168.59948  90687413.69948  22146781.4594   22146782.5594   22146781.2544
       223.000         163.000
 121902396.90848  77196672.57648  21294319.2214   21294319.4264   21294319.8124
       233.000         187.000
 109900852.39048  85637026.43848  20913437.4844   20913437.5094   20913437.3394
       238.000         196.000
 119195167.79148 110671516.19748  24585059.0944   24585062.1054   24585059.4474
       212.000         136.000
 113675614.64248  88578400.06648  21631751.0724   21631751.7394   21631751.0624
       232.000         186.000
 137095211.20348  89035215.10548  24185425.7184   24185429.0084   24185426.3754
       209.000         140.000
 12  9 20  2  1 30.0000000  0 10G05G30G22G21G26G18G15G16G29G06
 131896824.61848 102776747.43748  25099130.1434   25099131.3944   25099130.4714
       194.000         137.000
 130130095.21148 101400052.07248  24762951.6354   24762955.6664   24762952.5624
       204.000         140.000
 126583388.84848  98636433.45848  24087995.4264   24087996.5684   24087996.3734
       210.000         146.000
 110204312.88548  85873493.55048  20971182.2774   20971182.1054   20971182.9174
       233.000         190.000
 116443642.51648  90735315.42748  22158479.4544   22158480.6444   22158479.4074
       223.000         163.000
 121861437.47548  77164756.16148  21286524.7224   21286525.0974   21286525.3794
       234.000         187.000
 109898723.02948  85635367.20448  20913032.1584   20913032.2444   20913031.9544
       237.000         197.000
 119209170.34848 110682427.29448  24587723.1584   24587725.7714   24587725.3064
       209.000         138.000
 113760930.22148  88644879.70748  21647986.2994   21647986.5974   21647986.2254
       231.000         184.000
 137008527.05848  88967669.08948  24168931.1764   24168933.8624   24168930.7734
       207.000         139.000
 12  9 20  2  2  0.0000000  0 10G05G30G22G21G26G18G15G16G29G06
 131992571.38248 102851355.30348  25117349.8744   25117353.0514   25117349.3744
       195.000         135.000
 130193499.93548 101449458.30848  24775017.7634   24775021.1324   24775017.6994
       201.000         139.000
 126499191.95748  98570825.59348  24071972.9204   24071973.7214   24071974.0274
       212.000         146.000
 110167732.93048  85844989.70548  20964221.4564   20964221.1794   20964221.9674
       233.000         190.000
 116505724.58648  90783691.04448  22170292.8784   22170294.4184   22170292.9914
       223.000         163.000
 121820761.88948  77133060.91848  21278784.5174   21278784.7354   21278785.1204
       234.000         187.000
 109897204.30548  85634183.79848  20912743.2234   20912743.2704   20912742.9214
       238.000         197.000
 119223677.16448 110693731.30348  24590484.5094   24590487.0174   24590484.5824
       208.000         137.000
 113846613.30048  88711645.71248  21664291.1724   21664291.5724   21664291.1374
       231.000         184.000
 136922116.63948  88900336.39248  24152487.3374   24152489.8764   24152487.1874
       209.000         140.000
 12  9 20  2  2 30.0000000  0 10G05G30G22G21G26G18G15G16G29G06
 132088276.61648 102925930.80248  25135561.3254   25135563.4444   25135561.7994
       195.000         134.000
 130257201.02948 101499095.47348  24787139.3274   24787143.3664   24787140.0894
       201.000         138.000
 126415150.65848  98505338.96748  24055980.5774   24055981.7974   24055981.6184
       212.000         149.000
 110131365.95348  85816651.81348  20957301.0594   20957300.7394   20957301.6174
       232.000         190.000
 116568412.39848  90832538.67248  22182221.9154   22182223.0024   22182222.0864
       220.000         161.000
 121780369.72348  77101586.53248  21271098.0044   21271098.3734   21271098.7094
       234.000         187.000
 109896295.91048  85633475.97848  20912570.3254   20912570.3264   20912570.1964
       237.000         196.000
 119238687.06748 110705427.33648  24593340.3594   24593342.2804   24593340.6114
       208.000         136.000
 113932661.51248  88778696.23848  21680665.5574   21680665.8914   21680665.4764
       231.000         184.000
 136835982.15448  88833218.68348  24136097.1084   24136098.8284   24136096.4114
       208.000         142.000
 12  9 20  2  3  0.0000000  0 10G05G30G22G21G26G18G15G16G29G06
 132183939.53948 103000473.35848  25153765.8844   25153768.6944   25153765.5274
       195.000         132.000
 130321195.85848 101548961.51048  24799316.8884   24799321.7404   24799317.4754
       200.000         135.000
 126331265.61848  98439974.08148  24040018.0224   24040019.0524   24040019.0354
       214.000         150.000
 110095213.59248  85788481.15848  20950421.4784   20950421.1234   20950422.0554
       232.000         190.000
 116631703.41748  90881856.32848  22194265.5534   22194266.8514   22194265.5954
       222.000         160.000
 121740261.17248  77070333.14148  21263465.5364   21263465.8984   21263466.0044
       234.000         187.000
 109895997.77048  85633243.66748  20912513.4144   20912513.5144   20912513.1464
       237.000         197.000
 119254198.78648 110717514.40048  24596292.7674   24596295.7384   24596292.6514
       209.000         137.000
 114019073.00548  88846029.83448  21697109.2154   21697109.5784   21697109.1034
       232.000         184.000
 136750126.23948  88766318.04648  24119758.5744   24119761.4254   24119758.8374
       209.000         142.000
 12  9 20  2  3 30.0000000  0 10G05G30G22G21G26G18G15G16G29G06
 132279559.20148 103074982.17648  25171961.8624   25171963.8704   25171961.1414
       192.000         136.000
 130385481.06748 101599053.82548  24811551.1894   24811554.3164   24811550.9114
       201.000         134.000
 126247537.06348  98374731.13548  24024085.2624   24024086.2624   24024085.8184
       215.000         151.000
 110059277.15648  85760478.75248  20943583.0204   20943582.7494   20943583.6134
       233.000         190.000
 116695595.29048  90931642.18448  22206423.7634   22206424.7374   22206423.6674
       220.000         159.000
 121700435.75948  77039300.37948  21255887.0214   21255887.3124   21255887.5914
       235.000         187.000
 109896309.65648  85633486.70148  20912572.9324   20912572.8494   20912572.6194
       237.000         196.000
 119270210.89648 110729991.35948  24599339.5134   24599342.3924   24599340.3304
       206.000         138.000
 114105845.25148  88913644.54548  21713621.4714   21713621.8644   21713621.3634
       232.000         184.000
 136664551.15748  88699636.24548  24103473.4854   24103477.0894   24103473.8864
       208.000         142.000
 12  9 20  2  4  0.0000000  0 10G05G30G22G21G26G18G15G16G29G06
 132375134.35448 103149456.31748  25190149.8004   25190150.1314   25190149.4404
       200.000         137.000
 130450053.71548 101649370.11248  24823837.8634   24823841.8284   24823838.0784
       201.000         131.000
 126163965.64348  98309610.61748  24008181.3734   24008183.0664   24008182.4544
       214.000         151.000
 110023557.98248  85732645.64548  20936785.9434   20936785.5424   20936786.4724
       233.000         191.000
 116760085.46048  90981894.25848  22218696.1094   22218697.0844   22218695.9074
       221.000         158.000
 121660893.57048  77008488.30848  21248362.5004   21248362.7514   21248363.2274
       235.000         188.000
 109897231.68348  85634205.17648  20912748.3094   20912748.3324   20912748.1914
       237.000         196.000
 119286722.27648 110742857.35048  24602481.4174   24602485.2324   24602481.7164
       206.000         139.000
 114192976.18648  88981538.75048  21730201.9444   21730202.3724   21730201.8624
       231.000         184.000
 136579259.05948  88633174.94648  24087242.5684   24087245.9184   24087243.2544
       208.000         143.000
 12  9 20  2  4 30.0000000  0 10G05G30G22G21G26G18G15G16G29G06
 132470664.36148 103223895.31448  25208328.7554   25208330.1824   25208328.0394
       198.000         138.000
 130514910.75048 101699908.03348  24836179.1694   24836183.4554   24836180.2694
       204.000         131.000
 126080552.11648  98244613.13148  23992308.6434   23992310.0564   23992309.5034
       215.000         151.000
 109988057.04948  85704982.59348  20930030.3844   20930029.9124   20930030.8044
       232.000         191.000
 116825171.51048  91032610.63748  22231081.4114   22231082.6904   22231081.6614
       221.000         159.000
 121621634.04348  76977896.49848  21240891.6654   21240891.8534   21240892.2234
       235.000         188.000
 109898763.78548  85635399.02948  20913039.6694   20913039.9944   20913039.5294
       236.000         196.000
 119303731.53748 110756111.32148  24605718.5794   24605720.8364   24605718.8294
       211.000         138.000
 114280463.38548  89049710.56348  21746850.1824   21746850.7914   21746850.0804
       231.000         184.000
 136494252.57348  88566936.19348  24071066.4404   24071070.3174   24071067.0704
       207.000         141.000
 12  9 20  2  5  0.0000000  0 10G05G30G22G21G26G18G15G16G29G06
 132566148.52248 103298298.60348  25226499.1594   25226500.3794   25226497.9134
       201.000         138.000
 130580048.82248 101750664.96348  24848576.1304   24848579.2374   24848575.3884
       205.000         131.000
 125997296.68548  98179738.84248  23976465.3404   23976466.3854   23976466.5024
       215.000         151.000
 109952776.11848  85677490.96748  20923316.4834   20923316.1964   20923317.0164
       232.000         191.000
 116890850.94148  91083789.41348  22243580.1064   22243581.3934   22243580.0274
       221.000         161.000
 121582656.99848  76947524.79648  21233474.5214   21233474.7344   21233475.1554
       235.000         188.000
 109900905.76248  85637068.11448  20913447.2604   20913447.6334   20913447.1044
       237.000         196.000
 119321237.30448 110769752.18248  24609048.5844   24609052.8114   24609050.0254
       209.000         139.000
 114368304.74548  89118158.34448  21763565.6194   21763566.3044   21763565.6534
       230.000         183.000
 136409534.05348  88500921.86048  24054945.9024   24054948.5094   24054945.3444
       207.000         143.000
 12  9 20  2  5 30.0000000  0 10G05G30G22G21G26G18G15G16G29G06
 132661585.65948 103372665.24748  25244659.0004   25244660.5914   25244659.0054
       207.000         140.000
 130645465.17248 101801638.70148  24861023.2664   24861028.6694   24861024.2254
       211.000         132.000
 125914199.95948  98114988.19848  23960652.9314   23960653.9444   23960653.5344
       213.000         150.000
 109917716.53948  85650171.83448  20916644.8224   20916644.5404   20916645.4134
       233.000         191.000
 116957121.16548  91135428.52048  22256191.0934   22256192.5554   22256191.1754
       221.000         160.000
 121543962.22248  76917373.05148  21226111.0904   21226111.4544   21226111.6414
       235.000         189.000
 109903657.21448  85639212.11348  20913970.9034   20913971.2664   20913970.6494
       237.000         196.000
 119339238.34648 110783778.96448  24612475.6964   24612478.2544   24612475.1914
       210.000         138.000
 114456498.23348  89186880.51348  21780348.3444   21780348.8894   21780348.1274
       230.000         183.000
 136325105.78348  88435133.67248  24038878.7894   24038882.9504   24038878.9404
       209.000         143.000
 12  9 20  2  6  0.0000000  0 10G05G30G22G21G26G18G15G16G29G06
 132756974.61248 103446994.35848  25262810.6324   25262812.8564   25262810.9834
       209.000         139.000
 130711156.58048 101852826.81748  24873524.6054   24873528.1094   24873525.1314
       211.000         133.000
 125831262.39948  98050361.59948  23944869.6544   23944871.4014   23944871.0584
       214.000         150.000
 109882879.18648  85623025.85548  20910015.6284   20910015.1984   20910016.2384
       232.000         191.000
 117023979.61948  91187526.00648  22268913.8344   22268915.1184   22268913.8324
       220.000         161.000
 121505549.71048  76887441.24348  21218801.3684   21218801.6814   21218801.9394
       235.000         189.000
 109907018.04048  85641830.94148  20914610.4254   20914610.6284   20914610.1374
       236.000         195.000
 119357733.29748 110798190.58948  24615995.5044   24615996.5044   24615995.6784
       208.000         137.000
 114545041.26648  89255875.05948  21797197.5784   21797198.0694   21797197.4414
       229.000         182.000
 136240970.10748  88369573.48948  24022867.5504   24022871.8434   24022868.7374
       207.000         142.000
 12  9 20  2  6 30.0000000  0 10G05G30G22G21G26G18G15G16G29G06
 132852314.97248 103521285.58148  25280954.1664   25280955.2494   25280954.0434
       209.000         137.000
 130777119.79748 101904226.73048  24886077.2154   24886082.7424   24886077.1824
       213.000         132.000
 125748484.78348  97985859.62848  23929117.8674   23929119.0044   23929119.0424
       216.000         152.000
 109848266.04948  85596054.59248  20903428.8734   20903428.5304   20903429.4164
       232.000         191.000
 117091423.77548  91240079.88048  22281748.1764   22281749.6034   22281747.8534
       220.000         158.000
 121467419.11748  76857729.12248  21211545.3764   21211545.6644   21211545.8734
       235.000         189.000
 109910988.09248  85644924.49248  20915365.9184   20915366.0434   20915365.7444
       236.000         195.000
 119376720.61648 110812985.89748  24619608.0154   24619610.8424   24619608.5374
       209.000         137.000
 114633931.41048  89325140.06948  21814112.9884   21814113.3334   21814112.7674
       230.000         183.000
 136157129.55348  88304243.26748  24006913.8094   24006917.3954   24006914.2294
       208.000         142.000
 12  9 20  2  7  0.0000000  0 10G05G30G22G21G26G18G15G16G29G06
 132947605.70448 103595538.16048  25299087.2014   25299087.5554   25299086.8274
       208.000         138.000
 130843352.05348 101955836.29748  24898679.7534   24898685.0764   24898681.1864
       215.000         134.000
 125665867.46648  97921482.55348  23913396.8004   23913397.7194   23913397.9164
       217.000         152.000
 109813878.33948  85569258.98748  20896885.0564   20896884.7994   20896885.5294
       232.000         191.000
 117159451.01448  91293088.10048  22294693.3274   22294694.6904   22294693.0154
       218.000         158.000
 121429570.08848  76828236.39948  21204342.9764   21204343.0944   21204343.6594
       236.000         188.000
 109915566.71748  85648492.25748  20916237.1004   20916237.3564   20916236.9444
       237.000         195.000
 119396199.45448 110828164.19548  24623314.5544   24623317.8734   24623315.2134
       210.000         138.000
 114723166.67848  89394674.00748  21831094.0794   21831094.1794   21831093.9364
       230.000         182.000
 136073586.29348  88239144.70448  23991016.7214   23991020.1164   23991017.1954
       210.000         142.000
 12  9 20  2  7 30.0000000  0 10G05G30G22G21G26G18G15G16G29G06
 133042845.92448 103669751.37148  25317211.1654   25317212.1264   25317211.0734
       214.000         137.000
 130909850.13848 102007653.00948  24911333.3874   24911337.5794   24911335.4004
       217.000         135.000
 125583411.07448  97857230.88148  23897705.9074   23897706.4524   23897707.0954
       215.000         152.000
 109779717.08348  85542639.83548  20890384.2774   20890384.1214   20890384.7474
       232.000         190.000
 117228058.75448  91346548.66048  22307748.5804   22307750.3174   22307748.7134
       219.000         158.000
 121392002.19148  76798962.74148  21197194.1474   21197194.1404   21197194.7084
       235.000         189.000
 109920753.81748  85652534.15548  20917224.3024   20917224.4694   20917223.9954
       237.000         195.000
 119416167.61148 110843723.79248  24627114.7404   24627117.3524   24627114.3404
       209.000         138.000
 114812744.59848  89464474.95648  21848140.2354   21848140.4264   21848140.1074
       231.000         182.000
 135990342.75248  88174279.67248  23975176.3404   23975179.0864   23975176.3014
       212.000         143.000
 12  9 20  2  8  0.0000000  0 10G05G30G22G21G26G18G15G16G29G06
 133138034.87248 103743924.64948  25335325.3434   25335326.1474   25335324.8354
       209.000         135.000
 130976610.67448 102059674.21948  24924038.4204   24924042.4834   24924039.5594
       217.000         136.000
 125501116.01248  97793104.91648  23882045.8264   23882046.5884   23882046.5344
       216.000         150.000
 109745783.65648  85516198.21648  20883926.9804   20883926.8644   20883927.4484
       232.000         191.000
 117297244.30248  91400459.45548  22320914.2394   22320915.2914   22320914.1534
       218.000         155.000
 121354715.76848  76769908.41148  21190098.7024   21190098.7194   21190099.2244
       236.000         189.000
 109926549.16448  85657050.01648  20918327.3174   20918327.3224   20918327.1714
       237.000         196.000
 119436623.84348 110859663.70048  24631007.2784   24631009.7204   24631007.7884
       210.000         139.000
 114902663.02348  89534541.22648  21865251.1984   21865251.4364   21865251.0544
       230.000         182.000
 135907401.26648  88109650.01748  23959392.6524   23959395.6394   23959393.0724
       210.000         142.000
 12  9 20  2  8 30.0000000  0 10G05G30G22G21G26G18G15G16G29G06
 133233171.13048 103818056.86648  25353429.2564   25353428.8704   25353428.3864
       209.000         134.000
 131043630.98648 102111897.84648  24936791.6244   24936795.6854   24936792.7984
       214.000         137.000
 125418982.88948  97729105.13648  23866415.7844   23866417.1764   23866416.8824
       215.000         150.000
 109712080.18948  85489935.78648  20877513.4714   20877513.2784   20877514.0354
       233.000         191.000
 117367005.07448  91454818.47748  22334188.7624   22334190.1254   22334188.7924
       217.000         153.000
 121317710.08348  76741072.83748  21183056.8794   21183056.7644   21183057.4094
       236.000         189.000
 109932952.02048  85662039.25848  20919545.5534   20919545.6764   20919545.4434
       236.000         195.000
 119457566.94848 110875982.99748  24634992.9724   24634994.9294   24634993.0074
       209.000         139.000
 114992919.57248  89604870.98348  21882426.3124   21882426.7844   21882426.3184
       231.000         181.000
 135824764.31848  88045257.67348  23943667.6544   23943669.8024   23943667.7414
       212.000         141.000
 12  9 20  2  9  0.0000000  0 10G05G30G22G21G26G18G15G16G29G06
 133328254.68148 103892147.99148  25371521.1604   25371523.5754   25371522.0594
       209.000         135.000
 131110907.47348 102164321.07648  24949594.2674   24949598.4424   24949594.8994
       217.000         139.000
 125337012.05648  97665231.80748  23850817.2124   23850818.5524   23850818.3804
       213.000         151.000
 109678607.96348  85463853.54448  20871143.9004   20871143.7044   20871144.3784
       231.000         191.000
 117437338.37948  91509623.63848  22347572.3824   22347573.7214   22347572.3774
       217.000         153.000
 121280984.61948  76712455.61348  21176068.2074   21176068.1234   21176068.7914
       236.000         189.000
 109939962.39448  85667501.89348  20920879.6524   20920879.7194   20920879.3234
       237.000         196.000
 119478995.13448 110892680.26948  24639069.8274   24639072.6914   24639070.3774
       209.000         139.000
 115083511.82148  89675462.31248  21899665.3674   21899665.9924   21899665.3234
       229.000         181.000
 135742434.08848  87981104.30548  23928000.1034   23928002.6934   23928000.7064
       212.000         142.000
 12  9 20  2  9 30.0000000  0 10G05G30G22G21G26G18G15G16G29G06
 133423284.19848 103966197.06148  25389605.3154   25389607.0474   25389605.2204
       210.000         132.000
 131178437.40048 102216941.78848  24962445.0924   24962449.6544   24962445.1424
       213.000         138.000
 125255204.42248  97601485.66048  23835249.8974   23835251.3234   23835250.8984
       215.000         150.000
 109645366.60948  85437951.20548  20864818.2514   20864817.9674   20864818.8164
       232.000         191.000
 117508241.50448  91564872.81248  22361064.9764   22361066.0094   22361064.9804
       217.000         154.000
 121244539.47648  76684056.82748  21169132.8224   21169132.8214   21169133.3834
       236.000         189.000
 109947579.62448  85673437.40048  20922329.3174   20922329.1574   20922329.0064
       237.000         195.000
 119500907.17848 110909754.54448  24643240.0064   24643241.3514   24643240.2254
       211.000         139.000
 115174437.68848  89746313.61348  21916967.8944   21916968.4764   21916967.6174
       228.000         180.000
 135660412.96948  87917191.82948  23912392.2014   23912394.6784   23912392.4744
       210.000         143.000
 12  9 20  2 10  0.0000000  0 10G05G30G22G21G26G18G15G16G29G06
 133518258.99848 104040203.45048  25407678.1464   25407677.8194   25407678.8594
       207.000         129.000
 131246217.62248 102269757.51348  24975343.0384   24975348.5804   24975343.3544
       213.000         139.000
 125173559.98348  97537866.68348  23819713.2234   23819714.3144   23819714.5274
       215.000         151.000
 109612359.03548  85412231.03148  20858537.1024   20858536.8084   20858537.6904
       232.000         191.000
 117579711.78948  91620563.90248  22374665.8274   22374666.9654   22374665.9114
       218.000         155.000
 121208374.38048  76655876.25648  21162250.7824   21162250.9014   21162251.4094
       235.000         189.000
 109955803.26448  85679845.44048  20923894.0634   20923893.9324   20923893.7694
       237.000         195.000
 119523301.37448 110927204.58548  24647502.8034   24647503.5304   24647501.9134
       210.000         138.000
 115265694.68748  89817422.92348  21934333.3264   21934334.2954   21934333.1644
       228.000         179.000
 135578703.31448  87853522.05648  23896843.1414   23896845.6234   23896843.1084
       213.000         144.000
 12  9 20  2 10 30.0000000  0 10G05G30G22G21G26G18G15G16G29G06
 133613178.16448 104114166.54348  25425740.6754   25425741.1044   25425740.3004
       201.000         127.000
 131314244.67048 102322765.58248  24988287.9274   24988291.6734   24988288.0564
       210.000         139.000
 125092078.91748  97474374.99048  23804208.1774   23804208.4834   23804209.0204
       215.000         151.000
 109579586.05948  85386693.66348  20852300.6704   20852300.2894   20852301.2044
       232.000         191.000
 117651746.46648  91676694.79548  22388374.0444   22388375.0554   22388374.0674
       219.000         156.000
 121172489.03648  76627913.67648  21155421.9094   21155422.0094   21155422.5314
       236.000         190.000
 109964633.16948  85686725.89648  20925574.2534   20925574.1584   20925573.9054
       237.000         195.000
 119546176.30948 110945029.18348  24651854.2384   24651855.5874   24651854.7194
       209.000         140.000
 115357280.53048  89888788.48448  21951761.7084   21951762.6014   21951761.4054
       227.000         180.000
 135497307.39748  87790096.72748  23881354.1764   23881357.5674   23881354.0314
       212.000         144.000
 12  9 20  2 11  0.0000000  0 10G05G30G22G21G26G18G15G16G29G06
 133708040.80848 104188085.57948  25443791.9804   25443792.2754   25443792.3384
       202.000         126.000
 131382515.79248 102375963.84048  25001278.2844   25001283.0184   25001279.6504
       208.000         136.000
 125010762.36648  97411011.50548  23788733.3344   23788735.1404   23788734.4104
       215.000         150.000
 109547049.67648  85361340.65248  20846109.2364   20846108.8404   20846109.7554
       233.000         192.000
 117724342.84148  91733263.35948  22402189.0034   22402189.8924   22402189.1134
       219.000         157.000
 121136882.98948  76600168.73248  21148646.3904   21148646.4844   21148647.0344
       236.000         190.000
 109974068.61448  85694078.19748  20927369.8704   20927369.6804   20927369.5854
       237.000         196.000
 119569530.22448 110963227.01948  24656297.6904   24656300.4744   24656298.7774
       212.000         140.000
 115449192.70648  89960408.32248  21969252.1294   21969252.9664   21969252.0814
       228.000         180.000
 135416227.61548  87726917.76548  23865924.8644   23865927.0714   23865924.9704
       213.000         144.000
 12  9 20  2 11 30.0000000  0 10G05G30G22G21G26G18G15G16G29G06
 133802846.43248 104261960.10748  25461833.0724   25461836.4184   25461833.4224
       205.000         127.000
 131451027.72748 102429349.72248  25014317.5814   25014320.3824   25014317.2124
       203.000         133.000
 124929610.51848  97347776.36648  23773290.8874   23773292.2264   23773291.4734
       213.000         150.000
 109514751.01748  85336172.88148  20839963.0524   20839962.5894   20839963.6504
       233.000         191.000
 117797498.11848  91790267.44548  22416109.6464   22416111.1084   22416109.7344
       218.000         157.000
 121101555.89248  76572641.14748  21141923.8564   21141923.9734   21141924.4944
       236.000         190.000
 109984109.23148  85701902.06248  20929280.5284   20929280.3874   20929280.1604
       237.000         196.000
 119593361.87548 110981797.12148  24660833.1864   24660836.3674   24660833.4544
       209.000         140.000
 115541428.93348  90032280.67148  21986804.4814   21986805.1054   21986804.4024
       228.000         180.000
 135335466.34348  87663986.97948  23850556.0444   23850559.3944   23850556.4444
       213.000         144.000
 12  9 20  2 12  0.0000000  0 10G05G30G22G21G26G18G15G16G29G06
 133897594.16948 104335789.54048  25479862.7594   25479864.2164   25479864.1384
       198.000         128.000
 131519777.12248 102482920.63248  25027399.2204   25027404.0634   25027399.7664
       202.000         131.000
 124848623.96348  97284670.03248  23757879.7414   23757880.4184   23757880.4474
       215.000         150.000
 109482691.33948  85311191.33048  20833862.3624   20833861.8194   20833862.8484
       233.000         191.000
 117871209.54048  91847704.88648  22430136.4654   22430138.1094   22430136.5754
       218.000         157.000
 121066507.50748  76545330.74148  21135254.4644   21135254.3894   21135255.0334
       236.000         190.000
 109994754.40548  85710197.00648  20931306.1714   20931306.1104   20931305.8954
       237.000         196.000
 119617669.23948 111000737.91548  24665459.2124   24665461.7054   24665459.0714
       209.000         141.000
 115633987.25248  90104403.99948  22004417.7324   22004418.2074   22004417.6474
       228.000         180.000
 135255025.83648  87601306.15448  23835248.9584   23835251.6324   23835248.9164
       213.000         145.000
 12  9 20  2 12 30.0000000  0  9G30G22G21G26G18G15G16G29G06
 131588761.32948 102536674.58348  25040526.3454   25040532.1354   25040526.3514
       200.000         132.000
 124767803.12048  97221692.81748  23742499.5784   23742500.8904   23742500.9434
       214.000         150.000
 109450872.53348  85286397.47248  20827807.3534   20827806.7044   20827807.8894
       232.000         192.000
 117945474.32648  91905573.51548  22444268.6374   22444270.2234   22444268.7134
       218.000         156.000
 121031738.25348  76518237.84548  21128638.1054   21128638.0064   21128638.5884
       236.000         190.000
 110006003.44648  85718962.49348  20933446.8034   20933446.8064   20933446.5684
       238.000         196.000
 119642450.87248 111020048.24248  24670175.1234   24670177.4374   24670175.3964
       209.000         142.000
 115726864.50348  90176775.84248  22022091.5254   22022092.2394   22022091.4674
       228.000         180.000
 135174908.42248  87538877.06948  23820002.7844   23820005.7804   23820003.4014
       213.000         146.000
 12  9 20  2 13  0.0000000  0  9G30G22G21G26G18G15G16G29G06
 131657976.74148 102590608.62648  25053699.8074   25053702.5894   25053697.9184
       200.000         131.000
 124687148.07648  97158844.79048  23727151.8284   23727153.0244   23727153.0004
       214.000         151.000
 109419295.21548  85261791.78848  20821798.4394   20821797.8504   20821799.0374
       233.000         192.000
 118020289.73348  91963871.22048  22458505.4884   22458506.9634   22458505.5334
       217.000         153.000
 120997246.66948  76491361.30848  21122074.5854   21122074.3394   21122075.2094
       237.000         190.000
 110017855.84748  85728198.13248  20935702.2494   20935702.2064   20935702.0004
       237.000         195.000
 119667705.03948 111039726.80248  24674980.2174   24674983.4314   24674981.1304
       211.000         142.000
 115820058.81448  90249394.76348  22039825.7184   22039826.4544   22039825.6244
       228.000         178.000
 135095116.44248  87476701.57548  23804819.2684   23804821.8104   23804819.4704
       213.000         144.000
 12  9 20  2 13 30.0000000  0  9G30G22G21G26G18G15G16G29G06
 131727420.45748 102644720.60648  25066912.1934   25066916.6024   25066912.9674
       199.000         131.000
 124606659.65448  97096126.61448  23711835.2294   23711836.3944   23711835.9504
       214.000         151.000
 109387961.44148  85237375.87948  20815835.7624   20815835.2544   20815836.3354
       233.000         192.000
 118095652.82748  92022595.68148  22472846.2864   22472848.5014   22472846.4134
       217.000         155.000
 120963032.84448  76464701.21348  21115563.8964   21115563.6494   21115564.3804
       237.000         190.000
 110030311.08948  85737903.52048  20938072.4554   20938072.2344   20938072.1854
       237.000         195.000
 119693430.31448 111059772.44048  24679876.2784   24679878.4944   24679876.3404
       211.000         141.000
 115913567.42648  90322258.58148  22057619.8704   22057620.5604   22057619.7614
       228.000         179.000
 135015652.33748  87414781.56048  23789697.8054   23789700.3344   23789698.1374
       215.000         147.000
 12  9 20  2 14  0.0000000  0  9G30G22G21G26G18G15G16G29G06
 131797089.13048 102699007.90048  25080170.5464   25080175.2184   25080170.7064
       199.000         129.000
 124526338.16248  97033538.49448  23696550.4144   23696551.6604   23696551.2774
       216.000         153.000
 109356872.11348  85213150.45248  20809919.6054   20809919.1614   20809920.0914
       233.000         192.000
 118171560.84448  92081744.76548  22487290.9294   22487293.1174   22487290.9284
       216.000         155.000
 120929096.80748  76438257.57648  21109105.9744   21109105.8484   21109106.6124
       237.000         191.000
 110043368.30348  85748077.97648  20940557.0954   20940556.8884   20940556.8524
       237.000         195.000
 119719624.90048 111080183.78548  24684861.7174   24684863.3854   24684861.2164
       209.000         140.000
 116007388.10748  90395365.57148  22075473.4814   22075474.1034   22075473.3394
       228.000         179.000
 134936518.17848  87353118.66448  23774638.6354   23774641.0944   23774639.5464
       213.000         146.000
 12  9 20  2 14 30.0000000  0  9G30G22G21G26G18G15G16G29G06
 131866979.98248 102753468.30848  25093470.4064   25093475.9664   25093470.4134
       196.000         130.000
 124446184.09448  96971080.83848  23681297.6114   23681298.6634   23681298.3794
       214.000         151.000
 109326028.98148  85189116.85848  20804050.4324   20804049.8784   20804050.8534
       232.000         192.000
 118248010.90948  92141316.20748  22501838.6984   22501840.8474   22501838.8284
       214.000         154.000
 120895438.23648  76412030.14448  21102701.0814   21102700.7984   21102701.7034
       236.000         191.000
 110057026.83548  85758720.99548  20943156.1474   20943156.0974   20943155.9874
       237.000         195.000
 119746286.96648 111100959.40148  24689934.1714   24689937.5284   24689934.8844
       209.000         141.000
 116101518.86148  90468714.18148  22093385.8784   22093386.6704   22093385.8864
       228.000         177.000
 134857716.38748  87291714.76848  23759643.4514   23759646.8104   23759643.8714
       213.000         148.000
 12  9 20  2 15  0.0000000  0  9G30G22G21G26G18G15G16G29G06
 131937089.50448 102808099.07348  25106811.8564   25106816.6224   25106811.6914
       193.000         131.000
 124366197.81448  96908753.91348  23666077.2694   23666078.2034   23666077.7404
       214.000         153.000
 109295432.93648  85165275.80348  20798228.0564   20798227.6684   20798228.6344
       232.000         192.000
 118325000.20848  92201307.83948  22516489.4994   22516491.2394   22516489.4824
       215.000         153.000
 120862056.15848  76386018.16848  21096348.5794   21096348.3444   21096349.1264
       237.000         191.000
 110071286.15848  85769832.16248  20945869.7474   20945869.7094   20945869.4504
       237.000         196.000
 119773415.01148 111122098.11948  24695096.5724   24695099.7334   24695096.5334
       211.000         142.000
 116195956.83748  90542302.17748  22111356.8634   22111357.5654   22111356.8084
       228.000         177.000
 134779249.18848  87230571.60048  23744711.7694   23744714.8714   23744712.0774
       212.000         147.000
 12  9 20  2 15 30.0000000  0  9G30G22G21G26G18G15G16G29G06
 132007414.74148 102862897.90248  25120193.4644   25120196.3444   25120194.5284
       192.000         130.000
 124286379.97148  96846558.27648  23650887.9454   23650889.1624   23650889.0434
       214.000         154.000
 109265085.98148  85141628.84248  20792453.1404   20792452.8544   20792453.6584
       232.000         192.000
 118402525.78648  92261717.35248  22531242.4934   22531244.2004   22531242.4524
       216.000         152.000
 120828950.51848  76360221.59548  21090048.7274   21090048.5804   21090049.2544
       237.000         191.000
 110086145.44548  85781410.83348  20948697.1714   20948697.2334   20948696.9184
       237.000         195.000
 119801007.17648 111143598.48248  24700347.1124   24700349.8454   24700347.1894
       211.000         139.000
 116290699.48948  90616127.59048  22129385.7914   22129386.4034   22129385.6984
       227.000         176.000
 134701118.96048  87169691.01248  23729844.2944   23729846.2464   23729844.2634
       213.000         147.000
 12  9 20  2 16  0.0000000  0  9G30G22G21G26G18G15G16G29G06
 132077952.38748 102917862.29748  25133618.2764   25133620.6534   25133618.0354
       188.000         129.000
 124206730.95648  96784494.18648  23635731.4134   23635732.4124   23635731.9444
       215.000         153.000
 109234989.04248  85118176.70048  20786725.8624   20786725.5104   20786726.3084
       232.000         192.000
 118480584.76348  92322542.49748  22546096.7624   22546097.8064   22546096.8114
       216.000         153.000
 120796121.37848  76334640.48248  21083801.5824   21083801.3824   21083802.1134
       238.000         192.000
 110101603.85348  85793456.35048  20951638.8544   20951638.9204   20951638.5604
       238.000         196.000
 119829061.46848 111165458.93448  24705685.3384   24705688.3024   24705686.9064
       212.000         140.000
 116385744.57248  90690188.66048  22147472.5214   22147472.9784   22147472.4804
       227.000         176.000
 134623327.97948  87109074.78248  23715040.8734   23715043.9674   23715041.0474
       212.000         146.000
 12  9 20  2 16 30.0000000  0  9G30G22G21G26G18G15G16G29G06
 132148699.35448 102972989.76148  25147079.8894   25147085.5854   25147080.3404
       185.000         126.000
 124127250.78848  96722561.64448  23620606.5994   23620607.9394   23620607.3564
       215.000         154.000
 109205143.85448  85094920.73048  20781046.4554   20781046.1594   20781046.9864
       232.000         192.000
 118559174.32548  92383781.09148  22561052.1714   22561053.1484   22561052.1794
       217.000         153.000
 120763568.18548  76309274.38348  21077607.1044   21077606.6574   21077607.5794
       237.000         192.000
 110117660.75848  85805968.23148  20954694.4914   20954694.4524   20954694.2474
       238.000         195.000
 119857576.36448 111187678.29948  24711111.9734   24711114.1104   24711113.1734
       206.000         138.000
 116481089.58448  90764483.44148  22165616.1914   22165616.4944   22165616.0884
       226.000         175.000
 134545878.52248  87048724.66848  23700302.3074   23700305.1934   23700302.5814
       211.000         148.000
