     2.10           OBSERVATION DATA    G (GPS)             RINEX VERSION / TYPE
teqc  2000Feb29     CORS/NGS/NOAA       20000919 00:43:44UTCPGM / RUN BY / DATE
HP-UX 10.20|PA-RISC|cc A.10.32.03|=+|=|                     COMMENT
BIT 2 OF LLI FLAGS DATA COLLECTED UNDER A/S CONDITION       COMMENT
ppt1                                                        MARKER NAME
xxx                                                         MARKER NUMBER
CORS/NGS/NOAA       U.S. Coast Guard                        OBSERVER / AGENCY
05402               ASHTECH   Z-XII3    RD00                REC # / TYPE / VERS
11092               ASH700829.3                             ANT # / TYPE
 -2725252.3706 -4295978.5064  3833958.9487                  APPROX POSITION XYZ 
        0.0000        0.0000        0.0000                  ANTENNA: DELTA H/E/N
     1     1                                                WAVELENGTH FACT L1/2
     7    C1    L1    L2    P1    P2    D1    D2            # / TYPES OF OBSERV
    30.0000                                                 INTERVAL
 SNR is mapped to RINEX snr flag value [1-9]                COMMENT
  L1: 1 -> 1;  90 -> 5; 210 -> 9                            COMMENT
  L2: 1 -> 1; 150 -> 5; 250 -> 9                            COMMENT
teqc windowed: delta = 86400.000 sec                        COMMENT
  2000     9    18     0     0   30.0000000     GPS         TIME OF FIRST OBS
                                                            END OF HEADER
 00  9 18  0  0 30.0000000  0  9G 3G31G20G13G27G19G 1G22G28
  23804540.6804   -8548223.04647  -6619809.80145  23804538.0554   23804556.0604
      2388.2524       1860.9724
  24127890.6234   -3735494.50347  -1187440.96545  24127887.3624   24127907.3874
      3899.1324       3038.2644
  23529622.9154  -32122672.61447 -24462052.97945  23529620.1784   23529642.5904
     -2686.0074      -2092.9754
  21222995.3264  -34090332.77448 -26025432.72947  21222993.2024   21223004.4594
      2671.6464       2081.7964
  21717923.7924  -30665782.93448 -22683939.01747  21717921.1754   21717935.3944
      2499.2994       1947.5014
  20548748.8714  -39897621.56748 -30092114.23847  20548746.5304   20548758.7104
      1131.7684        881.8974
  20791664.0704  -42872177.31949 -33102686.88647  20791661.3734   20791673.7564
        73.2564         57.0834
  23506442.9414  -15757987.28547 -11952595.34145  23506439.9744   23506456.1344
     -2425.4054      -1889.9134
  21289800.9734  -30377464.78949 -23647901.32147  21289798.0664   21289809.4174
      -317.1064       -247.0974
 00  9 18  0  1  0.0000000  0  9G 3G31G20G13G27G19G 1G22G28
  23790961.2894   -8619575.44347  -6675408.95345  23790959.6584   23790977.5304
      2375.7004       1851.1844
  24105656.5554   -3852324.10246  -1278476.57845  24105653.3404   24105674.6134
      3896.6754       3036.3524
  23544987.1464  -32041935.39847 -24399141.34445  23544984.5454   23545007.2694
     -2689.2524      -2095.5064
  21207787.7664  -34170250.94448 -26087706.61047  21207785.4604   21207796.8844
      2663.4644       2075.4254
  21703691.6384  -30740572.23148 -22742216.28647  21703689.2734   21703703.0744
      2493.8514       1943.2574
  20542329.8864  -39931354.65748 -30118399.75347  20542327.4334   20542339.6404
      1124.2924        876.0704
  20791297.8834  -42874101.31049 -33104186.11447  20791295.2504   20791307.6754
        62.1844         48.4554
  23520329.4674  -15685011.34547 -11895730.11845  23520326.3934   23520339.5004
     -2432.5534      -1895.5244
  21291676.5674  -30367606.32349 -23640219.46747  21291673.9424   21291685.5374
      -332.9574       -259.4434
 00  9 18  0  1 30.0000000  0  9G 3G31G20G13G27G19G 1G22G28
  23777452.4924   -8690573.37147  -6730731.90945  23777449.4424   23777466.9044
      2358.1764       1837.5424
  24083434.8634   -3969102.30546  -1369472.16945  24083432.4864   24083453.6734
      3889.2744       3030.5804
  23560365.3224  -31961127.51147 -24336174.63545  23560361.7264   23560384.5634
     -2697.2394      -2101.7324
  21192621.4684  -34249947.69548 -26149807.87647  21192619.4144   21192630.7414
      2650.3584       2065.2114
  21689486.7144  -30815222.34448 -22800385.09647  21689484.0014   21689497.8594
      2483.5504       1935.2314
  20535948.4524  -39964888.92048 -30144530.32447  20535945.9734   20535958.3394
      1112.0044        866.4964
  20790990.5684  -42875716.76549 -33105444.90247  20790988.0534   20791000.2004
        46.2264         36.0214
  23534250.2384  -15611850.09147 -11838720.80845  23534247.5044   23534263.4104
     -2444.2994      -1904.6544
  21293639.1414  -30357295.52749 -23632185.12547  21293636.4024   21293647.4404
      -353.7214       -275.6284
 00  9 18  0  2  0.0000000  0  9G 3G31G20G13G27G19G 1G22G28
  23764037.7714   -8761065.21947  -6785660.48745  23764034.5294   23764052.7784
      2339.3104       1822.8334
  24061250.6494   -4085676.58746  -1460308.88245  24061247.9974   24061270.2514
      3880.4454       3023.7214
  23575784.0734  -31880102.42247 -24273038.65845  23575781.2884   23575804.0464
     -2706.3594      -2108.8284
  21177526.5914  -34329271.70248 -26211618.71847  21177524.4514   21177536.2754
      2635.9334       2053.9714
  21675335.4864  -30889584.24748 -22858329.33647  21675333.1144   21675347.1864
      2471.9834       1926.2164
  20529633.3874  -39998075.41848 -30170389.92147  20529630.7554   20529642.9664
      1098.4434        855.9294
  20790770.5934  -42876874.07449 -33106346.70447  20790767.8574   20790779.8494
        28.9364         22.5474
  23548235.7704  -15538355.52947 -11781451.74845  23548232.1924   23548246.0274
     -2457.3434      -1914.8414
  21295715.4264  -30346384.91949 -23623683.35847  21295712.5844   21295723.8284
      -375.6744       -292.7334
 00  9 18  0  2 30.0000000  0  9G 3G31G20G13G27G19G 1G22G28
  23750712.4434   -8831086.42947  -6840222.30245  23750709.7424   23750728.0514
      2330.6894       1816.1154
  24039099.5604   -4202081.27347  -1551013.46545  24039096.6094   24039117.3664
      3881.8384       3024.7914
  23591236.3964  -31798900.43847 -24209764.85045  23591232.3994   23591255.7634
     -2705.1024      -2107.8544
  21162495.8734  -34408258.92848 -26273167.13747  21162493.7124   21162505.3924
      2631.8204       2050.7664
  21661231.7074  -30963695.91848 -22916078.60147  21661229.4374   21661244.1584
      2470.7544       1925.2594
  20523376.4784  -40030952.61248 -30196008.51247  20523374.3314   20523386.5064
      1095.2684        853.4554
  20790630.1554  -42877610.19049 -33106920.30647  20790627.6104   20790639.9154
        22.0434         17.1764
  23562276.3804  -15464568.73247 -11723954.94845  23562273.2874   23562288.6044
     -2459.8994      -1916.8134
  21297898.0334  -30334913.77849 -23614744.84047  21297895.3224   21297906.8274
      -387.1344       -301.6624
 00  9 18  0  3  0.0000000  0  9G 3G31G20G13G27G19G 1G22G28
  23737451.8504   -8900776.84947  -6894526.36845  23737448.7154   23737467.1334
      2318.1384       1806.3344
  24016954.0284   -4318455.13347  -1641694.04345  24016951.8194   24016974.7754
      3879.2834       3022.8054
  23606694.7974  -31717666.48147 -24146466.09245  23606691.6654   23606715.4524
     -2707.6194      -2109.8254
  21147502.5604  -34487049.16148 -26334562.04647  21147500.5654   21147512.1204
      2623.7264       2044.4614
  21647149.9934  -31037699.36548 -22973743.53847  21647147.4184   21647161.5794
      2465.6814       1921.3084
  20517152.1864  -40063663.05948 -30221497.15447  20517149.7254   20517162.5234
      1088.2774        848.0094
  20790543.4254  -42878066.82949 -33107276.14247  20790540.8304   20790553.0554
        11.2714          8.7844
  23576345.0614  -15390634.05947 -11666343.07045  23576342.3324   23576356.6644
     -2466.2744      -1921.7864
  21300160.3624  -30323026.09449 -23605481.78147  21300157.8674   21300169.1714
      -402.4914       -313.6264
 00  9 18  0  3 30.0000000  0  9G 3G31G20G13G27G19G 1G22G28
  23724262.2844   -8970085.29747  -6948532.77945  23724259.9334   23724277.2824
      2306.3904       1797.1774
  23994823.8004   -4434746.24647  -1732310.15045  23994822.4534   23994843.7064
      3877.5194       3021.4324
  23622168.3874  -31636354.65547 -24083106.65345  23622165.8024   23622188.9414
     -2709.1294      -2110.9944
  21132556.1644  -34565592.78049 -26395764.80347  21132554.0664   21132565.5404
      2616.5204       2038.8454
  21633097.5314  -31111545.77048 -23031286.10647  21633095.0914   21633108.8854
      2461.4664       1918.0254
  20510968.9134  -40096158.17648 -30246818.03247  20510966.3864   20510978.9784
      1082.1024        843.1984
  20790519.4334  -42878194.70349 -33107375.80747  20790516.8754   20790528.5294
         1.3084          1.0204
  23590451.1594  -15316506.45147 -11608580.94945  23590448.3774   23590462.6014
     -2471.5004      -1925.8554
  21302510.7254  -30310674.70449 -23595857.35847  21302508.1144   21302519.5994
      -416.9284       -324.8774
 00  9 18  0  4  0.0000000  0  9G 3G31G20G13G27G19G 1G22G28
  23711159.5244   -9038944.70247  -7002189.27845  23711156.2024   23711173.4064
      2289.7244       1784.1934
  23972724.9064   -4550886.57047  -1822808.79045  23972720.7874   23972741.3684
      3870.7084       3016.1204
  23637667.9984  -31554902.97647 -24019638.23745  23637665.6354   23637688.4564
     -2715.4794      -2115.9534
  21117669.7174  -34643822.59049 -26456723.04447  21117667.6584   21117678.9794
      2604.3314       2029.3464
  21619086.7254  -31185170.75448 -23088656.14247  21619084.5834   21619098.3524
      2452.3944       1910.9534
  20504838.3434  -40128373.66849 -30271921.03847  20504835.8684   20504848.6574
      1071.1174        834.6384
  20790569.8994  -42877928.69149 -33107168.56947  20790567.2384   20790579.1144
       -13.5044        -10.5204
  23604606.0144  -15242122.96347 -11550619.16345  23604602.4414   23604615.8914
     -2481.6914      -1933.8044
  21304961.6144  -30297796.45749 -23585822.41647  21304958.8104   21304970.2574
      -436.1174       -339.8274
 00  9 18  0  4 30.0000000  0  9G 3G31G20G13G27G19G 1G22G28
  23698139.1814   -9107364.11447  -7055502.90945  23698136.1964   23698153.8044
      2273.3514       1771.4364
  23950649.6134   -4666884.22847  -1913196.26945  23950647.3124   23950668.4514
      3864.1214       3010.9854
  23653191.4314  -31473325.58447 -23956071.86145  23653189.1324   23653212.9654
     -2721.3874      -2120.5454
  21102840.7014  -34721748.87749 -26517444.77847  21102838.5984   21102849.9664
      2592.4264       2020.0724
  21605116.6944  -31258585.86348 -23145862.64047  21605114.3184   21605127.9034
      2443.6514       1904.1424
  20498758.9164  -40160321.47649 -30296815.46647  20498756.5364   20498768.9284
      1060.4204        826.3014
  20790693.2684  -42877279.68949 -33106662.90647  20790690.6124   20790702.6654
       -28.0624        -21.8624
  23618806.4324  -15167498.78447 -11492470.04845  23618803.0184   23618817.0284
     -2491.6314      -1941.5394
  21307509.8214  -30284404.74949 -23575387.43547  21307507.4184   21307518.5414
      -454.9444       -354.4984
 00  9 18  0  5  0.0000000  0  9G 3G31G20G13G27G19G 1G22G28
  23685196.7754   -9175368.90247  -7108493.46845  23685194.8334   23685212.5804
      2263.6234       1763.8554
  23928598.4784   -4782763.61747  -2003491.59945  23928596.0484   23928616.3054
      3864.3844       3011.1934
  23668733.3154  -31391653.04647 -23892431.34245  23668731.0024   23668755.0964
     -2720.2624      -2119.6714
  21088064.7054  -34799396.98849 -26577949.74647  21088062.6204   21088073.9014
      2587.3744       2016.1344
  21591180.8114  -31331818.87248 -23202927.24047  21591178.1984   21591192.3114
      2441.8474       1902.7364
  20492725.2174  -40192029.28348 -30321522.81847  20492722.5844   20492735.0544
      1056.6854        823.3904
  20790884.1354  -42876274.82149 -33105879.93747  20790881.8374   20790894.2034
       -35.6684        -27.7934
  23633046.1504  -15092663.44147 -11434156.40145  23633043.3054   23633057.0744
     -2494.2944      -1943.6014
  21310150.6744  -30270528.90349 -23564575.21647  21310147.8824   21310159.2284
      -466.8284       -363.7594
 00  9 18  0  5 29.9990000  0  9G 3G31G20G13G27G19G 1G22G28
  23672322.8894   -9243024.72247  -7161212.08845  23672320.2354   23672337.9224
      2246.4534       1750.4734
  23906556.7014   -4898587.76847  -2093743.90445  23906554.4464   23906575.3144
      3857.0624       3005.4944
  23684279.3954  -31309960.61447 -23828775.33045  23684277.2554   23684301.4284
     -2726.5224      -2124.5584
  21073329.0794  -34876833.01149 -26638289.44747  21073326.7894   21073338.6244
      2574.7644       2006.3084
  21577266.5364  -31404937.47848 -23259902.69247  21577264.0764   21577278.5414
      2432.4754       1895.4324
  20486723.1204  -40223566.93048 -30346097.57947  20486720.7954   20486733.4804
      1045.4374        814.6234
  20791130.1954  -42874983.50149 -33104873.72647  20791127.5684   20791139.8654
       -50.8614        -39.6314
  23647312.1624  -15017692.13347 -11375736.80445  23647309.7094   23647323.1744
     -2504.4664      -1951.5414
  21312869.5414  -30256241.05749 -23553441.93847  21312866.9354   21312878.4064
      -486.2064       -378.8584
 00  9 18  0  5 59.9990000  0  9G 3G31G20G13G27G19G 1G22G28
  23659544.1574   -9310173.46047  -7213535.58745  23659541.5394   23659559.3234
      2232.9694       1739.9754
  23884557.0294   -5014200.52047  -2183831.47345  23884555.2734   23884574.7624
      3853.3484       3002.5904
  23699860.2404  -31228085.16347 -23764976.70345  23699858.0554   23699881.8914
     -2728.9664      -2126.4544
  21058663.7304  -34953899.40249 -26698341.15447  21058661.7674   21058673.5014
      2565.8744       1999.3804
  21563403.5494  -31477786.25848 -23316667.89847  21563401.1414   21563415.7024
      2426.9594       1891.1334
  20480784.5324  -40254776.50548 -30370416.70947  20480782.0954   20480794.6664
      1038.0204        808.8474
  20791461.4154  -42873244.82249 -33103518.98147  20791458.7004   20791470.6044
       -62.2194        -48.4804
  23661635.3624  -14942422.92147 -11317084.96945  23661632.4364   23661645.6594
     -2510.7164      -1956.4154
  21315697.1494  -30241381.78349 -23541863.41047  21315694.4924   21315706.1004
      -501.6174       -390.8654
 00  9 18  0  6 29.9990000  0  9G 3G31G20G13G27G19G 1G22G28
  23646837.5804   -9376951.64847  -7265570.33945  23646834.5124   23646851.8304
      2222.8974       1732.1244
  23862570.9304   -5129736.00147  -2273858.83345  23862568.2214   23862589.6954
      3853.0224       3002.3464
  23715448.3214  -31146173.60747 -23701149.96545  23715445.8794   23715469.1534
     -2727.7814      -2125.5294
  21044042.8544  -35030733.38349 -26758211.72947  21044040.7574   21044052.2684
      2560.3834       1995.1034
  21549565.8504  -31550503.94148 -23373330.94447  21549563.5434   21549577.9864
      2424.8814       1889.5144
  20474881.5954  -40285798.23448 -30394589.46247  20474878.9844   20474891.3474
      1034.0764        805.7754
  20791850.4564  -42871199.43649 -33101925.23247  20791847.8254   20791859.7164
       -70.1334        -54.6474
  23675987.2924  -14867002.20047 -11258315.24845  23675984.2954   23675997.5484
     -2513.3694      -1958.4824
  21318606.4094  -30226094.36449 -23529951.30547  21318603.8204   21318615.4754
      -513.5744       -400.1814
 00  9 18  0  6 59.9990000  0  9G 3G31G20G13G27G19G 1G22G28
  23634207.8334   -9443317.69447  -7317283.87845  23634205.2974   23634222.5444
      2203.6014       1717.0814
  23840608.2674   -5245151.01147  -2363792.26645  23840605.7644   23840626.0914
      3843.4434       2994.8794
  23731050.6034  -31064188.70047 -23637266.04145  23731047.6134   23731071.5274
     -2735.7244      -2131.7114
  21029473.6504  -35107293.37449 -26817868.80347  21029471.6664   21029482.9884
      2545.6924       1983.6534
  21535761.3384  -31623050.95848 -23429861.00447  21535758.8824   21535772.4614
      2413.6814       1880.7884
  20469021.6064  -40316592.88048 -30418585.28047  20469019.0004   20469030.9714
      1020.9854        795.5694
  20792305.0794  -42868807.37649 -33100061.34047  20792302.8204   20792315.3094
       -87.2204        -67.9614
  23690375.2164  -14791392.19547 -11199397.90545  23690372.0414   23690384.2814
     -2525.1994      -1967.7134
  21321604.0934  -30210340.87849 -23517675.99947  21321601.5474   21321613.4064
      -534.5894       -416.5594
 00  9 18  0  7 29.9990000  0  9G 3G31G20G13G27G19G 1G22G28
  23621664.7684   -9509227.25647  -7368641.74545  23621662.7164   23621680.0704
      2187.2734       1704.3604
  23818676.1044   -5360400.23447  -2453596.50745  23818673.4644   23818694.3724
      3836.7374       2989.6514
  23746673.3094  -30982091.26547 -23573294.45245  23746669.6454   23746693.9814
     -2740.5864      -2135.5104
  21014965.4214  -35183535.34049 -26877278.06347  21014963.1724   21014974.6944
      2534.0094       1974.5484
  21521995.9324  -31695385.62248 -23486225.58747  21521993.5964   21522007.2484
      2405.5284       1874.4364
  20463212.1434  -40347119.26648 -30442371.99947  20463209.7014   20463222.1454
      1010.9564        787.7564
  20792834.6494  -42866026.24149 -33097894.28847  20792832.1574   20792844.6584
      -101.3044        -78.9374
  23704806.0414  -14715554.17847 -11140303.02545  23704803.2164   23704816.3144
     -2533.8874      -1974.4704
  21324698.5684  -30194081.41849 -23505006.45147  21324695.7774   21324707.3394
      -552.5144       -430.5264
 00  9 18  0  7 59.9990000  0  9G 3G31G20G13G27G19G 1G22G28
  23609205.9624   -9574700.83447  -7419659.85045  23609202.9914   23609220.9624
      2176.6794       1696.1014
  23796772.3444   -5475503.08847  -2543286.71545  23796770.0814   23796791.3864
      3835.8124       2988.9334
  23762312.6044  -30899906.84847 -23509255.08045  23762310.7434   23762333.7024
     -2739.3164      -2134.5234
  21000513.2434  -35259480.57949 -26936456.09247  21000511.0884   21000522.8694
      2528.1104       1969.9534
  21508266.9064  -31767530.61048 -23542442.37247  21508264.4754   21508278.3154
      2403.2144       1872.6314
  20457449.7434  -40377400.24448 -30465967.52447  20457447.3584   20457459.9284
      1006.8274        784.5404
  20793434.2854  -42862878.31649 -33095441.41147  20793431.4344   20793443.7704
      -109.4964        -85.3204
  23719275.6274  -14639513.23147 -11081049.80945  23719273.0684   23719285.4224
     -2536.4974      -1976.5074
  21327884.1614  -30177340.34349 -23491961.56447  21327881.5004   21327893.3114
      -564.5074       -439.8734
 00  9 18  0  8 29.9990000  0  9G 3G31G20G13G27G19G 1G22G28
  23596818.5994   -9639790.65047  -7470378.94445  23596816.8204   23596834.3444
      2161.1494       1683.9984
  23774888.7384   -5590510.68447  -2632902.69345  23774886.0994   23774905.6044
      3829.8764       2984.3084
  23777958.0914  -30817692.52647 -23445192.41545  23777955.8814   23777979.7004
     -2743.0544      -2137.4264
  20986107.8964  -35335181.42349 -26995443.66747  20986105.8584   20986117.4074
      2517.1704       1961.4304
  21494564.1594  -31839540.17848 -23598553.64847  21494561.5894   21494575.5694
      2395.9544       1866.9764
  20451723.9404  -40407490.33348 -30489414.31947  20451721.3844   20451733.8754
       997.7294        777.4494
  20794092.4334  -42859417.36049 -33092744.61747  20794089.6354   20794102.1944
      -122.6514        -95.5714
  23733772.5454  -14563327.02847 -11021683.52645  23733770.0704   23733782.8804
     -2544.0904      -1982.4364
  21331150.9064  -30160173.70549 -23478585.05847  21331148.5414   21331160.2664
      -581.3864       -453.0264
 00  9 18  0  8 59.9990000  0  9G 3G31G20G13G27G19G 1G22G28
  23584529.1994   -9704378.06647  -7520706.52845  23584526.2014   23584543.4404
      2151.0414       1676.1274
  23753043.3504   -5705303.20047  -2722351.10445  23753039.8344   23753060.0134
      3829.3554       2983.8984
  23793631.2154  -30735334.55647 -23381017.83845  23793627.9784   23793651.7334
     -2741.0374      -2135.8654
  20971772.0334  -35410519.21449 -27054148.35247  20971769.6644   20971780.6514
      2511.7274       1957.1864
  21480908.4474  -31911298.15748 -23654468.88347  21480906.1244   21480920.6124
      2394.2314       1865.6324
  20446055.9604  -40437273.61148 -30512622.02447  20446053.6804   20446066.6404
       994.1664        774.6744
  20794832.6704  -42855526.63349 -33089712.96247  20794830.0734   20794842.7884
      -130.3554       -101.5714
  23748319.5254  -14486881.79947 -10962115.25345  23748316.7274   23748329.6804
     -2545.9884      -1983.8994
  21334520.6344  -30142467.14349 -23464787.82647  21334518.0794   21334529.7204
      -592.7094       -461.8484
 00  9 18  0  9 29.9990000  0  9G 3G31G20G13G27G19G 1G22G28
  23572318.9904   -9768534.70447  -7570698.47045  23572317.1634   23572334.3084
      2131.2964       1660.7384
  23731225.1174   -5819950.77647  -2811686.56345  23731222.5254   23731244.0344
      3819.0674       2975.8964
  23809316.0174  -30652909.15947 -23316790.70045  23809312.0274   23809336.2784
     -2748.7064      -2141.8324
  20957490.4644  -35485566.67449 -27112626.79147  20957488.3524   20957499.5874
      2496.6274       1945.4214
  21467287.4054  -31982878.14448 -23710245.42947  21467284.8544   21467299.1464
      2382.9644       1856.8524
  20440433.4024  -40466823.92149 -30535648.21947  20440430.8774   20440443.3794
       981.0514        764.4544
  20795641.0814  -42851279.12249 -33086403.30147  20795638.5694   20795651.1774
      -147.6014       -115.0104
  23762901.1904  -14410252.74147 -10902403.73045  23762898.3454   23762910.0634
     -2557.4654      -1992.8674
  21337978.6804  -30124295.78549 -23450628.41747  21337976.0564   21337987.7404
      -613.5134       -478.0624
 00  9 18  0  9 59.9990000  0  9G 3G31G20G13G27G19G 1G22G28
  23560203.1644   -9832210.01047  -7620315.36645  23560200.4654   23560217.3684
      2113.9904       1647.2614
  23709446.4064   -5934402.22947  -2900869.24445  23709443.7274   23709464.4944
      3811.3924       2969.9134
  23825022.2134  -30570370.85647 -23252475.61545  23825019.4994   23825043.5454
     -2753.5904      -2145.6424
  20943273.7604  -35560273.39049 -27170839.71847  20943271.7924   20943283.6724
      2484.0354       1935.6084
  21453709.4074  -32054232.05348 -23765845.80947  21453706.8124   21453721.0864
      2374.1914       1850.0164
  20434863.2204  -40496093.73349 -30558455.85647  20434860.8554   20434873.2964
       970.4844        756.2234
  20796526.6504  -42846626.41049 -33082777.89847  20796524.0284   20796536.4084
      -162.3194       -126.4804
  23777526.4124  -14333394.58147 -10842513.32845  23777523.7034   23777535.7504
     -2566.3384      -1999.7774
  21341533.8424  -30105613.23149 -23436070.54147  21341531.1614   21341542.5804
      -631.7364       -492.2634
 00  9 18  0 10 29.9990000  0  9G 3G31G20G13G27G19G 1G22G28
  23548160.7544   -9895486.95947  -7669621.84345  23548158.8594   23548175.8754
      2105.0614       1640.3004
  23687689.9664   -6048739.01847  -2989962.55845  23687687.9494   23687705.7274
      3811.7934       2970.2274
  23840734.4194  -30487807.28647 -23188140.84645  23840730.5934   23840756.4124
     -2750.0594      -2142.8934
  20929106.4594  -35634722.68949 -27228852.06047  20929104.5144   20929116.0684
      2479.8204       1932.3234
  21440158.1134  -32125444.82848 -23821336.21947  21440155.5454   21440169.5404
      2373.9164       1849.8024
  20429330.3834  -40525168.39649 -30581111.49747  20429328.0314   20429340.6924
       968.3804        754.5844
  20797473.1564  -42841652.98449 -33078902.60547  20797470.5824   20797483.0084
      -168.6154       -131.3854
  23792177.5924  -14256395.42747 -10782512.84445  23792174.5964   23792187.7864
     -2566.5194      -1999.9094
  21345169.8364  -30086506.48349 -23421182.07747  21345167.0224   21345178.6234
      -641.4254       -499.8114
 00  9 18  0 10 59.9990000  0  9G 3G31G20G13G27G19G 1G22G28
  23536202.0644   -9958330.38147  -7718590.50445  23536199.6094   23536217.3744
      2086.1734       1625.5784
  23665960.1934   -6162924.72347  -3078938.14945  23665957.7294   23665977.0584
      3802.2884       2962.8214
  23856455.2464  -30405188.33747 -23123762.94345  23856452.4944   23856477.1054
     -2756.2694      -2147.7254
  20914995.2134  -35708879.25348 -27286636.28447  20914993.0324   20915004.4824
      2465.5814       1921.2314
  21426639.4254  -32196483.64448 -23876691.08747  21426637.0394   21426651.1644
      2363.6384       1841.7944
  20423841.5814  -40554015.04149 -30603589.45947  20423838.8954   20423851.3294
       956.3144        745.1794
  20798486.7674  -42836325.51449 -33074751.43047  20798484.2954   20798497.2564
      -184.8954       -144.0704
  23806861.7674  -14179226.30847 -10722380.55345  23806858.6544   23806872.2084
     -2576.5624      -2007.7234
  21348892.2744  -30066944.82449 -23405939.24347  21348889.5384   21348901.2074
      -661.0504       -515.1034
 00  9 18  0 11 29.9990000  0  9G 3G31G20G13G27G19G 1G22G28
  23524316.9434  -10020789.57347  -7767259.75445  23524314.2014   23524330.9784
      2074.6644       1616.6114
  23644249.8464   -6277007.48847  -3167833.53245  23644246.8294   23644267.7474
      3800.1164       2961.1234
  23872177.5754  -30322567.98047 -23059383.93445  23872176.0274   23872200.7484
     -2754.9554      -2146.7034
  20900929.8514  -35782792.84749 -27344231.20347  20900927.6594   20900939.0794
      2458.7854       1915.9334
  21413144.6794  -32267399.97148 -23931950.51447  21413142.2844   21413156.5594
      2360.9044       1839.6664
  20418385.3914  -40582685.31349 -30625929.97747  20418383.0064   20418395.6754
       951.8004        741.6644
  20799558.1514  -42830694.77549 -33070363.97247  20799555.9074   20799568.5194
      -193.6624       -150.9014
  23821568.2504  -14101939.68147 -10662156.49345  23821564.8154   23821577.7574
     -2579.0754      -2009.6904
  21352690.9424  -30046981.20249 -23390383.17947  21352688.2864   21352699.7644
      -673.0704       -524.4704
 00  9 18  0 11 59.9990000  0  9G 3G31G20G13G27G19G 1G22G28
  23512520.5644  -10082776.17947  -7815560.75645  23512518.1644   23512535.3454
      2062.3544       1607.0204
  23622577.5604   -6390897.64647  -3256578.81645  23622575.7784   23622595.2074
      3797.1054       2958.7754
  23887916.3124  -30239862.29547 -22994938.46645  23887913.4084   23887939.6994
     -2754.1184      -2146.0524
  20886927.4724  -35856375.49248 -27401568.24847  20886925.3074   20886936.5294
      2451.3304       1910.1254
  21399689.2924  -32338107.43848 -23987047.19947  21399687.0264   21399701.4194
      2357.5234       1837.0304
  20412979.6674  -40611093.22549 -30648066.01247  20412977.3024   20412989.7174
       946.6374        737.6414
  20800704.8354  -42824673.86449 -33065672.45647  20800702.0924   20800714.2744
      -203.1244       -158.2764
  23836312.4754  -14024451.94147 -10601775.84645  23836310.4424   23836322.7774
     -2582.1954      -2012.1184
  21356582.4954  -30026531.01449 -23374447.95547  21356579.8874   21356591.3404
      -685.6994       -534.3134
 00  9 18  0 12 29.9990000  0  9G 3G31G20G13G27G19G 1G22G28
  23500804.0944  -10144345.02547  -7863536.26445  23500801.4124   23500818.8804
      2045.7334       1594.0734
  23600932.1964   -6504648.48847  -3345215.51745  23600928.4564   23600947.9904
      3789.6174       2952.9434
  23903660.9964  -30157131.13347 -22930473.15145  23903657.8874   23903683.7604
     -2757.5954      -2148.7624
  20872977.9104  -35929681.83248 -27458690.01547  20872975.7684   20872986.6574
      2439.3304       1900.7764
  21386263.0814  -32408662.93548 -24042025.46447  21386260.7514   21386274.5664
      2349.7714       1830.9894
  20407613.0444  -40639296.11949 -30670042.36047  20407610.4114   20407623.1394
       937.0974        730.2084
  20801913.6214  -42818319.50649 -33060721.09247  20801911.1944   20801923.7644
      -216.9224       -169.0274
  23851084.7634  -13946822.39447 -10541284.51445  23851082.1274   23851093.8514
     -2589.6954      -2017.9564
  21360555.2994  -30005653.38549 -23358179.67747  21360552.7604   21360564.3164
      -702.6164       -547.4934
 00  9 18  0 12 59.9990000  0  9G 3G31G20G13G27G19G 1G22G28
  23489178.4424  -10205441.31047  -7911143.55445  23489175.7234   23489192.2484
      2026.2234       1578.8704
  23579322.2044   -6618203.79447  -3433699.83945  23579318.9834   23579339.6074
      3779.4434       2945.0074
  23919418.4394  -30074324.22447 -22865948.80745  23919416.0354   23919441.7954
     -2763.9084      -2153.6854
  20859090.8294  -36002657.46349 -27515554.08347  20859088.8824   20859100.0144
      2424.5644       1889.2694
  21372875.5234  -32479013.86348 -24096844.32147  21372873.1844   21372887.0684
      2339.2284       1822.7744
  20402295.0214  -40667241.68549 -30691818.15647  20402292.5844   20402305.2164
       924.7944        720.6214
  20803196.6734  -42811578.64249 -33055468.55147  20803194.0434   20803206.7444
      -233.5724       -182.0024
  23865892.8194  -13869001.77747 -10480644.48745  23865890.3174   23865901.9584
     -2599.6704      -2025.7354
  21364619.5174  -29984297.26049 -23341538.58647  21364616.9084   21364628.5404
      -722.2624       -562.7994
 00  9 18  0 13 29.9990000  0  9G 3G31G20G13G27G19G 1G22G28
  23477649.2184  -10266024.58347  -7958351.09445  23477647.1864   23477663.8794
      2012.4024       1568.1044
  23557758.3144   -6731521.47047  -3521998.97045  23557755.1874   23557775.2444
      3774.7834       2941.3654
  23935198.6204  -29991405.77247 -22801337.56945  23935195.8124   23935220.7244
     -2764.2714      -2153.9574
  20845275.0264  -36075262.29349 -27572129.24147  20845272.8114   20845283.6354
      2415.4914       1882.1984
  21359534.6034  -32549121.73148 -24151473.77547  21359532.1724   21359545.9394
      2334.3954       1819.0084
  20397033.5914  -40694891.65349 -30713363.65447  20397030.9724   20397043.6354
       918.2434        715.5164
  20804560.0074  -42804412.30749 -33049884.44147  20804557.5834   20804570.4464
      -244.4444       -190.4754
  23880745.1294  -13790954.06647 -10419827.52445  23880742.4274   23880754.1534
     -2603.9224      -2029.0534
  21368781.3614  -29962426.08949 -23324496.15447  21368778.8434   21368790.4374
      -736.0944       -573.5784
 00  9 18  0 13 59.9990000  0  9G 3G31G20G13G27G19G 1G22G28
  23466193.6444  -10326226.94147  -8005261.83445  23466190.4684   23466206.9964
      1998.7184       1557.4374
  23536214.0274   -6844732.79247  -3610215.21445  23536211.6414   23536231.6824
      3770.2774       2937.8704
  23950972.8934  -29908512.69447 -22736746.10845  23950969.9214   23950995.1134
     -2764.2664      -2153.9494
  20831503.9054  -36147628.91048 -27628518.75947  20831501.5664   20831512.6714
      2406.5914       1875.2654
  21346214.1664  -32619120.88348 -24206018.51447  21346211.6614   21346225.7274
      2329.8534       1815.4684
  20391802.2544  -40722380.41249 -30734783.50647  20391799.7844   20391812.7174
       911.9244        710.5904
  20805979.6744  -42796954.41349 -33044073.15147  20805977.1524   20805989.7204
      -255.1154       -198.7894
  23895614.8554  -13712815.54847 -10358939.74945  23895611.2584   23895622.3674
     -2607.8854      -2032.1454
  21373015.4734  -29940175.89449 -23307158.36247  21373012.7004   21373024.4014
      -749.6344       -584.1294
 00  9 18  0 14 29.9990000  0  9G 3G31G20G13G27G19G 1G22G28
  23454828.1814  -10385949.91347  -8051799.02645  23454825.7334   23454842.3014
      1986.0104       1547.5314
  23514708.8684   -6957738.12847  -3698270.96645  23514706.6424   23514726.2154
      3766.6494       2935.0374
  23966761.9044  -29825551.33547 -22672101.44245  23966757.5634   23966782.3704
     -2763.3264      -2153.2194
  20817796.2544  -36219658.64648 -27684645.75347  20817794.3764   20817805.6644
      2398.6074       1869.0424
  21332933.0054  -32688915.04348 -24260403.51547  21332930.5134   21332944.5844
      2326.3284       1812.7214
  20386620.3494  -40749612.16049 -30756003.08047  20386618.0024   20386630.7364
       906.6924        706.5144
  20807472.7684  -42789108.20249 -33037959.25847  20807470.0964   20807482.5704
      -264.7364       -206.2884
  23910517.9414  -13634492.82747 -10297908.45345  23910515.1204   23910526.2154
     -2610.5894      -2034.2394
  21377339.4094  -29917452.55549 -23289451.88847  21377336.8854   21377348.4674
      -762.0654       -593.8154
 00  9 18  0 14 59.9990000  0  9G 3G31G20G13G27G19G 1G22G28
  23443564.2764  -10445143.83547  -8097923.97246  23443561.2534   23443577.6884
      1965.7344       1531.7344
  23493255.3774   -7070485.99247  -3786126.07045  23493251.7954   23493271.5264
      3755.3804       2926.2544
  23982570.0304  -29742476.59747 -22607368.43845  23982565.4774   23982591.1954
     -2769.5774      -2158.0924
  20804163.2614  -36291301.68148 -27740471.46747  20804161.1624   20804172.5024
      2383.1264       1856.9834
  21319699.2544  -32758456.53748 -24314591.62547  21319696.8064   21319711.3654
      2315.2894       1804.1204
  20381496.5954  -40776539.54049 -30776985.48747  20381493.9014   20381506.5934
       893.9594        696.5924
  20809048.5934  -42780825.58748 -33031505.28747  20809045.8384   20809058.8174
      -281.9164       -219.6744
  23925466.0114  -13555940.74647 -10236698.61645  23925463.5644   23925473.4034
     -2620.7384      -2042.1504
  21381762.2744  -29894210.01849 -23271340.83547  21381759.7634   21381771.6654
      -781.9424       -609.3044
 00  9 18  0 15 29.9990000  0  9G 3G31G20G13G27G19G 1G22G28
  23432363.1134  -10504003.27747  -8143788.26646  23432360.2634   23432377.2504
      1957.0364       1524.9574
  23471811.8414   -7183169.85847  -3873931.32945  23471809.6804   23471827.4054
      3755.6704       2926.4934
  23998362.1914  -29659487.52747 -22542702.19045  23998359.2464   23998384.9144
     -2764.1934      -2153.8954
  20790566.5524  -36362753.99248 -27796148.59747  20790564.4644   20790575.6214
      2379.1464       1853.8794
  21306476.7254  -32827941.82448 -24368735.93147  21306474.2404   21306488.4564
      2315.8794       1804.5784
  20376392.4634  -40803359.29149 -30797883.98047  20376390.1144   20376402.9824
       892.8174        695.7024
  20810670.3114  -42772302.95348 -33024864.30547  20810667.8544   20810680.6804
      -287.4764       -224.0064
  23940419.3374  -13477358.36847 -10175464.99045  23940416.2004   23940426.4324
     -2619.2844      -2041.0194
  21386246.2774  -29870647.04749 -23252980.13047  21386243.7854   21386255.7054
      -790.1374       -615.6884
 00  9 18  0 15 59.9990000  0  9G 3G31G20G13G27G19G 1G22G28
  23421255.1924  -10562376.41747  -8189273.63046  23421252.5144   23421268.7504
      1936.4584       1508.9244
  23450407.5994   -7295636.20547  -3961567.07545  23450406.0824   23450426.0934
      3744.0304       2917.4074
  24014166.5244  -29576436.80647 -22477987.93445  24014163.3184   24014189.3544
     -2770.5304      -2158.8434
  20777035.5174  -36433862.18048 -27851557.51647  20777033.1814   20777044.2354
      2363.3384       1841.5594
  21293292.9374  -32897220.89248 -24422719.53947  21293290.5794   21293304.7474
      2304.6704       1795.8444
  20371338.0694  -40829921.70549 -30818581.93747  20371335.5174   20371348.2914
       879.9144        685.6464
  20812366.3924  -42763389.65348 -33017918.90247  20812363.9094   20812376.7954
      -304.8174       -237.5184
  23955405.1224  -13398598.29647 -10114092.89845  23955403.1394   23955414.3514
     -2629.5054      -2048.9844
  21390819.5734  -29846615.40149 -23234254.20347  21390816.8804   21390828.7064
      -810.0614       -631.2154
 00  9 18  0 16 29.9990000  0  9G 3G31G20G13G27G19G 1G22G28
  23410211.7944  -10620404.56547  -8234490.16446  23410209.8104   23410226.2894
      1923.8404       1499.0914
  23429022.6424   -7408025.03647  -4049142.40245  23429019.7764   23429038.4834
      3740.2544       2914.4744
  24029955.8094  -29493470.44747 -22413339.41345  24029952.1764   24029978.3694
     -2768.8444      -2157.5164
  20763542.1104  -36504768.58549 -27906809.22347  20763540.0594   20763551.2294
      2355.4704       1835.4344
  21280122.0824  -32966437.10648 -24476654.15647  21280119.5074   21280133.4304
      2301.4694       1793.3514
  20366305.0294  -40856370.38649 -30839191.28847  20366302.5964   20366315.4114
       875.0214        681.8334
  20814110.1464  -42754228.87148 -33010780.65847  20814107.4464   20814119.9404
      -314.1804       -244.8144
  23970398.9784  -13319806.38147 -10052696.07945  23970397.1904   23970407.4904
     -2631.5794      -2050.5994
  21395454.0894  -29822260.39449 -23215276.31047  21395451.5164   21395463.1284
      -821.9284       -640.4604
 00  9 18  0 16 59.9990000  0  9G 3G31G20G13G27G19G 1G22G28
  23399282.2694  -10677843.80747  -8279247.84245  23399279.2504   23399295.4074
      1908.3564       1487.0224
  23407696.4864   -7520091.20047  -4136466.28845  23407692.7574   23407712.7694
      3733.7464       2909.3944
  24045773.4014  -29410349.09947 -22348570.10445  24045770.8664   24045796.5514
     -2769.7434      -2158.2224
  20750133.7114  -36575228.81648 -27961713.25747  20750131.8584   20750142.8094
      2344.7704       1827.0924
  21267008.3244  -33035348.69248 -24530351.39647  21267006.0184   21267019.9874
      2295.5094       1788.7054
  20361339.6974  -40882463.72649 -30859523.74747  20361337.2184   20361350.0394
       867.4034        675.8974
  20815946.2234  -42744578.38848 -33003260.82147  20815943.8994   20815956.4994
      -326.3074       -254.2664
  23985444.4064  -13240743.02747  -9991087.84045  23985441.6634   23985451.8084
     -2636.4244      -2054.3824
  21400195.8924  -29797341.95249 -23195859.37647  21400193.3824   21400204.7504
      -836.4534       -651.7814
 00  9 18  0 17 29.9990000  0  9G 3G31G20G13G27G19G 1G22G28
  23388433.7824  -10734853.77447  -8323671.00245  23388431.2044   23388446.1284
      1888.7384       1471.7414
  23386401.8374   -7631992.64647  -4223661.82845  23386399.2344   23386418.4304
      3722.7914       2900.8624
  24061589.5964  -29327236.85247 -22283807.90145  24061586.1534   24061613.0764
     -2774.7214      -2162.1024
  20736779.9604  -36645403.48348 -28016394.77947  20736777.6934   20736788.9724
      2329.9174       1815.5194
  21253922.4154  -33104117.16148 -24583937.11347  21253919.7914   21253933.8874
      2285.4104       1780.8354
  20356410.8704  -40908363.61349 -30879705.44947  20356408.4194   20356421.0794
       855.6164        666.7124
  20817845.4334  -42734599.42348 -32995485.02047  20817842.8514   20817855.5394
      -342.6044       -266.9654
  24000509.5334  -13161572.53147  -9929395.99545  24000507.2654   24000517.2384
     -2645.3314      -2061.3094
  21405013.6554  -29772023.73749 -23176130.89947  21405011.0264   21405022.6274
      -855.0564       -666.2784
 00  9 18  0 17 59.9990000  0  9G 3G31G20G13G27G19G 1G22G28
  23377683.0584  -10791346.18147  -8367690.82745  23377680.3634   23377696.7764
      1880.4034       1465.2424
  23365155.5394   -7743639.21447  -4310658.75345  23365153.0824   23365172.9884
      3723.3314       2901.2824
  24077419.8444  -29244049.71447 -22218987.31745  24077416.0664   24077442.8384
     -2768.0724      -2156.9264
  20723497.2894  -36715203.58948 -28070784.40447  20723495.1004   20723506.4654
      2326.4254       1812.7964
  21240879.9034  -33172655.74748 -24637343.70347  21240877.3044   21240890.9894
      2286.7814       1781.9064
  20351535.6944  -40933983.48049 -30899668.95247  20351533.1454   20351545.8404
       855.3344        666.4934
  20819823.7054  -42724204.80948 -32987385.32347  20819820.9334   20819833.3314
      -347.4094       -270.7084
  24015611.3274  -13082210.84747  -9867555.11845  24015608.1004   24015618.8474
     -2642.5524      -2059.1504
  21409923.7824  -29746221.07649 -23156024.93147  21409921.2244   21409932.9444
      -862.1574       -671.8124
 00  9 18  0 18 29.9990000  0  9G 3G31G20G13G27G19G 1G22G28
  23367021.8764  -10847368.36447  -8411344.23045  23367018.8414   23367035.1594
      1858.8984       1448.4874
  23343949.9064   -7855077.19947  -4397493.15245  23343947.3574   23343966.0474
      3710.4524       2891.2404
  24093254.1744  -29160839.86247 -22154149.04345  24093251.5074   24093279.8134
     -2774.6674      -2162.0554
  20710276.7094  -36784677.13648 -28124919.56547  20710274.8064   20710285.9474
      2309.6344       1799.7104
  21227871.2614  -33241014.24948 -24690609.96647  21227869.0144   21227882.5344
      2274.9274       1772.6674
  20346704.1484  -40959373.22449 -30919453.11747  20346701.7574   20346714.0624
       841.8004        655.9454
  20821871.3754  -42713444.03148 -32979000.31647  20821868.6984   20821881.0454
      -365.4784       -284.7884
  24030740.2004  -13002710.20547  -9805605.99145  24030736.2274   24030746.2614
     -2653.1014      -2067.3814
  21414916.4574  -29719985.87149 -23135581.92147  21414913.8414   21414925.3114
      -882.3954       -687.5814
 00  9 18  0 18 59.9990000  0  9G 3G31G20G13G27G19G 1G22G28
  23356459.4484  -10902873.04747  -8454594.37345  23356457.2794   23356472.9034
      1843.1464       1436.2084
  23322792.1754   -7966257.71847  -4484126.92745  23322789.5364   23322807.7644
      3703.3114       2885.6844
  24109100.8124  -29077564.20347 -22089259.48345  24109099.3204   24109125.6394
     -2775.2854      -2162.5434
  20697128.2544  -36853775.69248 -28178762.49647  20697126.0184   20697136.7514
      2298.6224       1791.1324
  21214906.3334  -33309146.98348 -24743700.30347  21214903.6954   21214917.1474
      2268.9474       1768.0074
  20341924.8134  -40984487.47749 -30939022.60747  20341922.5714   20341934.8614
       834.1484        649.9834
  20823997.3814  -42702271.26548 -32970294.27747  20823994.7174   20824007.2344
      -377.6834       -294.2974
  24045902.8084  -12923027.21047  -9743514.81345  24045899.7434   24045908.4374
     -2657.5344      -2070.8154
  21419999.5784  -29693274.28049 -23114767.72647  21419996.7434   21420008.5004
      -896.7314       -698.7504
 00  9 18  0 19 29.9990000  0  9G 3G31G20G13G27G19G 1G22G28
  23345974.8884  -10957965.69547  -8497523.43545  23345972.6184   23345989.0714
      1825.2044       1422.2264
  23301664.9264   -8077284.45947  -4570640.88245  23301662.3024   23301679.7914
      3693.9244       2878.3664
  24124941.3584  -28994332.48647 -22024404.16845  24124937.8844   24124963.4504
     -2778.0404      -2164.6854
  20684030.4574  -36922605.39649 -28232395.90147  20684028.1974   20684039.0524
      2285.5034       1780.9074
  21201963.2974  -33377160.95648 -24796698.09747  21201960.7884   21201974.5464
      2260.8434       1761.6924
  20337177.8234  -41009433.63049 -30958461.09647  20337175.4064   20337187.9484
       824.3744        642.3694
  20826181.6834  -42690793.33548 -32961350.44147  20826178.9544   20826191.1524
      -392.0164       -305.4664
  24061078.6054  -12843271.21047  -9681366.76445  24061074.4514   24061085.6504
     -2664.1634      -2076.0054
  21425152.5894  -29666195.25549 -23093667.18547  21425149.8464   21425161.5534
      -913.1024       -711.5064
 00  9 18  0 19 59.9990000  0  9G 3G31G20G13G27G19G 1G22G28
  23335597.3044  -11012501.94847  -8540018.96945  23335594.7144   23335610.8014
      1812.6564       1412.4524
  23280594.6814   -8188011.22247  -4656921.10545  23280592.0074   23280609.6054
      3689.9314       2875.2644
  24140799.2844  -28911004.65947 -21959473.93945  24140795.0954   24140822.7624
     -2775.0824      -2162.3744
  20671010.7874  -36991021.71149 -28285707.24347  20671008.6734   20671019.9404
      2277.6814       1774.8144
  21189070.1894  -33444913.77148 -24849492.41447  21189067.7704   21189081.6814
      2258.1444       1759.5904
  20332489.7394  -41034069.74249 -30977658.01447  20332487.3624   20332499.7024
       820.0904        639.0294
  20828451.1964  -42678867.48448 -32952057.57447  20828448.3924   20828460.8484
      -400.9384       -312.4194
  24076296.2094  -12763302.92447  -9619053.25045  24076292.5994   24076302.1654
     -2664.9904      -2076.6134
  21430401.6974  -29638608.54049 -23072171.06047  21430399.2494   21430411.0054
      -923.9444       -719.9564
 00  9 18  0 20 29.9990000  0  9G 3G31G20G13G27G19G 1G22G28
  23325300.1954  -11066615.82747  -8582185.37145  23325297.3304   23325312.9214
      1796.0094       1399.4784
  23259554.5094   -8298570.92847  -4743071.17445  23259552.0324   23259570.1014
      3681.8204       2868.9414
  24156647.1834  -28827719.63347 -21894577.08645  24156644.5364   24156670.9554
     -2776.0744      -2163.1534
  20658044.3104  -37059158.86148 -28338801.00147  20658042.3124   20658053.5364
      2265.9094       1765.6384
  21176201.2544  -33512541.46548 -24902189.21547  21176198.6934   21176212.4304
      2251.4934       1754.4054
  20327835.3334  -41058532.08049 -30996719.54047  20327832.5074   20327844.7004
       811.8464        632.6044
  20830779.8084  -42666629.60248 -32942521.59747  20830777.1214   20830789.8564
      -413.7894       -322.4324
  24091527.9054  -12683261.61647  -9556683.29845  24091523.9324   24091532.1914
     -2669.9384      -2080.4784
  21435721.7874  -29610652.12049 -23050386.82147  21435719.0954   21435730.6954
      -938.6914       -731.4494
 00  9 18  0 20 59.9990000  0  9G 3G31G20G13G27G19G 1G22G28
  23315081.8904  -11120306.93247  -8624022.31945  23315079.8104   23315095.5164
      1777.8414       1385.3194
  23238546.8114   -8408961.48547  -4829089.45545  23238544.7544   23238563.1934
      3672.0234       2861.3074
  24172488.0824  -28744481.14547 -21829716.46645  24172485.1374   24172511.1964
     -2778.6664      -2165.1804
  20645131.3114  -37127016.66848 -28391677.07447  20645129.3334   20645140.4184
      2252.4394       1755.1434
  21163355.7644  -33580045.41248 -24954789.59947  21163353.1994   21163366.6964
      2243.2134       1747.9554
  20323212.3234  -41082822.01549 -31015646.69347  20323210.1324   20323222.2594
       801.9554        624.8974
  20833167.3894  -42654080.55248 -32932743.13847  20833165.0384   20833177.9234
      -428.3144       -333.7504
  24106772.0184  -12603149.56447  -9494258.05045  24106769.9884   24106776.9104
     -2676.4324      -2085.5384
  21441111.3264  -29582329.52549 -23028317.27547  21441108.7544   21441120.7714
      -955.0094       -744.1604
 00  9 18  0 21 29.9990000  0  9G 3G31G20G13G27G19G 1G22G28
  23304963.0264  -11173489.03547  -8665462.62846  23304959.4684   23304975.6124
      1761.8444       1372.8574
  23217589.2624   -8519095.07447  -4914907.52845  23217586.2934   23217605.1534
      3664.3814       2855.3534
  24188334.9464  -28661207.24447 -21764828.25745  24188330.4464   24188358.3724
     -2778.8224      -2165.2984
  20632288.5684  -37194508.58048 -28444268.04347  20632286.1594   20632297.1404
      2241.1944       1746.3794
  21150549.8094  -33647341.02448 -25007227.64947  21150547.3004   21150560.3304
      2237.2984       1743.3454
  20318639.1834  -41106855.43749 -31034373.97047  20318636.5974   20318648.5984
       794.4094        619.0164
  20835631.0934  -42641135.73648 -32922656.28547  20835628.6104   20835641.2294
      -440.5164       -343.2574
  24122045.2334  -12522884.85447  -9431713.67845  24122042.0024   24122052.1424
     -2680.4994      -2088.7064
  21446585.9234  -29553558.32349 -23005898.21647  21446583.6534   21446595.8184
      -968.9054       -754.9904
 00  9 18  0 21 59.9990000  0  9G 3G31G20G13G27G19G 1G22G28
  23294947.8084  -11226112.43147  -8706467.60045  23294945.4244   23294960.7224
      1745.1784       1359.8704
  23196690.6974   -8628920.14047  -5000485.19845  23196688.0104   23196706.1954
      3656.0574       2848.8714
  24204196.9224  -28577852.62747 -21699877.16745  24204193.4164   24204218.8044
     -2779.3894      -2165.7424
  20619523.9244  -37261584.62948 -28496534.96847  20619521.9854   20619533.0274
      2229.3104       1737.1224
  21137792.4674  -33714380.44448 -25059466.06947  21137789.8914   21137803.3094
      2230.7334       1738.2304
  20314123.5824  -41130584.63249 -31052864.18847  20314121.1994   20314133.2424
       786.2534        612.6634
  20838179.2114  -42627747.02348 -32912223.52647  20838176.4484   20838188.6764
      -453.3314       -353.2454
  24137356.5164  -12442422.57147  -9369015.59045  24137352.9944   24137361.5484
     -2685.0154      -2092.2354
  21452155.5684  -29524292.46048 -22983093.66547  21452153.0644   21452164.6154
      -983.3794       -766.2714
 00  9 18  0 22 29.9990000  0  9G 3G31G20G13G27G19G 1G22G28
  23285021.5164  -11278272.04847  -8747111.19445  23285019.2284   23285034.4094
      1724.7754       1343.9754
  23175831.4104   -8738530.14747  -5085895.32445  23175827.9494   23175846.8404
      3643.9124       2839.4034
  24220056.1804  -28494516.62747 -21634940.52145  24220051.3274   24220079.7974
     -2783.7294      -2169.1274
  20606821.0504  -37328339.57348 -28548551.68147  20606818.8254   20606829.8014
      2213.7024       1724.9584
  21125065.5014  -33781260.09048 -25111579.99347  21125062.9934   21125076.3404
      2220.5664       1730.3074
  20309647.5744  -41154106.46749 -31071192.83947  20309645.1004   20309657.2184
       774.4904        603.4974
  20840793.0214  -42614010.72548 -32901519.93247  20840790.4514   20840802.9204
      -469.7924       -366.0714
  24152686.7804  -12361861.53147  -9306240.37745  24152683.0544   24152691.7704
     -2693.0484      -2098.4984
  21457799.7904  -29494630.46648 -22959980.38847  21457797.3104   21457809.2104
     -1001.4424       -780.3454
 00  9 18  0 22 59.9990000  0  9G 3G31G20G13G27G19G 1G22G28
  23275183.6194  -11329972.40947  -8787396.91545  23275180.6714   23275195.6844
      1720.6944       1340.7934
  23155014.1014   -8847927.66947  -5171139.89145  23155011.5704   23155029.6444
      3648.0304       2842.6134
  24235908.8874  -28411207.78747 -21570025.07845  24235904.4414   24235933.7674
     -2771.5284      -2159.6004
  20594177.9354  -37394777.92448 -28600321.68847  20594175.8774   20594186.6704
      2214.3234       1725.4404
  21112367.8914  -33847986.30248 -25163574.35047  21112365.3544   21112378.9394
      2226.6634       1735.0584
  20305209.7424  -41177427.44849 -31089364.94947  20305207.2514   20305219.1574
       779.0154        607.0224
  20843472.0254  -42599932.81448 -32890550.16947  20843469.2044   20843481.9124
      -469.9434       -366.1904
  24168033.2894  -12281210.49647  -9243394.97845  24168030.2984   24168039.9424
     -2684.8214      -2092.0804
  21463517.8664  -29464580.93748 -22936565.14947  21463515.4334   21463527.4004
     -1003.0734       -781.6174
 00  9 18  0 23 29.9990000  0  9G 3G31G20G13G27G19G 1G22G28
  23265438.7714  -11381178.00447  -8827297.09945  23265436.7114   23265452.4044
      1695.5544       1321.2044
  23134244.3474   -8957075.65547  -5256190.01945  23134241.9804   23134259.1554
      3630.9984       2829.3364
  24251762.2614  -28327894.80347 -21505106.39845  24251759.6364   24251786.9274
     -2780.2974      -2166.4584
  20581602.0774  -37460864.19649 -28651817.36147  20581600.1464   20581611.0744
      2193.9194       1709.5444
  21099705.3734  -33914525.31448 -25215422.84447  21099702.9674   21099717.0124
      2211.8094       1723.4864
  20300816.6984  -41200514.15049 -31107354.53947  20300814.2444   20300826.1394
       762.5704        594.2114
  20846221.9414  -42585479.29448 -32879287.72147  20846219.6034   20846232.1174
      -491.1044       -382.6754
  24183403.4194  -12200437.78847  -9180454.64145  24183400.2254   24183407.8304
     -2697.5134      -2101.9714
  21469316.1734  -29434112.08448 -22912823.15847  21469313.5454   21469325.4564
     -1025.6714       -799.2234
 00  9 18  0 23 59.9990000  0 10G 3G31G20G 8G13G27G19G 1G22G28
  23255794.3654  -11431858.85047  -8866788.42245  23255792.1824   23255807.5804
      1681.9854       1310.6284
  23113527.7474   -9065942.27447  -5341020.91045  23113525.0634   23113542.7504
      3625.5724       2825.1154
  24267621.6594  -28244551.99046 -21440164.49045  24267618.9264   24267648.2744
     -2777.1744      -2164.0134
  22281799.8654    -621844.62658   -219408.38446  22281797.2424   22281816.1574
      3356.3174       2615.3024
  20569098.9234  -37526567.80149 -28703014.86747  20569096.9454   20569107.7994
      2185.1534       1702.7144
  21087084.4644  -33980848.81448 -25267103.41747  21087082.0704   21087095.8254
      2208.6364       1721.0144
  20296472.9924  -41223338.28149 -31125139.54247  20296470.5784   20296482.7524
       757.8504        590.5324
  20849049.4624  -42570621.72148 -32867710.42947  20849046.8284   20849059.2164
      -500.5654       -390.0474
  24198802.1164  -12119518.15547  -9117400.17545  24198798.0764   24198807.5524
     -2698.5524      -2102.7804
  21475198.9834  -29403197.67848 -22888733.96147  21475196.4594   21475208.1904
     -1036.4544       -807.6314
 00  9 18  0 24 29.9990000  0 10G 3G31G20G 8G13G27G19G 1G22G28
  23246237.5304  -11482078.07147  -8905920.05845  23246235.7014   23246251.2364
      1666.5864       1298.6334
  23092851.9094   -9174588.76847  -5425680.27045  23092849.3814   23092866.5704
      3618.1774       2819.3484
  24283474.5214  -28161246.49046 -21375251.62545  24283473.0504   24283501.4354
     -2775.8894      -2163.0144
  22262653.9864    -722453.66748   -297804.75746  22262651.6694   22262670.7304
      3351.5324       2611.5774
  20556656.5184  -37591952.12248 -28753963.58647  20556654.4854   20556665.4164
      2174.5004       1694.4134
  21074492.0114  -34047021.22848 -25318666.25547  21074489.7404   21074503.4024
      2203.5894       1717.0814
  20292167.0964  -41245964.82249 -31142770.61347  20292164.8634   20292177.2664
       751.2674        585.4024
  20851941.8734  -42555424.52448 -32855868.49747  20851939.0914   20851951.3394
      -511.8664       -398.8564
  24214215.5214  -12038517.64047  -9054282.40745  24214212.5634   24214221.4354
     -2700.9734      -2104.6814
  21481154.2014  -29371904.42648 -22864349.53647  21481151.4544   21481163.0594
     -1049.0474       -817.4444
 00  9 18  0 24 59.9990000  0 10G 3G31G20G 8G13G27G19G 1G22G28
  23236768.0924  -11531844.12547  -8944698.56946  23236765.7174   23236780.5554
      1656.5474       1290.8114
  23072218.0404   -9283022.03247  -5510173.46145  23072215.6784   23072232.5534
      3616.1484       2817.7644
  24299316.9294  -28077990.94946 -21310377.70745  24299314.6224   24299345.1374
     -2768.9314      -2157.5874
  22243534.4564    -822931.12548   -376098.59046  22243531.5554   22243550.1054
      3352.2554       2612.1374
  20544273.8544  -37657024.84749 -28804669.49847  20544271.7674   20544282.2054
      2169.1634       1690.2534
  21061927.0534  -34113052.70448 -25370119.26747  21061924.6454   21061937.5844
      2203.9634       1717.3704
  20287897.1484  -41268403.91849 -31160255.57847  20287894.7894   20287907.0554
       750.1244        584.5104
  20854896.2824  -42539897.79348 -32843769.77947  20854893.7414   20854906.0444
      -517.7894       -403.4724
  24229641.2164  -11957449.89147  -8991112.21845  24229639.7814   24229646.5054
     -2698.1244      -2102.4504
  21487178.5204  -29340244.63448 -22839679.46747  21487176.0004   21487187.5494
     -1056.1704       -822.9924
 00  9 18  0 25 29.9990000  0 10G 3G31G20G 8G13G27G19G 1G22G28
  23227398.2024  -11581085.77647  -8983068.51446  23227395.0504   23227410.2474
      1636.0294       1274.8284
  23051637.3924   -9391168.73847  -5594443.34145  23051634.9744   23051652.7854
      3603.4304       2807.8564
  24315163.7544  -27994718.30446 -21245490.43045  24315162.4624   24315192.0594
     -2772.7334      -2160.5564
  22224451.8454    -923206.94648   -454235.29746  22224449.2324   22224467.7154
      3342.4794       2604.5184
  20531963.7804  -37721715.18649 -28855077.46647  20531961.4704   20531972.0554
      2153.3484       1677.9314
  21049402.4134  -34178873.42848 -25421408.05747  21049399.7274   21049412.5904
      2193.8914       1709.5224
  20283676.3224  -41290586.22049 -31177540.47247  20283673.7934   20283685.7374
       738.5044        575.4584
  20857926.6844  -42523971.56948 -32831359.77547  20857924.1534   20857937.0744
      -534.1494       -416.2194
  24245093.1844  -11876247.41347  -8927837.24945  24245091.1294   24245098.6224
     -2705.6074      -2108.2864
  21493285.4314  -29308150.58548 -22814671.00947  21493283.0964   21493294.6504
     -1073.6464       -836.6084
 00  9 18  0 25 59.9990000  0  9G 3G31G20G 8G13G27G19G 1G28
  23218119.3954  -11629841.16947  -9021059.56745  23218116.8844   23218132.0444
      1619.3574       1261.8344
  23031105.6724   -9499065.61347  -5678518.54845  23031102.5394   23031120.5394
      3594.6324       2801.0044
  24331004.6914  -27911470.90046 -21180622.86745  24331003.4314   24331034.4434
     -2772.1994      -2160.1384
  22205400.4574   -1023320.69948   -532245.70946  22205397.8384   22205416.9804
      3336.6274       2599.9584
  20519719.3544  -37786060.71849 -28905216.75047  20519717.0994   20519727.4274
      2141.3864       1668.6094
  21036909.0524  -34244523.34548 -25472563.74947  21036906.5524   21036919.6024
      2187.7444       1704.7334
  20279496.1684  -41312551.94349 -31194656.60847  20279493.7804   20279505.8214
       730.8464        569.4904
  20861026.0404  -42507685.55948 -32818669.42647  20861023.4904   20861036.2494
      -546.6034       -425.9214
  21499467.5154  -29275664.30648 -22789356.95147  21499465.0054   21499476.3354
     -1087.1234       -847.1144
 00  9 18  0 26 29.9990000  0  9G 3G31G20G 8G13G27G19G 1G28
  23208930.1124  -11678129.48847  -9058686.69445  23208927.5484   23208942.8314
      1601.4824       1247.9064
  23010617.7714   -9606729.59847  -5762412.26545  23010614.7694   23010631.3964
      3584.6004       2793.1814
  24346838.8844  -27828271.80046 -21115792.91344  24346837.5894   24346865.8724
     -2772.8164      -2160.6144
  22186376.4764   -1123292.80148   -610145.74646  22186373.9074   22186392.0704
      3329.6604       2594.5304
  20507536.5074  -37850080.22949 -28955101.99447  20507534.4224   20507544.6134
      2128.2084       1658.3404
  21024444.5554  -34310023.10448 -25523602.44847  21024442.2364   21024455.4944
      2180.5064       1699.0954
  20275353.4194  -41334322.00449 -31211620.30347  20275350.8884   20275363.2144
       722.0784        562.6584
  20864189.6574  -42491060.19748 -32805714.65247  20864187.0724   20864199.6534
      -560.1774       -436.4994
  21505719.7064  -29242808.62548 -22763755.02947  21505716.9194   21505728.6744
     -1101.6814       -858.4574
 00  9 18  0 26 59.9990000  0  9G 3G31G20G 8G13G27G19G 1G28
  23199839.1334  -11725901.70947  -9095911.65145  23199836.8434   23199852.0884
      1586.3784       1236.1334
  22990183.6484   -9714110.51847  -5846085.37945  22990180.9334   22990198.2964
      3577.1324       2787.3614
  24362670.2584  -27745076.44746 -21050965.86544  24362668.2524   24362698.8304
     -2770.8314      -2159.0744
  22167388.5114   -1223076.01048   -687898.58946  22167385.6054   22167404.0654
      3325.4254       2591.2304
  20495425.5904  -37913725.12449 -29004695.35147  20495423.4304   20495433.5034
      2117.7724       1650.2094
  21012018.0464  -34375325.60348 -25574487.43547  21012015.6214   21012028.7114
      2175.9924       1695.5754
  20271256.9214  -41355849.29049 -31228394.74947  20271254.4784   20271266.4684
       716.0514        557.9594
  20867426.3804  -42474048.37548 -32792458.72747  20867424.1974   20867437.0364
      -570.9474       -444.8924
  21512051.0594  -29209538.55848 -22737830.19147  21512048.1544   21512059.7404
     -1113.3794       -867.5724
 00  9 18  0 27 29.9990000  0  9G 3G31G20G 8G13G27G19G 1G28
  23190855.7584  -11773111.72147  -9132698.47645  23190853.3864   23190868.1224
      1567.4444       1221.3814
  22969811.9054   -9821160.02147  -5929500.23145  22969809.7164   22969826.7064
      3566.0014       2778.6924
  24378510.0004  -27661842.51646 -20986108.77544  24378506.1124   24378537.9114
     -2771.9224      -2159.9294
  22148444.7214   -1322624.94448   -765468.87846  22148441.6984   22148460.2434
      3317.5124       2585.0644
  20483394.2524  -37976948.05849 -29053959.88047  20483392.0474   20483402.4184
      2103.5984       1639.1644
  20999637.9004  -34440385.82548 -25625183.61647  20999635.3724   20999647.9524
      2167.8374       1689.2214
  20267215.0754  -41377089.14549 -31244945.17747  20267212.6094   20267224.6524
       706.3974        550.4364
  20870746.6704  -42456605.04548 -32778866.55547  20870743.9344   20870756.4804
      -585.4724       -456.2114
  21518468.9374  -29175811.24348 -22711549.07247  21518466.0044   21518477.5054
     -1128.6564       -879.4754
 00  9 18  0 27 59.9990000  0  9G 3G31G20G 8G13G27G19G 1G28
  23181970.3084  -11819799.93147  -9169078.74745  23181968.4364   23181983.4204
      1544.9484       1203.8514
  22949497.2244   -9927916.24147  -6012686.55145  22949493.5264   22949511.8594
      3550.9744       2766.9794
  24394347.4684  -27578614.22846 -20921256.06844  24394345.1264   24394375.4934
     -2776.7254      -2163.6694
  22129537.0394   -1421981.32848   -842889.11446  22129534.4224   22129552.6874
      3305.9654       2576.0664
  20471435.1234  -38039789.58649 -29102927.20847  20471433.5074   20471444.0504
      2085.7264       1625.2394
  20987295.0364  -34505245.75348 -25675723.72547  20987292.5344   20987305.5574
      2156.0044       1680.0004
  20263219.6944  -41398084.00449 -31261304.76447  20263217.3934   20263229.3264
       693.0834        540.0664
  20874140.3424  -42438772.11348 -32764970.77847  20874137.4204   20874150.0994
      -603.5634       -470.3084
  21524964.9484  -29141670.78748 -22684946.00347  21524962.6574   21524974.5054
     -1147.5074       -894.1654
 00  9 18  0 28 29.9990000  0  9G 3G31G20G 8G13G27G19G 1G28
  23173179.5634  -11865993.88247  -9205073.83045  23173177.4284   23173192.7284
      1530.7624       1192.7954
  22929232.2934  -10034405.03447  -6095664.45345  22929229.3844   22929247.3844
      3544.3024       2761.7784
  24410179.5394  -27495423.12446 -20856432.28544  24410173.5534   24410205.6984
     -2773.1754      -2160.9114
  22110661.2404   -1521173.81448   -920181.63046  22110658.6364   22110676.9154
      3302.8514       2573.6384
  20459545.1984  -38102276.86249 -29151618.53847  20459542.9194   20459553.0114
      2076.1914       1617.8104
  20974984.9384  -34569934.30848 -25726130.29547  20974982.5244   20974995.8864
      2152.6444       1677.3814
  20259265.6904  -41418862.90749 -31277496.06747  20259263.3354   20259275.1504
       688.2044        536.2604
  20877601.6744  -42420578.47748 -32750793.94147  20877599.1504   20877612.2734
      -613.2604       -477.8634
  21531534.2054  -29107148.56048 -22658045.42747  21531531.6744   21531543.7524
     -1157.8934       -902.2604
 00  9 18  0 28 59.9990000  0  9G 3G31G20G 8G13G27G19G 1G28
  23164474.4024  -11911745.49347  -9240724.30945  23164471.2424   23164486.9874
      1515.8404       1181.1634
  22909009.9314  -10140676.57547  -6178473.06645  22909006.9944   22909024.2624
      3536.9704       2756.0644
  24425992.1614  -27412325.22046 -20791681.15344  24425989.3064   24426018.8654
     -2770.0954      -2158.5024
  22091806.5804   -1620255.64348   -997387.91246  22091804.0234   22091821.4924
      3299.0784       2570.6994
  20447711.3044  -38164461.11649 -29200073.72347  20447709.4444   20447719.8484
      2065.9744       1609.8484
  20962697.3154  -34634504.70448 -25776444.79247  20962694.9364   20962708.3344
      2148.5734       1674.2104
  20255342.6624  -41439479.32449 -31293560.71347  20255340.0994   20255352.0364
       682.7134        531.9804
  20881122.0504  -42402077.51448 -32736377.61947  20881119.8184   20881132.8214
      -623.6244       -485.9414
  21538165.8284  -29072299.88248 -22630890.52047  21538163.1584   21538175.0794
     -1168.8514       -910.7934
 00  9 18  0 29 29.9990000  0  8G 3G31G 8G13G27G19G 1G28
  23155862.9064  -11956996.16247  -9275984.43245  23155861.0614   23155875.8734
      1499.5994       1168.5134
  22888839.8294  -10246670.26547  -6261065.11845  22888836.9664   22888853.2234
      3528.0474       2749.1134
  22072983.1974   -1719169.31148  -1074463.15346  22072980.4394   22072998.1294
      3293.8994       2566.6634
  20435946.8834  -38226284.12649 -29248247.40247  20435944.8714   20435955.1844
      2054.3234       1600.7684
  20950443.3984  -34698899.82848 -25826622.72947  20950440.8244   20950454.4014
      2143.2014       1670.0234
  20251461.4684  -41459876.52149 -31309454.51447  20251458.8754   20251470.5934
       675.8444        526.6274
  20884712.2224  -42383212.03348 -32721677.23447  20884709.6034   20884722.9174
      -635.3224       -495.0574
  21544870.0904  -29037069.90448 -22603438.49147  21544867.2964   21544878.7364
     -1181.0904       -920.3344
 00  9 18  0 29 59.9990000  0  8G 3G31G 8G13G27G19G 1G28
  23147355.0504  -12001704.78147  -9310822.19845  23147352.6534   23147367.3384
      1486.8534       1158.5784
  22868731.2824  -10352343.04047  -6343407.12445  22868727.8554   22868743.9504
      3522.6584       2744.9104
  22054199.8984   -1817874.83948  -1151376.19846  22054197.2954   22054214.6364
      3292.3074       2565.4234
  20424259.2744  -38287704.59449 -29296107.40047  20424257.0164   20424267.0914
      2046.2514       1594.4784
  20938230.1934  -34763079.96948 -25876633.13947  20938227.7424   20938241.0844
      2141.3944       1668.6154
  20247628.9304  -41480014.89249 -31325146.65647  20247626.4864   20247638.0584
       672.6014        524.1014
  20888379.0794  -42363942.21648 -32706661.77147  20888376.6614   20888389.8334
      -643.4264       -501.3724
  21551653.5084  -29001420.93648 -22575659.95947  21551650.9744   21551662.4034
     -1189.6234       -926.9824
 00  9 18  0 30 29.9990000  0  8G 3G31G 8G13G27G19G 1G28
  23138929.5534  -12045980.16447  -9345322.33245  23138927.0314   23138942.2664
      1461.6634       1138.9494
  22848661.8874  -10457801.66747  -6425582.25445  22848659.0844   22848675.4684
      3504.8384       2731.0264
  22035435.0714   -1916482.29948  -1228212.82346  22035432.2714   22035450.1404
      3278.3654       2554.5594
  20412626.9644  -38348830.40049 -29343737.77147  20412624.9044   20412635.1034
      2025.6964       1578.4604
  20926037.1964  -34827155.20848 -25926561.80347  20926034.5674   20926047.8834
      2127.2284       1657.5774
  20243825.1304  -41500004.60749 -31340722.92747  20243822.4054   20243833.8474
       656.9694        511.9174
  20892102.6504  -42344378.14948 -32691417.00847  20892100.2414   20892112.8364
      -663.9274       -517.3474
  21558495.6124  -28965465.36648 -22547642.47947  21558493.0344   21558504.0804
     -1210.5114       -943.2614
 00  9 18  0 30 59.9990000  0  8G 3G31G 8G13G27G19G 1G28
  23130629.4034  -12089596.52247  -9379308.91946  23130627.3124   23130641.5304
      1446.5204       1127.1514
  22828676.8954  -10562818.71847  -6507413.29145  22828674.5604   22828690.6954
      3496.7784       2724.7494
  22016732.1364   -2014766.89048  -1304797.85846  22016729.4364   22016746.8894
      3274.3204       2551.4054
  20401094.1394  -38409434.65649 -29390961.72447  20401092.1884   20401102.5104
      2015.0464       1570.1614
  20913906.5874  -34890901.17148 -25976233.89947  20913904.1004   20913917.2924
      2122.9754       1654.2634
  20240091.6354  -41519621.65149 -31356008.74747  20240089.1324   20240100.7854
       651.2824        507.4874
  20895924.1674  -42324295.35448 -32675768.02547  20895921.5224   20895933.9944
      -674.4984       -525.5844
  21565438.1134  -28928981.10748 -22519213.00947  21565435.4974   21565446.4694
     -1221.3244       -951.6894
 00  9 18  0 31 29.9990000  0  8G 3G31G 8G13G27G19G 1G28
  23122420.7774  -12132733.53047  -9412921.95346  23122418.3524   23122432.9094
      1435.0394       1118.2094
  22808744.5444  -10667571.80547  -6589038.63645  22808740.2444   22808756.8054
      3492.4784       2721.3934
  21998056.1184   -2112909.51148  -1381272.27646  21998053.3294   21998070.6644
      3274.1494       2551.2744
  20389626.5764  -38469697.61149 -29437919.71847  20389624.4554   20389634.6004
      2008.2164       1564.8394
  20901803.9894  -34954498.79248 -26025790.38747  20901801.6304   20901814.9274
      2122.5944       1653.9664
  20236394.7944  -41539047.31549 -31371145.43847  20236392.3814   20236403.8104
       649.4594        506.0644
  20899809.3854  -42303874.99348 -32659855.98147  20899807.1144   20899819.6564
      -681.1634       -530.7794
  21572446.4954  -28892151.58248 -22490514.49947  21572443.9284   21572455.2194
     -1228.2224       -957.0604
 00  9 18  0 31 59.9980000  0  8G 3G31G 8G13G27G19G 1G28
  23114289.1294  -12175463.34247  -9446217.71345  23114286.5844   23114301.4464
      1413.3564       1101.3094
  22788846.8404  -10772128.97947  -6670511.31745  22788843.9614   22788859.8894
      3477.9034       2710.0394
  21979393.6474   -2210981.57148  -1457691.71346  21979390.8294   21979408.3484
      3263.7954       2543.2084
  20378210.3764  -38529690.52649 -29484667.26847  20378208.0944   20378218.3294
      1991.1594       1551.5474
  20889716.0094  -35018020.94348 -26075288.07047  20889713.6214   20889726.8804
      2112.0494       1645.7494
  20232720.3634  -41558355.92749 -31386190.85647  20232717.7714   20232729.3514
       637.5104        496.7514
  20903745.5524  -42283192.74948 -32643739.86747  20903742.9004   20903755.5534
      -697.9984       -543.8964
  21579505.8544  -28855055.00748 -22461607.93847  21579503.3904   21579514.5764
     -1245.2584       -970.3364
 00  9 18  0 32 29.9980000  0  8G 3G31G 8G13G27G19G 1G28
  23106284.0874  -12217530.01347  -9478996.71745  23106281.7704   23106296.1644
      1393.8384       1086.0934
  22769034.7974  -10876236.26447  -6751633.43645  22769032.2064   22769048.8464
      3465.3394       2700.2494
  21960792.2804   -2308731.75048  -1533860.33246  21960789.4944   21960806.6564
      3255.5754       2536.8004
  20366893.5664  -38589157.40449 -29531004.93247  20366891.6404   20366902.0204
      1976.1344       1539.8404
  20877690.9944  -35081214.14648 -26124529.42247  20877688.4224   20877701.5064
      2103.6324       1639.1904
  20229116.3314  -41577291.54249 -31400945.61247  20229114.0514   20229125.7714
       627.6534        489.0714
  20907780.0124  -42261989.63548 -32627217.88047  20907777.4664   20907790.3834
      -712.7674       -555.4054
  21586664.8694  -28817433.50848 -22432292.32147  21586662.2544   21586673.4454
     -1260.0594       -981.8694
 00  9 18  0 32 59.9980000  0  8G 3G31G 8G13G27G19G 1G28
  23098367.0344  -12259134.85747  -9511415.75146  23098364.5894   23098379.0194
      1380.7594       1075.9064
  22749271.2014  -10980090.74747  -6832558.57245  22749268.8154   22749285.5804
      3459.2034       2695.4654
  21942213.2314   -2406360.44848  -1609934.30446  21942210.7224   21942228.2724
      3253.8014       2535.4174
  20355639.2084  -38648299.03349 -29577089.15847  20355637.1314   20355647.3644
      1967.5814       1533.1754
  20865689.5574  -35144280.14148 -26173671.64747  20865687.1684   20865700.2864
      2101.7154       1637.6964
  20225544.7944  -41596057.84649 -31415568.44347  20225542.5554   20225554.4604
       624.3274        486.4804
  20911875.1404  -42240470.31548 -32610449.50647  20911872.6624   20911885.2334
      -720.9264       -561.7644
  21593884.1184  -28779494.69848 -22402729.46047  21593881.4924   21593892.7884
     -1268.3064       -988.2964
 00  9 18  0 33 29.9980000  0  8G 3G31G 8G13G27G19G 1G28
  23090532.4654  -12300305.87847  -9543496.88046  23090529.3744   23090544.5804
      1367.2684       1065.3974
  22729551.1974  -11083718.20847  -6913306.80445  22729549.1544   22729564.8914
      3452.6094       2690.3314
  21923652.9464   -2503896.77948  -1685936.31346  21923650.0064   21923667.2634
      3251.7914       2533.8544
  20344441.1904  -38707142.83549 -29622941.28347  20344439.1334   20344449.5554
      1958.6204       1526.1914
  20853706.8144  -35207247.99848 -26222737.39847  20853704.5804   20853717.7414
      2099.4464       1635.9274
  20222000.3244  -41614684.19249 -31430082.24047  20221997.9304   20222009.8984
       620.7014        483.6564
  20916025.7244  -42218663.92948 -32593457.41447  20916022.7034   20916035.0404
      -729.5034       -568.4474
  21601157.7094  -28741269.60548 -22372943.48947  21601155.2384   21601166.7514
     -1276.7674       -994.8904
 00  9 18  0 33 59.9980000  0  8G 3G31G 8G13G27G19G 1G28
  23082793.3414  -12340972.14347  -9575184.64446  23082791.1064   23082806.0064
      1342.2414       1045.8984
  22709889.0174  -11187045.93547  -6993821.50745  22709886.3854   22709901.7084
      3434.3364       2676.0944
  21905122.9264   -2601270.49748  -1761811.61946  21905120.3174   21905137.1714
      3238.1614       2523.2314
  20333314.0954  -38765616.65249 -29668505.09647  20333311.9284   20333322.5724
      1938.0654       1510.1744
  20841756.5594  -35270048.08848 -26271672.41147  20841754.1884   20841767.1734
      2085.6644       1625.1894
  20218496.1644  -41633101.12349 -31444432.89547  20218493.5774   20218504.9684
       605.5324        471.8384
  20920242.1794  -42196501.07448 -32576187.56947  20920239.8044   20920252.2274
      -749.6004       -584.1084
  21608499.4644  -28702691.04548 -22342882.16247  21608496.6214   21608507.9634
     -1296.7054      -1010.4244
 00  9 18  0 34 29.9980000  0  8G 3G31G 8G13G27G19G 1G28
  23075162.5554  -12381073.92948  -9606432.52446  23075159.5934   23075173.9604
      1333.3154       1038.9334
  22690294.9824  -11290012.29047  -7074054.62245  22690292.2374   22690307.4144
      3432.1094       2674.3644
  21886634.8804   -2698423.24548  -1837514.75146  21886632.3434   21886649.0504
      3240.6694       2525.1864
  20322268.4104  -38823661.20049 -29713734.45847  20322266.3514   20322276.7514
      1933.6184       1506.7114
  20829849.4574  -35332621.85148 -26320431.04547  20829846.9684   20829859.5354
      2088.0184       1627.0214
  20215042.1274  -41651250.36949 -31458574.96947  20215039.5994   20215051.2114
       606.5094        472.5994
  20924538.1104  -42173923.35748 -32558594.46747  20924535.7154   20924548.1154
      -753.4924       -587.1404
  21615918.3934  -28663702.83448 -22312501.62347  21615915.8444   21615926.9184
     -1300.4264      -1013.3234
 00  9 18  0 34 59.9980000  0  8G 3G31G 8G13G27G19G 1G28
  23067623.7204  -12420690.93147  -9637302.65446  23067620.9424   23067635.1614
      1314.6414       1024.3884
  22670755.0684  -11392694.40247  -7154066.23645  22670751.9654   22670767.5854
      3420.1364       2665.0294
  21868174.6014   -2795435.25248  -1913108.22746  21868171.7374   21868188.4254
      3233.4974       2519.5994
  20311289.6594  -38881354.63649 -29758690.18147  20311287.5934   20311297.7974
      1919.4594       1495.6754
  20817969.6544  -35395049.98148 -26369076.21047  20817967.0874   20817979.4944
      2080.7064       1621.3274
  20211623.8834  -41669212.66249 -31472571.38347  20211621.4974   20211632.8094
       597.8204        465.8274
  20928898.7664  -42151011.46548 -32540740.97947  20928895.9514   20928908.3074
      -767.1024       -597.7444
  21623399.9254  -28624388.02048 -22281866.67747  21623397.1724   21623408.1454
     -1313.7594      -1023.7064
 00  9 18  0 35 29.9980000  0  8G 3G31G 8G13G27G19G 1G28
  23060191.8434  -12459741.27547  -9667731.24646  23060189.4174   23060203.5194
      1290.0454       1005.2264
  22651283.7464  -11495008.88347  -7233791.41445  22651281.7804   22651297.1444
      3402.1734       2651.0344
  21849755.0364   -2892226.04848  -1988529.33546  21849752.5004   21849769.4484
      3220.5094       2509.4794
  20300392.7894  -38938615.92649 -29803309.17347  20300390.8814   20300401.0534
      1899.3114       1479.9784
  20806132.4244  -35457252.21548 -26417545.35347  20806129.9124   20806142.6584
      2067.4874       1611.0244
  20208256.2874  -41686907.87949 -31486359.70347  20208253.8534   20208265.4104
       583.2274        454.4584
  20933336.8134  -42127685.18748 -32522564.61647  20933334.3384   20933347.0124
      -786.5974       -612.9344
  21630958.4124  -28584668.26548 -22250916.21547  21630955.8254   21630966.5514
     -1332.8914      -1038.6134
 00  9 18  0 35 59.9980000  0  8G 3G31G 8G13G27G19G 1G28
  23052863.5124  -12498250.76447  -9697738.37046  23052860.9764   23052874.6134
      1275.2304        993.6814
  22631879.1234  -11596979.33747  -7313248.54145  22631876.5104   22631892.7544
      3393.8814       2644.5674
  21831373.2404   -2988822.38548  -2063798.93246  21831370.4944   21831387.7624
      3217.2274       2506.9204
  20289573.6334  -38995469.69649 -29847610.63047  20289571.7284   20289581.9384
      1888.9504       1471.9034
  20794333.1974  -35519255.24148 -26465859.26547  20794330.9674   20794343.9694
      2064.0644       1608.3564
  20204934.6124  -41704363.18649 -31499961.10447  20204932.1834   20204943.4244
       578.4524        450.7394
  20937849.3804  -42103971.66848 -32504086.50247  20937846.8354   20937859.4914
      -796.3164       -620.5084
  21638588.3114  -28544572.98248 -22219673.14247  21638585.7044   21638596.2564
     -1342.1694      -1045.8474
 00  9 18  0 36 29.9980000  0  8G 3G31G 8G13G27G19G 1G28
  23045623.8694  -12536292.53247  -9727380.97246  23045621.7204   23045635.1284
      1260.1364        981.9114
  22612528.3394  -11698676.05347  -7392492.36445  22612524.7724   22612540.7074
      3385.1814       2637.7884
  21813013.9614   -3085297.97148  -2138974.45046  21813011.3884   21813028.4204
      3213.7534       2504.2124
  20278818.7524  -39051988.68749 -29891651.22447  20278816.5894   20278826.6184
      1878.2494       1463.5654
  20782558.5634  -35581133.11048 -26514075.62047  20782556.2294   20782568.7564
      2060.3864       1605.4894
  20201644.4674  -41721652.99649 -31513433.63847  20201641.9124   20201653.2414
       573.4614        446.8514
  20942421.4694  -42079945.06148 -32485364.42747  20942418.8894   20942431.7254
      -806.2144       -628.2204
  21646275.0204  -28504178.14348 -22188196.54647  21646272.3444   21646282.9764
     -1351.5684      -1053.1734
 00  9 18  0 36 59.9980000  0  8G 3G31G 8G13G27G19G 1G28
  23038485.3084  -12573805.07047  -9756611.17846  23038483.0734   23038497.3814
      1240.0044        966.2334
  22593238.7804  -11800035.64447  -7471473.51445  22593236.7904   22593252.1704
      3371.4824       2627.1154
  21794689.8314   -3181591.98848  -2214008.48246  21794687.2544   21794704.0624
      3205.1494       2497.5074
  20268138.9454  -39108109.93349 -29935381.90247  20268137.0014   20268146.9714
      1862.5414       1451.3244
  20770819.0714  -35642825.12748 -26562147.15847  20770816.6404   20770828.9134
      2051.7594       1598.7674
  20198396.7654  -41738716.65249 -31526729.89347  20198394.6554   20198405.9484
       563.4504        439.0484
  20947064.6724  -42055544.82948 -32466351.22947  20947062.0414   20947075.1094
      -821.0964       -639.8154
  21654030.2564  -28463425.51448 -22156441.17947  21654027.4214   21654037.9774
     -1365.8944      -1064.3344
 00  9 18  0 37 29.9980000  0  8G 3G31G 8G13G27G19G 1G28
  23031451.7254  -12610768.39448  -9785413.42446  23031449.3084   23031462.7434
      1224.0144        953.7614
  22574018.7144  -11901036.29747  -7550174.98545  22574016.4194   22574031.5904
      3361.6994       2619.4934
  21776404.2114   -3277685.26348  -2288886.09046  21776401.2824   21776417.8534
      3200.7934       2494.1154
  20257538.9414  -39163813.58649 -29978787.18747  20257536.8534   20257546.8384
      1850.8794       1442.2394
  20759118.1844  -35704312.46448 -26610059.21047  20759115.8244   20759128.2314
      2047.2274       1595.2364
  20195196.5754  -41755535.63349 -31539835.51447  20195194.1554   20195205.5714
       557.6094        434.5004
  20951782.7594  -42030752.43448 -32447032.44947  20951780.1574   20951792.9554
      -831.8594       -648.2034
  21661856.4324  -28422298.74448 -22124394.30547  21661853.3734   21661863.5494
     -1376.0374      -1072.2444
 00  9 18  0 37 59.9980000  0  8G 3G31G 8G13G27G19G 1G28
  23024534.1204  -12647116.45448  -9813736.23846  23024531.8784   23024545.2304
      1202.7644        937.2024
  22554879.9734  -12001609.29847  -7628543.24445  22554877.2474   22554892.2574
      3346.6954       2607.8044
  21758168.5534   -3373512.83148  -2363556.65946  21758165.7464   21758182.1314
      3191.1994       2486.6414
  20247031.0124  -39219032.70849 -30021814.92747  20247028.8704   20247038.6464
      1833.9364       1429.0354
  20747468.7594  -35765530.00048 -26657761.03547  20747466.3794   20747478.8904
      2037.5064       1587.6624
  20192054.9164  -41772044.96949 -31552699.89847  20192052.5554   20192064.1034
       546.5494        425.8804
  20956587.6864  -42005502.93748 -32427357.49647  20956584.8924   20956597.5594
      -847.8644       -660.6754
  21669764.9584  -28380735.14648 -22092007.06047  21669762.6314   21669773.5874
     -1391.3354      -1084.1544
 00  9 18  0 38 29.9980000  0  8G 3G31G 8G13G27G19G 1G28
  23017702.0634  -12683014.17348  -9841708.09746  23017700.4334   23017714.2724
      1185.4434        923.7104
  22535792.4314  -12101917.10947  -7706704.88645  22535789.2684   22535804.2314
      3335.5414       2599.1174
  21739952.3154   -3469239.93548  -2438148.94646  21739949.5184   21739965.5264
      3185.5234       2482.2174
  20236584.1344  -39273931.34649 -30064592.92847  20236582.0194   20236591.6944
      1820.9404       1418.9084
  20735839.4424  -35826643.31948 -26705381.64447  20735836.8654   20735849.3974
      2031.7654       1583.1904
  20188940.8564  -41788410.50749 -31565452.21347  20188938.4114   20188949.8654
       539.4744        420.3684
  20961447.7084  -41979962.32448 -32407455.71647  20961445.0864   20961457.7974
      -859.8284       -669.9974
  21677725.7264  -28338902.33048 -22059410.06147  21677723.1524   21677733.8234
     -1402.5294      -1092.8814
 00  9 18  0 38 59.9980000  0  8G 3G31G 8G13G27G19G 1G28
  23010978.3994  -12718349.82848  -9869242.08546  23010975.8974   23010989.4364
      1173.9484        914.7574
  22516775.9324  -12201845.95947  -7784571.25245  22516773.6274   22516788.9264
      3330.1044       2594.8784
  21721775.4814   -3564755.80248  -2512576.63046  21721772.7554   21721789.4154
      3185.7524       2482.3964
  20226219.0624  -39328396.94249 -30107033.52447  20226217.2904   20226227.2434
      1813.7284       1413.2924
  20724250.3524  -35887541.76648 -26752834.83347  20724247.8784   20724260.9784
      2031.8384       1583.2464
  20185874.7724  -41804521.88749 -31578006.49847  20185872.3084   20185883.8754
       538.2514        419.4144
  20966384.1764  -41954020.11148 -32387241.00747  20966381.6454   20966394.5234
      -865.9704       -674.7814
  21685758.1084  -28296691.93048 -22026518.64547  21685755.4144   21685766.2734
     -1407.8034      -1096.9874
 00  9 18  0 39 29.9980000  0  8G 3G31G 8G13G27G19G 1G28
  23004350.9094  -12753178.40948  -9896380.95346  23004348.1054   23004361.9324
      1152.3954        897.9584
  22497822.1114  -12301449.00147  -7862183.76945  22497819.5384   22497834.8414
      3314.5624       2582.7654
  21703628.9704   -3660116.22348  -2586883.19246  21703626.5274   21703642.6074
      3175.9644       2474.7694
  20215926.5974  -39382484.55349 -30149179.61647  20215924.6264   20215934.3744
      1796.5044       1399.8694
  20712691.7804  -35948281.34548 -26800164.23947  20712689.4494   20712702.2214
      2021.9384       1575.5314
  20182846.7704  -41820435.40649 -31590406.59347  20182844.3354   20182855.6614
       527.0664        410.6974
  20971386.7324  -41927732.58948 -32366757.24647  20971384.2084   20971396.8984
      -882.0834       -687.3374
  21693850.9504  -28254163.14748 -21993379.47247  21693848.6354   21693859.3904
     -1423.0264      -1108.8484
 00  9 18  0 39 59.9980000  0  8G 3G31G 8G13G27G19G 1G28
  22997833.1124  -12787424.03748  -9923065.56246  22997830.9614   22997845.1494
      1135.1194        884.4974
  22478945.1764  -12400647.86947  -7939481.35345  22478942.4684   22478957.6974
      3303.1834       2573.9004
  21685526.2754   -3755246.19448  -2661010.17946  21685523.4494   21685539.5204
      3170.3744       2470.4134
  20205720.6084  -39436117.65449 -30190971.51947  20205718.4824   20205728.4964
      1783.4534       1389.7014
  20701177.9054  -36008787.05448 -26847311.41647  20701175.4444   20701188.3434
      2016.2164       1571.0734
  20179870.1744  -41836076.37349 -31602594.28447  20179867.7274   20179879.0134
       520.0834        405.2574
  20976468.8584  -41901024.93648 -32345946.10647  20976466.4144   20976478.8974
      -893.9794       -696.6054
  21702018.4914  -28211242.71048 -21959935.01347  21702015.8824   21702026.5594
     -1433.9174      -1117.3374
 00  9 18  0 40 29.9980000  0  8G 3G31G 8G13G27G19G 1G28
  22991404.5814  -12821208.77448  -9949391.10946  22991402.1154   22991415.9064
      1116.2894        869.8324
  22460121.3384  -12499562.32247  -8016557.33545  22460118.9434   22460134.7124
      3290.2294       2563.8034
  21667444.3534   -3850268.38248  -2735053.19446  21667441.5064   21667457.3074
      3163.4354       2465.0064
  20195578.0384  -39489416.70649 -30232503.15247  20195575.9604   20195585.7304
      1768.8644       1378.3344
  20689685.3144  -36069181.56948 -26894371.94347  20689682.8834   20689695.4544
      2009.1104       1565.5364
  20176921.9684  -41851567.68149 -31614665.36547  20176919.6434   20176931.1904
       511.7154        398.7374
  20981607.8604  -41874020.29948 -32324903.55247  20981605.3064   20981618.0824
      -907.2784       -706.9714
  21710236.2474  -28168055.46448 -21926282.58547  21710233.8754   21710244.7754
     -1446.1684      -1126.8874
 00  9 18  0 40 59.9980000  0  8G 3G31G 8G13G27G19G 1G28
  22985082.6334  -12854433.51948  -9975280.47146  22985079.7844   22985093.3804
      1099.9634        857.1114
  22441372.2554  -12598090.54547  -8093332.36545  22441369.8354   22441385.3624
      3279.6224       2555.5414
  21649401.0034   -3945083.90648  -2808935.19646  21649398.2314   21649414.4044
      3158.8434       2461.4304
  20185518.4364  -39542282.07749 -30273696.84647  20185516.2904   20185525.7764
      1756.7284       1368.8754
  20678232.4134  -36129366.54748 -26941269.21047  20678230.0084   20678242.1924
      2004.4974       1561.9394
  20174021.0384  -41866811.15649 -31626543.27947  20174018.8624   20174030.3934
       505.7604        394.0944
  20986821.5794  -41846620.44948 -32303553.06947  20986819.3134   20986832.0024
      -918.1394       -715.4314
  21718523.2654  -28124505.56948 -21892347.54246  21718521.1094   21718532.0244
     -1455.8804      -1134.4534
 00  9 18  0 41 29.9980000  0  8G 3G31G 8G13G27G19G 1G28
  22978867.3894  -12887091.25448 -10000727.90046  22978865.0294   22978878.2294
      1081.8554        842.9994
  22422698.0214  -12696223.48247  -8169799.39745  22422695.4784   22422710.3964
      3267.2214       2545.8834
  21631398.6054   -4039686.88948  -2882651.57946  21631396.0224   21631412.1024
      3152.5774       2456.5504
  20175542.3034  -39594706.33049 -30314546.82247  20175539.9424   20175549.7744
      1742.8164       1358.0364
  20666820.9144  -36189336.02948 -26987998.56047  20666818.2254   20666830.2704
      1998.1254       1556.9784
  20171168.6974  -41881801.04349 -31638223.59347  20171166.2404   20171177.8624
       498.1594        388.1724
  20992112.0044  -41818820.05948 -32281890.46847  20992109.7454   20992122.3154
      -930.6154       -725.1524
  21726880.2834  -28080589.65748 -21858127.23047  21726877.9854   21726888.7714
     -1467.2474      -1143.3144
 00  9 18  0 41 59.9980000  0  8G 3G31G 8G13G27G19G 1G28
  22972742.5084  -12919277.37948 -10025807.87746  22972740.2854   22972753.5804
      1066.6344        831.1404
  22404081.3364  -12794054.02647  -8246030.79545  22404078.6114   22404093.9844
      3257.5964       2538.3804
  21613418.3884   -4134172.91248  -2956276.84146  21613415.5034   21613431.2784
      3149.1914       2453.9084
  20165632.0664  -39646783.38149 -30355126.26447  20165630.1004   20165639.5904
      1731.8014       1349.4534
  20655431.0144  -36249185.82948 -27034634.67647  20655428.6564   20655440.9004
      1994.6774       1554.2914
  20168345.9114  -41896633.62449 -31649781.32447  20168343.5844   20168355.3234
       493.4304        384.4884
  20997460.3104  -41790715.40048 -32259990.77847  20997457.7294   20997470.6314
      -940.1964       -732.6194
  21735288.6694  -28036405.71048 -21823698.01047  21735285.9704   21735296.8694
     -1475.5334      -1149.7714
 00  9 18  0 42 29.9980000  0  8G 3G31G 8G13G27G19G 1G28
  22966723.8504  -12950903.78248 -10050451.74446  22966721.5884   22966735.2204
      1043.9814        813.4874
  22385539.4474  -12891491.99447  -8321956.29045  22385537.0424   22385552.6244
      3240.4624       2525.0274
  21595476.6754   -4228454.74048  -3029742.99946  21595473.9074   21595489.6564
      3138.4094       2445.5064
  20155805.0204  -39698425.42449 -30395366.70747  20155802.9674   20155812.4734
      1713.2254       1334.9764
  20644080.8764  -36308828.59048 -27081109.47347  20644078.7624   20644091.2404
      1983.7624       1545.7864
  20165569.8614  -41911221.81249 -31661148.62247  20165567.5024   20165579.1444
       481.3404        375.0674
  21002883.1554  -41762219.43748 -32237786.17947  21002880.5614   21002893.2144
      -957.2324       -745.8934
  21743763.5004  -27991869.02248 -21788993.94547  21743760.7784   21743771.6194
     -1491.3154      -1162.0694
 00  9 18  0 42 59.9980000  0  8G 3G31G 8G13G27G19G 1G28
  22960810.4424  -12981981.42848 -10074667.99946  22960807.7804   22960821.3564
      1029.4014        802.1334
  22367071.4664  -12988545.83747  -8397582.48345  22367068.9284   22367083.1994
      3231.4184       2517.9804
  21577571.5384   -4322543.78648  -3103058.94246  21577569.0954   21577585.0394
      3135.6894       2443.3894
  20146058.8164  -39749642.27349 -30435275.86047  20146056.7954   20146066.0684
      1702.7874       1326.8454
  20632768.9974  -36368276.05148 -27127432.07047  20632766.5294   20632778.6254
      1981.0034       1543.6364
  20162838.2734  -41925577.49849 -31672334.73547  20162835.8424   20162847.0774
       477.3054        371.9214
  21008377.7934  -41733344.19248 -32215286.03647  21008375.0364   21008388.0434
      -966.1274       -752.8244
  21752302.7624  -27946993.59548 -21754025.92247  21752300.1824   21752311.2344
     -1498.7714      -1167.8774
 00  9 18  0 43 29.9980000  0  8G 3G31G 8G13G27G19G 1G28
  22954995.8364  -13012536.15448 -10098476.85946  22954992.7514   22955006.5924
      1004.7854        782.9494
  22348669.9764  -13085238.95647  -8472927.58545  22348667.6334   22348682.1524
      3212.1394       2502.9584
  21559698.8414   -4416466.44148  -3176245.23746  21559696.0724   21559711.8744
      3123.0394       2433.5314
  20136388.4774  -39800458.62549 -30474872.97947  20136386.4674   20136395.9464
      1682.2384       1310.8334
  20621489.0634  -36427554.77148 -27173623.17947  20621486.3454   20621497.9954
      1968.2074       1533.6664
  20160145.2264  -41939727.57349 -31683360.66047  20160142.8384   20160154.1374
       463.2764        360.9914
  21013939.3984  -41704116.34348 -32192511.14947  21013936.9904   21013949.8724
      -985.0864       -767.5994
  21760901.3794  -27901808.35048 -21718816.46346  21760898.5154   21760909.4404
     -1516.2354      -1181.4854
 00  9 18  0 43 59.9980000  0  8G 3G31G 8G13G27G19G 1G28
  22949304.6644  -13042440.69648 -10121779.17646  22949302.6274   22949316.0124
       987.1764        769.2294
  22330363.5294  -13181441.54347  -8547890.44445  22330360.6724   22330376.1444
      3199.7364       2493.2934
  21541882.1394   -4510095.96448  -3249203.13146  21541879.2074   21541895.4474
      3117.2144       2428.9934
  20126819.3754  -39850746.31649 -30514058.15247  20126817.2544   20126826.2684
      1668.6054       1300.2094
  20610264.3614  -36486537.93248 -27219583.98047  20610262.0674   20610274.0034
      1962.3474       1529.0994
  20157515.6684  -41953545.29149 -31694127.60847  20157513.3854   20157524.5934
       456.2064        355.4844
  21019592.5184  -41674409.91648 -32169363.35046  21019589.8644   21019602.7164
      -997.0244       -776.8984
  21769582.0284  -27856189.16748 -21683268.96846  21769579.6604   21769590.4704
     -1526.7014      -1189.6374
 00  9 18  0 44 29.9980000  0  8G 3G31G 8G13G27G19G 1G28
  22943700.4264  -13071893.60848 -10144729.49546  22943697.8284   22943711.6004
       970.1144        755.9284
  22312113.0204  -13277350.19147  -8622624.26545  22312110.1464   22312124.6004
      3187.9134       2484.0794
  21524082.4094   -4603631.81448  -3322088.04446  21524079.7424   21524095.9744
      3112.0864       2424.9974
  20117312.7014  -39900703.40549 -30552985.68147  20117310.6884   20117319.8074
      1655.5534       1290.0394
  20599059.0384  -36545425.02648 -27265469.93147  20599056.4244   20599068.2544
      1957.1274       1525.0314
  20154911.7964  -41967230.38349 -31704791.22447  20154909.3074   20154920.1344
       449.7974        350.4884
  21025298.4464  -41644424.93348 -32145998.49347  21025296.1944   21025308.7314
     -1008.2924       -785.6814
  21778307.6814  -27810338.01548 -21647540.76346  21778304.9804   21778315.4584
     -1536.3784      -1197.1814
 00  9 18  0 44 59.9980000  0  8G 3G31G 8G13G27G19G 1G28
  22938212.8454  -13100730.33048 -10167199.65946  22938210.6264   22938223.9494
       957.4604        746.0734
  22293949.2334  -13372798.00847  -8696998.99146  22293946.6054   22293961.7144
      3180.3944       2478.2234
  21506332.0504   -4696909.74848  -3394771.99146  21506329.4324   21506345.0004
      3111.4604       2424.5114
  20107900.4234  -39950164.16649 -30591526.46747  20107898.3934   20107907.7434
      1646.9254       1283.3154
  20587902.4604  -36604052.13548 -27311153.29847  20587899.8564   20587911.7954
      1956.4254       1524.4844
  20152363.6174  -41980619.11049 -31715223.90647  20152361.3514   20152372.1664
       447.8494        348.9704
  21031088.4114  -41613997.71448 -32122289.04946  21031086.1644   21031099.1794
     -1015.0914       -790.9774
  21787107.5154  -27764092.98448 -21611505.59746  21787104.9564   21787115.4834
     -1541.5474      -1201.2084
 00  9 18  0 45 29.9980000  0  8G 3G31G 8G13G27G19G 1G28
  22932804.7774  -13129144.50948 -10189340.55946  22932803.3824   22932816.9964
       937.6224        730.6164
  22275837.0914  -13467975.80047  -8771163.32946  22275834.9414   22275849.8084
      3165.6284       2466.7184
  21488594.6334   -4790123.78648  -3467406.15246  21488591.6504   21488606.4394
      3103.5704       2418.3594
  20098546.3174  -39999322.18649 -30629831.34247  20098544.0804   20098553.1504
      1631.0904       1270.9774
  20576758.4394  -36662613.29048 -27356785.25547  20576755.9094   20576767.7554
      1948.5164       1518.3214
  20149835.1384  -41993906.23949 -31725577.45147  20149832.8124   20149844.1074
       438.7604        341.8934
  21036925.8164  -41583322.84648 -32098386.63446  21036923.3124   21036936.3604
     -1029.0754       -801.8744
  21795944.8474  -27717651.10448 -21575317.12346  21795942.3064   21795952.9534
     -1553.7944      -1210.7494
 00  9 18  0 45 59.9980000  0  8G 3G31G 8G13G27G19G 1G28
  22927521.8704  -13156910.43148 -10210976.36646  22927519.9044   22927533.3394
       912.7184        711.2084
  22257819.8814  -13562655.50047  -8844939.53146  22257817.5224   22257832.2064
      3145.6654       2451.1614
  21470910.9244   -4883048.60648  -3539814.94846  21470908.1674   21470923.2524
      3090.6104       2408.2634
  20089292.7464  -40047950.20449 -30667723.22447  20089290.5134   20089299.5344
      1610.0514       1254.5834
  20565669.7414  -36720883.27748 -27402190.31447  20565667.4974   20565679.3764
      1935.4624       1508.1474
  20147369.0984  -42006866.31349 -31735676.14347  20147366.8904   20147377.2994
       424.5174        330.7874
  21042853.1254  -41552175.37848 -32074115.95746  21042850.6694   21042863.5454
     -1048.1324       -816.7234
  21804862.1594  -27670789.28548 -21538801.40546  21804859.5814   21804870.6074
     -1571.0534      -1224.1974
 00  9 18  0 46 29.9980000  0  9G 3G31G 8G13G27G19G 1G28G 2
  22922343.6194  -13184130.10448 -10232186.50446  22922340.4364   22922353.4574
       900.5214        701.7054
  22239879.1884  -13656936.93448  -8918405.40046  22239876.0414   22239890.7704
      3138.3504       2445.4634
  21453263.3954   -4975786.74948  -3612078.29546  21453260.5964   21453275.6524
      3090.4344       2408.1264
  20080120.4084  -40096149.72548 -30705281.21847  20080118.3444   20080127.2054
      1601.7804       1248.1374
  20554617.1914  -36778964.72748 -27447448.42247  20554614.8954   20554626.6804
      1935.2144       1507.9534
  20144945.8184  -42019602.52149 -31745600.36747  20144943.2394   20144954.0374
       423.1034        329.6874
  21048851.0344  -41520658.50548 -32049557.43546  21048848.4054   21048861.2944
     -1054.3744       -821.5874
  21813839.5304  -27623612.64648 -21502040.38646  21813837.0144   21813848.1804
     -1575.4704      -1227.6404
  24356680.7154   -4365456.50057  -3084632.54845  24356677.8354   24356710.2664
      4113.9844       3205.6664
 00  9 18  0 46 59.9980000  0  9G 3G31G 8G13G27G19G 1G28G 2
  22917263.7474  -13210816.44448 -10252981.06046  22917261.4054   22917275.4284
       879.8374        685.5884
  22222012.2734  -13750830.23848  -8991568.83646  22222009.3424   22222024.1484
      3122.4034       2433.0354
  21435648.7274   -5068351.30948  -3684206.37846  21435646.1084   21435661.6364
      3081.6944       2401.3164
  20071027.5864  -40143932.32948 -30742514.30647  20071025.4464   20071034.3394
      1584.9474       1235.0214
  20543598.3124  -36836870.94648 -27492569.98847  20543595.6864   20543607.7594
      1926.4264       1501.1094
  20142562.1084  -42032128.36249 -31755360.68147  20142559.5064   20142570.3384
       413.1584        321.9404
  21054915.5654  -41488786.25748 -32024722.00146  21054913.1994   21054926.6254
     -1069.1494       -833.1004
  21822874.1824  -27576136.96248 -21465046.37546  21822871.1594   21822882.1564
     -1588.3344      -1237.6624
  24333218.8014   -4488750.60447  -3180704.62345  24333215.8254   24333248.2674
      4106.8714       3200.1174
 00  9 18  0 47 29.9980000  0  9G 3G31G 8G13G27G19G 1G28G 2
  22912275.3634  -13237030.85448 -10273407.89846  22912273.4664   22912286.1454
       867.1564        675.7064
  22204206.7014  -13844394.28548  -9064475.71646  22204203.7064   22204219.3564
      3114.5154       2426.8894
  21418055.2794   -5160803.81448  -3756247.15046  21418052.4594   21418068.1784
      3081.0244       2400.7914
  20062002.0784  -40191358.23348 -30779469.43347  20062000.2764   20062009.2904
      1576.0964       1228.1224
  20532600.4184  -36894663.75648 -27537603.24847  20532597.9684   20532610.0194
      1925.7574       1500.5854
  20140206.4434  -42044505.64549 -31765005.31747  20140204.1364   20140215.1984
       411.2904        320.4884
  21061036.4284  -41456620.77448 -31999658.07646  21061033.9414   21061047.7534
     -1075.8784       -838.3434
  21831952.9914  -27528426.55948 -21427869.60646  21831950.3604   21831961.4724
     -1593.0404      -1241.3214
  24309767.7034   -4611982.14647  -3276727.91245  24309765.0654   24309795.6524
      4107.9084       3200.9254
 00  9 18  0 47 59.9980000  0  9G 3G31G 8G13G27G19G 1G28G 2
  22907395.2154  -13262678.33448 -10293392.94046  22907393.2074   22907406.1614
       847.6244        660.4814
  22186482.9554  -13937531.46148  -9137049.97146  22186480.5834   22186495.2884
      3099.5484       2415.2284
  21400501.3334   -5253049.93548  -3828127.10246  21400498.7354   21400513.8754
      3073.4994       2394.9304
  20053063.7004  -40238331.52048 -30816071.89547  20053061.7054   20053070.5314
      1560.3534       1215.8564
  20521642.1514  -36952248.41748 -27582474.30147  20521639.7664   20521651.7364
      1918.1334       1494.6454
  20137897.2934  -42056640.34849 -31774461.02347  20137895.0544   20137905.9834
       402.5514        313.6824
  21067231.1434  -41424067.85848 -31974292.26146  21067228.9194   21067242.2524
     -1089.4154       -848.8914
  21841094.3324  -27480388.66448 -21390437.63346  21841092.0784   21841102.5364
     -1604.5914      -1250.3294
  24286346.1334   -4735055.06147  -3372627.61145  24286342.8684   24286374.9554
      4101.9334       3196.2704
 00  9 18  0 48 29.9980000  0  9G 3G31G 8G13G27G19G 1G28G 2
  22902619.5414  -13287775.74148 -10312949.33346  22902616.7314   22902630.2114
       825.4514        643.2074
  22168837.9804  -14030256.15348  -9209302.82646  22168835.4234   22168850.5974
      3081.9154       2401.4874
  21382983.7184   -5345106.69048  -3899859.51046  21382981.0784   21382996.0464
      3063.4214       2387.0784
  20044207.8684  -40284868.68748 -30852334.51747  20044205.9144   20044214.7154
      1541.9784       1201.5374
  20510720.6994  -37009642.38748 -27627196.76347  20510718.0254   20510730.0554
      1907.9994       1486.7494
  20135631.1724  -42068549.62049 -31783741.03747  20135628.7414   20135639.2344
       391.2434        304.8594
  21073496.8404  -41391145.50348 -31948638.57346  21073494.3744   21073506.8704
     -1105.5264       -861.4454
  21850294.6284  -27432043.47148 -21352766.14346  21850292.0374   21850302.9344
     -1618.5534      -1261.2024
  24262952.6514   -4857985.56547  -3468416.31145  24262950.2154   24262980.5694
      4093.3294       3189.5594
 00  9 18  0 48 59.9980000  0  9G 3G31G 8G13G27G19G 1G28G 2
  22897960.5464  -13312260.12948 -10332028.10046  22897958.0254   22897971.2554
       807.2524        629.0274
  22151284.2474  -14122502.76648  -9281183.17046  22151281.2794   22151296.0814
      3068.2094       2390.8094
  21365513.3034   -5436911.29348  -3971395.42546  21365510.7844   21365526.1614
      3057.1854       2382.2184
  20035448.0884  -40330905.42449 -30888207.20347  20035445.8434   20035453.9064
      1527.5294       1190.2804
  20499846.7044  -37066782.98148 -27671721.80347  20499844.2984   20499856.1334
      1901.7824       1481.9064
  20133419.5294  -42080170.97249 -31792796.55647  20133417.1724   20133428.1134
       383.8824        299.1274
  21079844.3204  -41357791.63948 -31922648.64846  21079841.4754   21079854.1134
     -1117.6554       -870.8964
  21859564.7674  -27383331.00348 -21314808.70446  21859562.0454   21859572.7294
     -1628.5204      -1268.9704
  24239597.4444   -4980709.60047  -3564044.15145  24239594.7254   24239625.9434
      4088.6624       3185.9294
 00  9 18  0 49 29.9980000  0  9G 3G31G 8G13G27G19G 1G28G 2
  22893404.5574  -13336202.18648 -10350684.30246  22893401.8414   22893415.5854
       785.9514        612.4314
  22133808.0264  -14214339.78848  -9352744.35146  22133805.3134   22133819.5434
      3051.3334       2377.6544
  21348077.4914   -5528535.11448  -4042790.45446  21348074.8474   21348090.5664
      3048.0104       2375.0674
  20026768.8114  -40376511.75849 -30923744.50447  20026766.8764   20026775.3884
      1510.0114       1176.6284
  20489007.8704  -37123741.40248 -27716104.89047  20489005.4744   20489017.4474
      1892.5654       1474.7234
  20131249.1174  -42091576.12549 -31801683.62347  20131246.7474   20131257.7624
       373.5674        291.0884
  21086259.1574  -41324078.12648 -31896378.48146  21086256.9804   21086270.1664
     -1132.7814       -882.6844
  21868890.1134  -27334324.94048 -21276622.42746  21868887.5844   21868898.7134
     -1641.4344      -1279.0274
  24216268.5644   -5103296.92847  -3659565.46345  24216266.2024   24216296.8424
      4080.8754       3179.8554
 00  9 18  0 49 59.9980000  0  9G 3G31G 8G13G27G19G 1G28G 2
  22888953.7324  -13359588.49448 -10368907.45046  22888951.9594   22888964.7224
       771.7274        601.3494
  22116413.0324  -14305751.40548  -9423974.04646  22116410.4574   22116424.2884
      3041.3804       2369.9044
  21330679.6334   -5619964.66848  -4114034.11446  21330676.8374   21330691.7654
      3045.7374       2373.2964
  20018174.8294  -40421673.01349 -30958934.99647  20018172.6914   20018181.3624
      1499.3504       1168.3204
  20478206.2884  -37180504.54648 -27760335.81947  20478203.8104   20478215.4774
      1890.2974       1472.9574
  20129122.2114  -42102752.43249 -31810392.38347  20129120.0854   20129131.0524
       370.1414        288.4214
  21092745.0544  -41289992.38748 -31869818.26246  21092742.7834   21092756.2524
     -1140.9654       -889.0594
  21878274.0434  -27285014.44948 -21238199.10146  21878271.4284   21878282.4064
     -1647.3294      -1283.6194
  24192969.5544   -5225733.06747  -3754968.97245  24192967.0184   24192995.8594
      4080.1084       3179.2604
 00  9 18  0 50 29.9980000  0  9G 3G31G 8G13G27G19G 1G28G 2
  22884617.9094  -13382376.86248 -10386664.66146  22884615.1514   22884628.4214
       752.0364        586.0024
  22099107.2504  -14396692.52248  -9494837.13646  22099104.6044   22099119.0034
      3025.9364       2357.8694
  21313326.1474   -5711157.88148  -4185093.61346  21313323.1194   21313338.0994
      3038.2444       2367.4584
  20009673.9754  -40466345.56649 -30993744.67947  20009672.0504   20009680.5484
      1483.3844       1155.8834
  20467449.5074  -37237030.31548 -27804381.79347  20467447.0694   20467459.0434
      1882.7074       1467.0424
  20127047.2444  -42113657.82649 -31818890.08747  20127044.7974   20127055.6054
       361.4444        281.6444
  21099310.0654  -41255493.24348 -31842935.91046  21099307.9654   21099321.3854
     -1154.4034       -899.5304
  21887723.2234  -27235359.58548 -21199507.26046  21887720.8464   21887731.4474
     -1658.4474      -1292.2884
  24169706.4534   -5347974.72647  -3850220.99345  24169703.5434   24169733.0804
      4073.9274       3174.4474
 00  9 18  0 50 59.9980000  0  9G 3G31G 8G13G27G19G 1G28G 2
  22880367.4804  -13404712.36848 -10404068.99746  22880364.8264   22880378.6994
       734.4624        572.3134
  22081864.1294  -14487305.63248  -9565444.63146  22081861.5784   22081876.0074
      3012.4534       2347.3604
  21295989.0464   -5802260.18048  -4256082.26746  21295986.5974   21296001.8024
      3032.6944       2363.1354
  20001238.4384  -40510674.42149 -31028286.56847  20001236.4104   20001244.8254
      1469.4174       1144.9984
  20456710.0354  -37293463.98748 -27848356.02247  20456707.9684   20456720.1964
      1877.1154       1462.6854
  20124995.3404  -42124438.11649 -31827290.25447  20124993.1644   20125004.2484
       354.7554        276.4284
  21105926.6304  -41220726.52348 -31815845.05646  21105924.2214   21105937.3534
     -1165.8314       -908.4354
  21897209.8434  -27185508.38248 -21160662.34146  21897207.3164   21897217.8714
     -1667.3934      -1299.2604
  24146452.9514   -5470165.98447  -3945433.73445  24146450.4114   24146481.0584
      4069.7294       3171.1784
 00  9 18  0 51 29.9980000  0  9G 3G31G 8G13G27G19G 1G28G 2
  22876202.7524  -13426597.13848 -10421122.16446  22876200.5804   22876214.3484
       722.7294        563.1704
  22064684.2614  -14577590.23848  -9635796.14946  22064681.0694   22064695.3924
      3004.7224       2341.3354
  21278669.8874   -5893273.75648  -4327001.79046  21278667.3694   21278682.6964
      3033.0084       2363.3774
  19992868.0154  -40554660.12048 -31062561.08447  19992866.1874   19992874.6674
      1461.1864       1138.5874
  20445988.7344  -37349807.85248 -27892260.29047  20445986.1984   20445998.4094
      1877.3774       1462.8894
  20122967.2714  -42135095.98349 -31835595.04447  20122964.9514   20122976.4154
       353.9734        275.8264
  21112592.6964  -41185695.07348 -31788547.92946  21112590.4434   21112603.9964
     -1171.3764       -912.7564
  21906732.4254  -27135465.58048 -21121668.16146  21906730.0654   21906740.9534
     -1670.5174      -1301.6984
  24123208.9914   -5592307.87047  -4040608.01245  24123206.5674   24123235.9124
      4071.3644       3172.4474
 00  9 18  0 51 59.9980000  0  9G 3G31G 8G13G27G19G 1G28G 2
  22872156.3144  -13447862.12748 -10437692.44646  22872154.0904   22872167.8914
       698.2844        544.1224
  22047598.2754  -14667374.92748  -9705758.12346  22047595.2604   22047609.6234
      2984.2234       2325.3664
  21261399.9814   -5984029.55848  -4397720.44646  21261397.2494   21261412.6134
      3020.6264       2353.7294
  19984595.2324  -40598132.70848 -31096435.76947  19984593.2624   19984602.0124
      1440.3024       1122.3134
  20435316.1214  -37405893.08848 -27935963.02747  20435313.5254   20435325.5754
      1865.0224       1453.2634
  20120994.4934  -42145462.80149 -31843673.22947  20120992.3124   20121003.4804
       340.4954        265.3254
  21119341.1054  -41150230.91548 -31760913.65146  21119338.9884   21119352.7304
     -1189.5614       -926.9264
  21916323.5714  -27085064.74848 -21082394.85246  21916321.1294   21916332.3894
     -1686.1734      -1313.8994
  24100007.4694   -5714230.19347  -4135611.24645  24100004.6374   24100034.1564
      4060.2004       3163.7564
 00  9 18  0 52 29.9980000  0  9G 3G31G 8G13G27G19G 1G28G 2
  22868217.1654  -13468561.98248 -10453822.41246  22868214.8834   22868228.5794
       680.1474        529.9934
  22030598.3854  -14756711.57548  -9775370.98746  22030595.3244   22030609.3454
      2970.0274       2314.3014
  21244168.1614   -6074582.60748  -4468281.12846  21244165.5154   21244180.6164
      3014.6154       2349.0474
  19976411.1904  -40641144.79649 -31129951.65847  19976408.8274   19976416.9214
      1425.6564       1110.9014
  20424681.6694  -37461774.54648 -27979506.98047  20424679.3974   20424691.2694
      1858.9324       1448.5184
  20119067.1944  -42155593.41349 -31851567.30347  20119064.7154   20119075.5674
       333.3404        259.7484
  21126161.9824  -41114389.61848 -31732985.49846  21126159.7644   21126172.7844
     -1201.4134       -936.1624
  21925971.6014  -27034363.34348 -21042887.26446  21925969.1914   21925980.4344
     -1695.4304      -1321.1144
  24076836.9724   -5835986.51747  -4230485.15245  24076834.5094   24076863.3974
      4055.3764       3159.9964
 00  9 18  0 52 59.9980000  0  9G 3G31G 8G13G27G19G 1G28G 2
  22864373.1974  -13488765.96048 -10469566.01546  22864370.7674   22864383.8834
       663.8234        517.2724
  22013670.3734  -14845666.74748  -9844686.61346  22013667.7934   22013681.0204
      2957.4844       2304.5314
  21226962.1834   -6165001.97048  -4538737.64246  21226959.4254   21226973.7744
      3010.3774       2345.7464
  19968300.2304  -40683765.47949 -31163162.53547  19968298.1474   19968306.2034
      1412.8224       1100.8974
  20414073.7224  -37517521.56348 -28022946.17147  20414071.2704   20414083.0904
      1854.6404       1445.1734
  20117170.9034  -42165557.68649 -31859331.78847  20117168.6194   20117179.4974
       328.0194        255.6054
  21133041.3744  -41078241.18148 -31704818.00346  21133038.9934   21133051.5954
     -1211.3984       -943.9434
  21935663.5774  -26983433.53948 -21003201.79146  21935660.9624   21935672.5714
     -1702.7854      -1326.8324
  24053685.9294   -5957644.69047  -4325282.61745  24053683.3414   24053711.4634
      4052.3154       3157.6154
 00  9 18  0 53 29.9980000  0  9G 3G31G 8G13G27G19G 1G28G 2
  22860650.0024  -13508328.16148 -10484809.57146  22860648.2714   22860661.5574
       644.8184        502.4654
  21996843.1084  -14934091.71248  -9913589.10546  21996840.4914   21996854.9774
      2942.0814       2292.5294
  21209808.7704   -6255142.03848  -4608976.52946  21209806.2584   21209820.9364
      3003.3974       2340.3084
  19960292.3154  -40725848.48349 -31195954.47847  19960290.3184   19960298.2874
      1397.2124       1088.7394
  20403518.7064  -37572988.62148 -28066167.24947  20403516.1334   20403528.0474
      1847.6844       1439.7554
  20115334.3044  -42175209.89849 -31866853.08547  20115331.8674   20115342.8234
       319.9474        249.3114
  21140006.7224  -41041640.47848 -31676298.09246  21140003.9644   21140016.8734
     -1224.1094       -953.8464
  21945425.7914  -26932132.25848 -20963227.21846  21945423.4274   21945434.8334
     -1712.7824      -1334.6254
  24030581.5324   -6079057.75947  -4419889.12945  24030578.0724   24030606.0704
      4046.4564       3153.0494
 00  9 18  0 53 59.9980000  0  9G 3G31G 8G13G27G19G 1G28G 2
  22857021.3194  -13527399.60448 -10499670.83446  22857018.9384   22857033.3584
       628.0994        489.4434
  21980088.7274  -15022135.05448  -9982194.24746  21980086.5084   21980100.7764
      2928.9714       2282.3114
  21192679.9154   -6345153.58448  -4679115.28346  21192677.0994   21192692.1704
      2998.7804       2336.7104
  19952357.8454  -40767542.45448 -31228443.31047  19952355.8134   19952363.9274
      1383.8944       1078.3594
  20392988.4044  -37628326.32548 -28109287.55047  20392986.0344   20392997.6604
      1843.0084       1436.1114
  20113528.1594  -42184701.19749 -31874248.95347  20113525.8954   20113536.7774
       314.2694        244.8864
  21147028.8434  -41004739.11248 -31647543.91346  21147026.1164   21147038.8594
     -1234.4444       -961.9004
  21955230.1514  -26880611.91348 -20923081.64746  21955227.6744   21955238.8914
     -1720.4174      -1340.5834
  24007494.7104   -6200375.61547  -4514421.48545  24007491.2014   24007519.9234
      4042.9484       3150.3184
 00  9 18  0 54 29.9980000  0  9G 3G31G 8G13G27G19G 1G28G 2
  22853486.3874  -13545982.87348 -10514151.65746  22853483.1984   22853497.4784
       610.8324        475.9814
  21963407.9614  -15109797.24148 -10050502.40546  21963405.1364   21963419.3084
      2915.1824       2271.5694
  21175574.9804   -6435039.49248  -4749156.14746  21175572.1494   21175587.5354
      2993.5504       2332.6344
  19944497.6364  -40808849.27248 -31260630.47847  19944495.5394   19944503.9914
      1369.9404       1067.4904
  20382482.1744  -37683537.75348 -28152309.47047  20382479.6824   20382491.4244
      1837.7684       1432.0274
  20111752.2924  -42194034.62749 -31881521.86847  20111749.9164   20111760.9134
       307.9784        239.9854
  21154106.4564  -40967540.97248 -31618558.48146  21154104.2924   21154117.8854
     -1245.3454       -970.3944
  21965074.9644  -26828878.74348 -20882770.28446  21965072.5134   21965084.0234
     -1728.4504      -1346.8304
  23984425.7224   -6321599.56847  -4608880.70245  23984423.0194   23984450.8694
      4038.6954       3147.0074
 00  9 18  0 54 59.9980000  0  9G 3G31G 8G13G27G19G 1G28G 2
  22850059.6684  -13563985.68747 -10528180.16146  22850057.1174   22850071.6524
       591.5564        460.9614
  21946816.7474  -15196983.02048 -10118439.32846  21946814.0324   21946828.2844
      2899.3704       2259.2504
  21158511.2704   -6524707.46748  -4819027.20746  21158508.6484   21158524.1874
      2986.4194       2327.0774
  19936728.5384  -40849675.44448 -31292443.12247  19936726.5984   19936734.6774
      1353.9974       1055.0614
  20372016.9664  -37738530.78148 -28195161.22047  20372014.5674   20372026.6664
      1830.6434       1426.4754
  20110023.4304  -42203118.57749 -31888600.37747  20110021.2714   20110032.1574
       299.7964        233.6114
  21161259.5074  -40929954.61548 -31589270.54146  21161256.9214   21161269.9974
     -1258.1944       -980.4054
  21974977.3844  -26776843.39348 -20842223.79846  21974974.7944   21974986.5364
     -1738.3634      -1354.5494
  23961391.8964   -6442636.39947  -4703194.15345  23961388.8904   23961417.0214
      4032.6324       3142.2784
 00  9 18  0 55 29.9980000  0  9G 3G31G 8G13G27G19G 1G28G 2
  22846736.2034  -13581447.31448 -10541786.91246  22846734.5314   22846749.0684
       574.1544        447.4034
  21930309.0904  -15283728.94748 -10186033.52346  21930306.6454   21930320.7534
      2885.2624       2248.2554
  21141481.7284   -6614196.76148  -4888759.05546  21141479.3564   21141494.4454
      2981.0314       2322.8794
  19929044.1704  -40890059.04348 -31323910.89847  19929041.8784   19929050.2864
      1339.8314       1044.0254
  20361586.1424  -37793344.58248 -28237873.33347  20361583.9564   20361596.0374
      1825.2374       1422.2644
  20108334.8214  -42211992.50549 -31895515.24047  20108332.5044   20108343.7584
       293.3934        228.6224
  21168478.1214  -40892020.08348 -31559711.30046  21168475.8704   21168488.6284
     -1269.1804       -988.9674
  21984929.1294  -26724546.55948 -20801473.39646  21984926.8794   21984938.2574
     -1746.4864      -1360.8904
  23938387.7084   -6563524.02447  -4797391.36545  23938384.2604   23938412.3684
      4028.1914       3138.8224
 00  9 18  0 55 59.9980000  0  9G 3G31G 8G13G27G19G 1G28G 2
  22843525.9014  -13598321.51148 -10554935.86046  22843524.1714   22843538.6204
       550.7684        429.1774
  21913895.1474  -15369986.28248 -10253247.00246  21913892.2984   21913906.4684
      2865.1604       2232.5924
  21124495.4864   -6703461.47448  -4958315.92346  21124492.8634   21124507.8464
      2969.8234       2314.1474
  19921451.9704  -40929953.55148 -31354997.54047  19921449.8054   19921458.5654
      1319.7394       1028.3694
  20351198.6794  -37847933.15448 -28280409.95847  20351196.3474   20351208.4604
      1813.9744       1413.4884
  20106695.2654  -42220610.46349 -31902230.68947  20106692.9294   20106703.8644
       281.0814        219.0274
  21175772.1424  -40853692.06148 -31529845.45946  21175769.7134   21175782.5834
     -1286.0234      -1002.0924
  21994938.8424  -26671944.88748 -20760485.17946  21994936.5704   21994948.4104
     -1760.3344      -1371.6834
  23915419.6064   -6684215.28147  -4891435.61545  23915416.5784   23915443.6854
      4017.9254       3130.8234
 00  9 18  0 56 29.9980000  0  9G 3G31G 8G13G27G19G 1G28G 2
  22840429.7304  -13614593.62348 -10567615.61246  22840427.6664   22840442.3744
       528.7174        411.9924
  21897577.2184  -15455737.32048 -10320065.96546  21897574.5734   21897588.7544
      2846.2984       2217.8974
  21107555.1934   -6792486.35748  -5027685.92446  21107552.1324   21107566.8424
      2959.8144       2306.3484
  19913956.9504  -40969342.47048 -31385690.23047  19913954.8594   19913963.1904
      1300.9084       1013.6964
  20340856.7434  -37902281.26148 -28322759.23147  20340854.3364   20340866.1514
      1803.9534       1405.6814
  20105107.2724  -42228957.68549 -31908735.10547  20105104.7184   20105115.8254
       270.0734        210.4554
  21183142.7204  -40814956.35048 -31499661.94746  21183140.5624   21183153.9304
     -1301.5914      -1014.2204
  22005009.4224  -26619026.13348 -20719249.93946  22005006.8454   22005018.5534
     -1772.8634      -1381.4474
  23892492.4334   -6804693.85447  -4985314.15845  23892489.8604   23892517.0914
      4008.8274       3123.7324
 00  9 18  0 56 59.9980000  0  9G 3G31G 8G13G27G19G 1G28G 2
  22837438.3214  -13630317.22348 -10579867.97446  22837436.0354   22837449.9894
       518.5594        404.0804
  21881345.7874  -15541033.10248 -10386530.18046  21881343.2424   21881357.4694
      2839.1554       2212.3264
  21090649.2184   -6881324.93648  -5096910.75946  21090646.5194   21090661.6814
      2961.7284       2307.8394
  19906547.3724  -41008278.00648 -31416029.66347  19906545.4654   19906553.6974
      1293.8714       1008.2124
  20330550.1234  -37956442.67248 -28364962.99747  20330547.6244   20330559.5874
      1805.8574       1407.1624
  20103560.1124  -42237088.19049 -31915070.77947  20103557.5654   20103568.9254
       270.9594        211.1434
  21190582.0394  -40775867.47648 -31469203.24346  21190579.4924   21190592.4824
     -1305.2694      -1017.0884
  22015129.2344  -26565846.67248 -20677811.64146  22015126.7064   22015138.7324
     -1773.3924      -1381.8554
  23869595.9314   -6925012.19947  -5079067.86545  23869593.2464   23869620.4624
      4011.5164       3125.8254
 00  9 18  0 57 29.9980000  0 10G 3G31G10G 8G13G27G19G 1G28G 2
  22834528.5334  -13645609.26148 -10591784.03346  22834526.1024   22834540.3054
       502.6034        391.6484
  21865179.3494  -15625987.64048 -10452728.45746  21865176.8474   21865191.4004
      2826.1354       2202.1804
  23270092.8464    -242142.50257   -168406.81345  23270090.1414   23270110.9794
      2896.7364       2257.1984
  21073756.9364   -6970094.00848  -5166081.44946  21073754.1174   21073770.0074
      2957.7844       2304.7674
  19899202.0754  -41046876.37148 -31446106.32747  19899200.3064   19899208.8244
      1280.9884        998.1724
  20320256.9714  -38010534.17148 -28407112.26147  20320254.3844   20320266.6334
      1801.9384       1404.1084
  20102031.8714  -42245118.69649 -31921328.35047  20102029.6004   20102040.7784
       266.0764        207.3334
  21198065.1574  -40736543.05148 -31438560.99346  21198062.5004   21198075.8624
     -1314.6794      -1024.4184
  22025275.6964  -26512525.28948 -20636262.68146  22025273.3194   22025285.5694
     -1779.7304      -1386.8004
  23846708.3854   -7045285.77847  -5172786.72045  23846705.6244   23846732.0154
      4008.4044       3123.4044
 00  9 18  0 57 59.9980000  0 10G 3G31G10G 8G13G27G19G 1G28G 2
  22831751.8694  -13660198.63748 -10603152.51546  22831749.5334   22831764.0064
       477.3284        371.9444
  21849130.3864  -15710327.43348 -10518447.68846  21849127.5344   21849142.0704
      2803.7934       2184.7724
  23253642.7494    -328589.32747   -235767.97145  23253639.5544   23253661.0814
      2873.6324       2239.1934
  21056929.6094   -7058522.39148  -5234986.66846  21056927.0834   21056942.3394
      2944.6294       2294.5174
  19891973.3284  -41084864.59848 -31475707.58747  19891971.6014   19891980.3254
      1258.8384        980.9144
  20310028.5234  -38064284.46648 -28448995.66847  20310026.0664   20310038.1914
      1788.6984       1393.7924
  20100574.1944  -42252778.55249 -31927297.15047  20100571.9224   20100583.3614
       251.8284        196.2314
  21205644.6834  -40696712.52448 -31407524.38946  21205642.0184   21205655.9814
     -1333.3834      -1038.9954
  22035500.4964  -26458793.30748 -20594393.72546  22035498.3384   22035510.1834
     -1795.1474      -1398.8154
  23823879.7604   -7165242.26047  -5266258.50845  23823878.0264   23823904.1094
      3995.9554       3113.7084
 00  9 18  0 58 29.9970000  0 10G 3G31G10G 8G13G27G19G 1G28G 2
  22829058.2434  -13674356.90448 -10614184.99246  22829055.6634   22829069.6494
       462.5374        360.4234
  21833147.1354  -15794319.02648 -10583895.57846  21833144.3044   21833158.6254
      2791.7384       2175.3754
  23237263.1174    -414664.57347   -302839.58245  23237260.4144   23237282.5214
      2860.8444       2229.2304
  21040115.8254   -7146878.90248  -5303835.89046  21040112.8944   21040128.4364
      2941.8154       2292.3224
  19884809.5594  -41122512.72648 -31505043.84647  19884807.4044   19884815.8434
      1247.0344        971.7184
  20299813.5164  -38117963.80548 -28490823.76947  20299811.1684   20299823.1424
      1785.9314       1391.6364
  20099135.4884  -42260339.42749 -31933188.66647  20099133.0504   20099144.2984
       248.0674        193.2924
  21213268.4654  -40656650.12748 -31376307.11546  21213265.9774   21213279.4984
     -1341.5964      -1045.3934
  22045751.4694  -26404927.44648 -20552420.36946  22045748.7394   22045760.5884
     -1800.1054      -1402.6764
  23801062.3124   -7285148.53847  -5359691.21245  23801059.9404   23801085.7504
      3993.9474       3112.1424
 00  9 18  0 58 59.9970000  0 10G 3G31G10G 8G13G27G19G 1G28G 2
  22826470.7544  -13687950.35448 -10624777.37846  22826468.8714   22826483.3874
       447.3214        348.5644
  21817255.6494  -15877830.30948 -10648969.20446  21817252.8244   21817266.4374
      2779.2574       2165.6504
  23220980.0284    -500236.98047   -369519.41745  23220976.8124   23220997.9754
      2847.6264       2218.9334
  21023340.4034   -7235034.39648  -5372528.46946  21023337.6794   21023352.9914
      2938.7284       2289.9174
  19877734.7894  -41159687.73848 -31534011.46447  19877732.9124   19877741.8014
      1234.8674        962.2384
  20289637.1624  -38171440.46748 -28532493.87947  20289634.8344   20289646.8824
      1782.8064       1389.1994
  20097740.9344  -42267667.36149 -31938898.72847  20097738.6144   20097750.2454
       244.0644        190.1834
  21220962.3884  -40616219.18248 -31344802.67846  21220959.8334   21220973.4564
     -1350.1254      -1052.0384
  22056053.8864  -26350791.58048 -20510236.74446  22056051.0224   22056062.5524
     -1805.3234      -1406.7424
  23778278.5484   -7404876.17047  -5452984.73345  23778276.2384   23778300.9594
      3991.5224       3110.2504
 00  9 18  0 59 29.9970000  0 10G 3G31G10G 8G13G27G19G 1G28G 2
  22823992.6724  -13700973.05948 -10634924.94346  22823990.4314   22824004.9404
       421.2644        328.2584
  21801456.8474  -15960850.16548 -10713659.90646  21801454.2394   21801468.0364
      2755.7634       2147.3434
  23204795.2864    -585296.67947   -435799.77145  23204791.5384   23204812.3754
      2823.4324       2200.0774
  21006604.6624   -7322980.57148  -5441057.96846  21006602.0604   21006617.0864
      2924.6164       2278.9214
  19870753.0354  -41196380.72748 -31562603.45947  19870750.8454   19870759.2044
      1211.7414        944.2114
  20279500.8264  -38224707.18148 -28574000.38847  20279498.2444   20279510.3324
      1768.7124       1378.2154
  20096392.1744  -42274756.92849 -31944423.18247  20096389.8594   20096401.0384
       229.0034        178.4474
  21228726.8104  -40575416.31648 -31313008.44846  21228724.3024   21228738.0044
     -1369.6204      -1067.2314
  22066407.4484  -26296384.14148 -20467841.50746  22066404.6094   22066416.0454
     -1821.4214      -1419.2824
  23755530.5594   -7524414.57947  -5546130.82945  23755527.7194   23755553.9194
      3978.1784       3099.8594
 00  9 18  0 59 59.9970000  0 10G 3G31G10G 8G13G27G19G 1G28G 2
  22821627.1764  -13713409.30848 -10644615.49446  22821624.5274   22821638.2164
       407.6534        317.6494
  21785755.7724  -16043360.44248 -10777953.53146  21785753.2414   21785767.1204
      2744.7314       2138.7504
  23188707.8644    -669825.97947   -501666.82845  23188705.4144   23188727.3654
      2811.7104       2190.9454
  20989912.5344   -7410701.08448  -5509411.62046  20989909.7574   20989924.4534
      2923.1104       2277.7484
  19863865.0384  -41232575.18148 -31590806.88047  19863863.0554   19863872.1574
      1201.0894        935.9154
  20269406.9624  -38277747.90048 -28615330.76747  20269404.7894   20269416.9874
      1767.1614       1377.0054
  20095091.5244  -42281592.14149 -31949749.40747  20095089.1214   20095100.3524
       226.4584        176.4624
  21236564.5234  -40534226.63948 -31280912.80546  21236562.5084   21236576.7064
     -1376.5104      -1072.6004
  22076814.3414  -26241691.70848 -20425224.15246  22076811.8844   22076823.9394
     -1824.9334      -1422.0224
  23732821.9244   -7643746.60047  -5639116.14745  23732819.1654   23732845.3974
      3977.2194       3099.1134
 00  9 18  1  0 29.9970000  0 10G 3G31G10G 8G13G27G19G 1G28G 2
  22819360.3454  -13725318.15548 -10653895.08146  22819358.2344   22819372.2674
       388.6914        302.8734
  21770140.5774  -16125417.37348 -10841893.89946  21770137.8454   21770151.9244
      2728.1614       2125.8394
  23172712.0074    -753882.16947   -567165.25545  23172709.4434   23172731.6064
      2794.5164       2177.5484
  20973251.2014   -7498254.83448  -5577635.32746  20973248.6474   20973263.7704
      2916.1614       2272.3324
  19857061.2624  -41268329.65848 -31618667.55647  19857059.4074   19857068.1744
      1184.9684        923.3534
  20259345.7614  -38330621.40748 -28656530.85647  20259343.4764   20259355.5784
      1760.1934       1371.5794
  20093828.0734  -42288231.68549 -31954923.10247  20093825.5694   20093836.8754
       218.5704        170.3134
  21244466.0204  -40492709.65448 -31248562.13546  21244463.6124   21244477.4154
     -1388.8064      -1082.1804
  22087264.4894  -26186775.38648 -20382432.32346  22087262.0194   22087274.4534
     -1833.7104      -1428.8624
  23710141.5224   -7762929.80547  -5731985.50645  23710139.2194   23710164.5264
      3970.8024       3094.1114
 00  9 18  1  0 59.9970000  0 10G 3G31G10G 8G13G27G19G 1G28G 2
  22817194.1104  -13736702.16748 -10662765.69346  22817191.5424   22817206.4964
       373.0584        290.6874
  21754611.1894  -16207021.03448 -10905481.07946  21754608.7934   21754623.3024
      2714.9154       2115.5164
  23156807.4114    -837466.51247   -632296.00745  23156804.4684   23156825.5564
      2780.6224       2166.7214
  20956621.6694   -7585644.31448  -5645731.01146  20956618.9574   20956634.1544
      2912.5544       2269.5244
  19850341.3654  -41303644.02948 -31646185.26547  19850339.1834   19850347.5924
      1172.1814        913.3884
  20249315.6374  -38383330.48848 -28697602.82147  20249313.3774   20249325.3074
      1756.6124       1368.7864
  20092600.7914  -42294678.91049 -31959946.93847  20092598.4624   20092610.2414
       214.0744        166.8124
  21252428.1964  -40450869.02648 -31215959.25146  21252425.9124   21252439.3054
     -1397.6854      -1089.0984
  22097756.1324  -26131640.66048 -20339470.32846  22097753.8764   22097766.3224
     -1839.0654      -1433.0334
  23687490.0214   -7881965.91847  -5824740.30345  23687486.8764   23687511.7844
      3967.7734       3091.7484
 00  9 18  1  1 29.9970000  0 10G 3G31G10G 8G13G27G19G 1G28G 2
  22815131.7094  -13747537.75248 -10671208.82946  22815129.4364   22815143.8314
       349.6324        272.4334
  21739174.5464  -16288144.94048 -10968694.41546  21739171.8414   21739186.0364
      2693.7524       2099.0274
  23140996.6494    -920553.11947   -697038.90245  23140993.9404   23141015.5514
      2758.8774       2149.7754
  20940027.9804   -7672845.43148  -5713679.90947  20940025.1494   20940040.5984
      2901.1314       2260.6214
  19843709.3764  -41338494.25648 -31673341.29647  19843707.4484   19843715.9644
      1151.5734        897.3304
  20239321.5754  -38435850.78848 -28738527.65947  20239319.1594   20239330.9994
      1745.1414       1359.8484
  20091415.1824  -42300909.88149 -31964802.25747  20091412.8774   20091424.1604
       201.7034        157.1714
  21260456.1654  -40408681.60548 -31183086.14146  21260453.7904   21260467.5234
     -1414.3834      -1102.1084
  22108294.0794  -26076265.73148 -20296321.14446  22108291.6464   22108303.7674
     -1852.2054      -1443.2714
  23664870.7154   -8000829.45047  -5917360.65445  23664867.6824   23664892.5734
      3956.8544       3083.2504
 00  9 18  1  1 59.9970000  0 10G 3G31G10G 8G13G27G19G 1G28G 2
  22813167.1514  -13757862.80448 -10679254.16046  22813164.4484   22813179.1414
       336.2254        261.9854
  21723821.9114  -16368823.87248 -11031561.03646  21723818.7874   21723833.1034
      2682.4004       2090.1814
  23125273.8574   -1003177.96947   -761422.01945  23125270.6584   23125292.8914
      2747.0004       2140.5204
  20923462.3714   -7759895.59248  -5781511.17247  20923459.7544   20923475.4064
      2899.6284       2259.4504
  19837159.1414  -41372917.27648 -31700164.44847  19837156.9544   19837165.9064
      1140.8144        888.9484
  20229356.3354  -38488219.55548 -28779334.39247  20229353.7414   20229365.3744
      1743.6134       1358.6554
  20090263.4114  -42306962.43649 -31969518.61047  20090261.0874   20090272.4424
       199.2934        155.2964
  21268543.1044  -40366185.81548 -31149972.75246  21268540.6604   21268554.0834
     -1421.1294      -1107.3654
  22118869.8874  -26020690.43248 -20253015.82146  22118867.2624   22118879.6284
     -1855.2964      -1445.6814
  23642276.4894   -8119556.89947  -6009874.96545  23642273.6154   23642299.2254
      3955.8694       3082.4764
 00  9 18  1  2 29.9970000  0 10G 3G31G10G 8G13G27G19G 1G28G 2
  22811315.8304  -13767588.43248 -10686832.40446  22811313.5904   22811328.0544
       314.9104        245.3784
  21708570.8294  -16448966.18448 -11094009.52246  21708568.3444   21708582.8544
      2663.1414       2075.1714
  23109656.3504   -1085250.35547   -825374.63945  23109653.2914   23109675.7624
      2727.2164       2125.1044
  20906943.9464   -7846705.43348  -5849155.16547  20906941.1214   20906955.9684
      2890.3224       2252.1964
  19830706.8144  -41406822.06048 -31726583.77547  19830704.9564   19830714.0594
      1122.2624        874.4904
  20219435.8304  -38540347.90448 -28819953.85047  20219433.7724   20219445.4934
      1734.3154       1351.4154
  20089162.9324  -42312747.41949 -31974026.47247  20089160.4934   20089171.6504
       189.0794        147.3384
  21276705.8824  -40323293.27848 -31116550.19646  21276702.8824   21276716.6104
     -1435.6104      -1118.6514
  22129500.0094  -25964828.38848 -20209487.14646  22129497.8514   22129510.1654
     -1866.1464      -1454.1304
  23619725.0714   -8238057.86347  -6102212.82845  23619722.1934   23619748.0994
      3947.0114       3075.5784
 00  9 18  1  2 59.9970000  0 10G 3G31G10G 8G13G27G19G 1G28G 2
  22809563.7024  -13776797.73248 -10694008.25046  22809561.2944   22809575.2884
       293.4444        228.6504
  21693407.5704  -16528652.42848 -11156102.64446  21693405.0054   21693418.9104
      2643.6514       2059.9864
  23094128.0634   -1166851.16547   -888959.76845  23094125.2144   23094146.7504
      2707.2254       2109.5244
  20890453.7844   -7933357.79548  -5916676.42447  20890451.3094   20890466.5144
      2880.8104       2244.7854
  19824337.9464  -41440291.00548 -31752663.51247  19824336.1054   19824344.8234
      1103.4184        859.8084
  20209546.3074  -38592318.30048 -28860450.26447  20209543.9914   20209556.0804
      1724.7994       1343.9984
  20088096.9924  -42318347.63849 -31978390.32347  20088094.8134   20088106.0784
       178.6544        139.2144
  21284926.8964  -40280087.70648 -31082883.73246  21284924.4514   21284938.4534
     -1450.3194      -1130.1124
  22140168.3214  -25908764.59348 -20165801.16646  22140166.0594   22140178.5314
     -1877.0584      -1462.6424
  23597203.0594   -8356413.95447  -6194437.81445  23597199.9794   23597225.2344
      3937.8304       3068.4224
 00  9 18  1  3 29.9970000  0 10G 3G31G10G 8G13G27G19G 1G28G 2
  22807926.6434  -13785397.81948 -10700709.33246  22807924.0934   22807938.8014
       277.7594        216.4314
  21678349.0314  -16607786.89148 -11217765.82046  21678346.1244   21678360.1894
      2629.8034       2049.1974
  23078708.1104   -1247885.84047   -952103.71545  23078704.6914   23078726.4294
      2692.9664       2098.4204
  20874012.6164   -8019759.44548  -5984002.31747  20874009.7114   20874025.1214
      2877.0134       2241.8264
  19818070.4004  -41473229.46648 -31778329.88647  19818068.4204   19818076.9144
      1090.3544        849.6274
  20199704.3244  -38644037.60448 -28900751.02347  20199702.0724   20199714.1494
      1720.9964       1341.0354
  20087084.3044  -42323670.15349 -31982537.80947  20087082.0894   20087093.2834
       173.9914        135.5804
  21293225.5094  -40236476.82248 -31048901.44046  21293223.4194   21293238.1154
     -1459.2364      -1137.0574
  22150893.3174  -25852408.09148 -20121886.99846  22150890.8524   22150903.0914
     -1882.1414      -1466.6034
  23574726.0694   -8474530.79647  -6286476.39745  23574723.3694   23574747.1154
      3934.4384       3065.7754
 00  9 18  1  3 59.9970000  0 10G 3G31G10G 8G13G27G19G 1G28G 2
  22806378.6134  -13793533.09548 -10707048.24646  22806376.5684   22806390.2604
       257.9894        201.0204
  21663368.3184  -16686511.22248 -11279109.41746  21663365.1184   21663379.0624
      2611.8304       2035.1904
  23063367.4604   -1328496.93347  -1014917.55645  23063364.6654   23063385.8654
      2674.6054       2084.1094
  20857590.6574   -8106053.98948  -6051244.75247  20857588.2094   20857603.5254
      2869.1954       2235.7324
  19811876.2344  -41505780.69048 -31803694.45847  19811874.0694   19811882.7664
      1073.1464        836.2164
  20189883.4914  -38695649.70048 -28940968.25547  20189880.8494   20189892.7024
      1713.2094       1334.9704
  20086097.1534  -42328859.11949 -31986581.22747  20086094.8204   20086106.1474
       165.2874        128.7984
  21301574.9084  -40192605.62248 -31014716.29846  21301572.2644   21301586.7534
     -1472.1244      -1147.1014
  22161645.7034  -25795905.77848 -20077859.33046  22161643.0344   22161655.1744
     -1891.2004      -1473.6564
  23552266.9674   -8592551.11147  -6378439.79345  23552264.1684   23552288.8064
      3927.0174       3059.9994
 00  9 18  1  4 29.9970000  0 10G 3G31G10G 8G13G27G19G 1G28G 2
  22804930.3844  -13801144.09448 -10712978.59846  22804927.6134   22804941.7264
       246.4594        192.0364
  21648477.2434  -16764762.74148 -11340084.57146  21648474.6844   21648488.3194
      2601.9994       2027.5334
  23048119.1154   -1408623.49847  -1077353.78645  23048116.6674   23048138.5734
      2664.3524       2076.1134
  20841201.3704   -8192181.48548  -6118357.00847  20841198.7124   20841213.8344
      2869.5644       2236.0224
  19805766.7764  -41537883.46848 -31828709.62347  19805764.7884   19805774.0294
      1064.1544        829.2124
  20180093.9284  -38747094.34248 -28981055.00647  20180091.4614   20180103.2464
      1713.5194       1335.2094
  20085146.5294  -42333854.48049 -31990473.78447  20085144.2054   20085155.6844
       164.7844        128.4044
  21309984.1834  -40148415.20548 -30980282.42046  21309981.8254   21309995.8304
     -1476.8374      -1150.7764
  22172436.7024  -25739199.73348 -20033672.96846  22172433.6284   22172446.1064
     -1892.0864      -1474.3494
  23529838.2554   -8710413.73447  -6470280.34945  23529835.5424   23529860.5214
      3927.5994       3060.4544
 00  9 18  1  4 59.9970000  0 10G 3G31G10G 8G13G27G19G 1G28G 2
  22803579.6584  -13808238.50448 -10718506.43446  22803577.1514   22803590.7804
       224.7954        175.1564
  21633674.6154  -16842546.57948 -11400695.31546  21633672.7814   21633686.2574
      2581.8774       2011.8534
  23032963.8534   -1488270.95247  -1139416.68145  23032960.6324   23032981.9454
      2643.8164       2060.1104
  20824842.2474   -8278149.11648  -6185344.67547  20824839.5934   20824854.4864
      2859.7254       2228.3524
  19799741.4074  -41569544.85248 -31853380.89147  19799739.7184   19799748.7864
      1044.9184        814.2234
  20170334.9734  -38798379.06548 -29021017.20447  20170332.5154   20170344.2584
      1703.7174       1327.5754
  20084231.2714  -42338664.25149 -31994221.72147  20084228.9884   20084240.3864
       154.1114        120.0894
  21318452.6984  -40103913.96948 -30945606.34646  21318450.5344   21318464.2044
     -1491.6394      -1162.3104
  22183264.0434  -25682299.96748 -19989335.68846  22183261.9384   22183273.8984
     -1902.9774      -1482.8344
  23507439.1824   -8828125.02647  -6562002.98045  23507435.7744   23507460.2534
      3918.0394       3052.9994
 00  9 18  1  5 29.9970000  0 10G 3G31G10G 8G13G27G19G 1G28G 2
  22802347.4784  -13814711.32048 -10723549.90346  22802345.2054   22802359.4224
       209.1544        162.9704
  21618983.8464  -16919754.85348 -11460857.57446  21618980.6204   21618994.4104
      2567.6994       2000.8044
  23017919.2464   -1567332.57747  -1201023.04345  23017915.8324   23017936.9804
      2629.3064       2048.8064
  20808533.4984   -8363851.57348  -6252125.71347  20808530.8564   20808545.8854
      2856.0064       2225.4564
  19793821.1534  -41600657.77948 -31877624.77247  19793819.3264   19793828.5384
      1031.6964        803.9214
  20160626.5834  -38849398.09649 -29060772.39847  20160624.1474   20160635.4644
      1699.9504       1324.6414
  20083371.3844  -42343183.15249 -31997742.98047  20083369.0204   20083380.3954
       149.5134        116.5064
  21327000.2904  -40058997.31548 -30910606.59046  21326998.0224   21327011.7144
     -1500.3874      -1169.1264
  22194147.7884  -25625103.24948 -19944766.85346  22194145.9844   22194158.0434
     -1907.7464      -1486.5564
  23485087.7894   -8945578.36847  -6653524.63045  23485085.2094   23485108.1614
      3914.5364       3050.2744
 00  9 18  1  5 59.9970000  0 10G 3G31G10G 8G13G27G19G 1G28G 2
  22801199.5724  -13820745.60548 -10728251.79446  22801196.9494   22801210.7894
       195.5354        152.3624
  21604365.5214  -16996567.73248 -11520711.73646  21604362.9594   21604377.4214
      2555.4654       1991.2694
  23002951.1374   -1645989.39847  -1262313.92945  23002948.1164   23002969.7854
      2616.7774       2039.0404
  20792240.4484   -8449471.06248  -6318842.09747  20792237.6174   20792252.9134
      2854.1984       2224.0494
  19787970.8924  -41631404.71248 -31901583.47047  19787968.9214   19787977.5824
      1020.4434        795.1534
  20150934.0354  -38900333.79849 -29100462.64647  20150931.5074   20150943.0384
      1698.1224       1323.2154
  20082532.1924  -42347593.79249 -32001179.91747  20082529.8324   20082541.3034
       146.8584        114.4394
  21335592.1684  -40013848.72448 -30875426.09446  21335589.7774   21335603.3744
     -1507.1394      -1174.3884
  22205053.5864  -25567794.19348 -19900110.24646  22205051.4354   22205063.3384
     -1910.4954      -1488.7054
  23462750.9924   -9062955.15147  -6744986.65045  23462748.2984   23462772.5774
      3912.9104       3049.0104
 00  9 18  1  6 29.9970000  0 10G 3G31G10G 8G13G27G19G 1G28G 2
  22800167.6124  -13826167.26648 -10732476.28846  22800165.3784   22800179.4114
       172.6604        134.5324
  21589858.3654  -17072808.36448 -11580119.98746  21589855.5814   21589868.6014
      2533.9444       1974.4994
  22988092.8424   -1724065.42547  -1323152.24545  22988090.2724   22988112.0214
      2594.9934       2022.0644
  20775996.4604   -8534833.08948  -6385357.85647  20775993.8554   20776008.8204
      2843.2214       2215.4934
  19782223.0694  -41661609.42848 -31925119.66647  19782221.0794   19782229.4354
       999.9534        779.1854
  20141290.1594  -38951011.41649 -29139951.77447  20141287.7214   20141299.7794
      1687.1184       1314.6404
  20081746.9334  -42351721.73649 -32004396.57147  20081744.4204   20081755.8064
       135.0454        105.2314
  21344260.9584  -39968294.65948 -30839929.64146  21344258.3364   21344272.3564
     -1523.0554      -1186.7894
  22216013.6674  -25510201.11448 -19855232.44746  22216010.9494   22216022.8864
     -1922.3414      -1497.9324
  23440463.0614   -9180079.56347  -6836252.01445  23440460.0794   23440483.3184
      3902.1454       3040.6164
 00  9 18  1  6 59.9970000  0 10G 3G31G10G 8G13G27G19G 1G28G 2
  22799244.0944  -13831018.67148 -10736256.31946  22799241.8094   22799255.2814
       153.4544        119.5624
  21575451.0734  -17148516.25148 -11639113.10546  21575448.2934   21575462.2464
      2515.9214       1960.4554
  22973339.0614   -1801601.61347  -1383569.88745  22973335.7674   22973356.7844
      2576.7944       2007.8904
  20759794.0494   -8619979.62248  -6451705.72147  20759791.2134   20759806.0034
      2835.7894       2209.7044
  19776570.9344  -41691312.57248 -31948264.99547  19776568.7344   19776577.3284
       982.9634        765.9454
  20131687.1634  -39001472.92048 -29179272.42747  20131684.8864   20131696.9484
      1679.6864       1308.8464
  20081007.0004  -42355609.05849 -32007425.71747  20081004.6704   20081016.2004
       126.7774         98.7904
  21352998.5944  -39922378.39348 -30804150.95946  21352996.1404   21353010.2134
     -1535.3284      -1196.3514
  22227018.8254  -25452368.66748 -19810168.10746  22227015.8594   22227027.9434
     -1930.4764      -1504.2684
  23418214.2234   -9296992.75647  -6927352.76845  23418211.7974   23418236.5654
      3894.8164       3034.9074
 00  9 18  1  7 29.9970000  0 10G 3G31G10G 8G13G27G19G 1G28G 2
  22798412.2364  -13835389.87348 -10739662.01446  22798409.2194   22798423.3094
       135.2934        105.4094
  21561129.2984  -17223778.72048 -11697759.14046  21561126.4554   21561139.8584
      2498.8344       1947.1424
  22958668.5294   -1878686.00147  -1443635.43545  22958665.6264   22958687.9174
      2559.4344       1994.3514
  20743614.7274   -8704999.85448  -6517955.16747  20743612.2474   20743627.4794
      2829.3844       2204.7124
  19770996.5794  -41720603.80448 -31971089.35647  19770994.7374   19771003.7214
       967.0454        753.5454
  20122109.0624  -39051807.84149 -29218494.49247  20122106.5564   20122118.9654
      1673.2554       1303.8374
  20080295.9014  -42359345.19949 -32010337.05947  20080293.4884   20080305.2744
       119.5404         93.1524
  21361787.5324  -39876190.47348 -30768160.60146  21361784.8954   21361799.6084
     -1546.5354      -1205.0834
  22238051.6554  -25394388.54948 -19764988.73346  22238049.0234   22238061.6874
     -1937.5694      -1509.7964
  23395989.9744   -9413783.21947  -7018357.90545  23395987.0564   23396010.1814
      3888.4874       3029.9804
 00  9 18  1  7 59.9970000  0 10G 3G31G10G 8G13G27G19G 1G28G 2
  22797693.1294  -13839164.51448 -10742603.01146  22797691.0114   22797704.9864
       116.0274         90.4034
  21546913.8364  -17298476.28348 -11755964.99746  21546911.5114   21546925.5224
      2480.6684       1932.9854
  22944109.6184   -1955199.69047  -1503256.27345  22944106.3254   22944128.1204
      2541.1144       1980.0844
  20727482.4634   -8789776.54648  -6584014.86447  20727479.7004   20727494.8804
      2821.9544       2198.9224
  19765524.1754  -41749365.08648 -31993500.79747  19765522.0094   19765530.5654
       950.0164        740.2724
  20112576.9314  -39101898.45649 -29257526.10947  20112574.6414   20112586.6754
      1665.7834       1298.0094
  20079636.1404  -42362813.26449 -32013039.56347  20079633.8804   20079645.3524
       111.2664         86.7064
  21370650.7844  -39829614.50248 -30731867.85046  21370648.7744   21370662.8924
     -1558.8174      -1214.6554
  22249135.0164  -25336145.78048 -19719604.66746  22249132.1384   22249144.5134
     -1945.5994      -1516.0574
  23373811.0924   -9530332.40747  -7109175.07245  23373808.5624   23373831.8514
      3881.1284       3024.2444
 00  9 18  1  8 29.9970000  0 10G 3G31G10G 8G13G27G19G 1G28G 2
  22797074.3364  -13842418.26548 -10745138.13546  22797071.6474   22797085.1634
        94.6134         73.7154
  21532793.3054  -17372682.34848 -11813787.85846  21532790.7964   21532804.9274
      2460.1474       1916.9974
  22929644.2314   -2031216.59547  -1562489.97445  22929640.7234   22929662.5024
      2520.4304       1963.9684
  20711381.8014   -8874384.91448  -6649943.40347  20711378.9254   20711394.2164
      2812.2634       2191.3724
  19760137.2354  -41777670.84848 -32015557.24747  19760135.3574   19760143.9164
       930.7564        725.2664
  20103076.9544  -39151820.17349 -29296426.03947  20103074.7314   20103086.6474
      1656.0954       1290.4584
  20079013.0074  -42366088.84049 -32015592.09447  20079010.7104   20079022.0564
       100.7984         78.5474
  21379573.7684  -39782727.19348 -30695332.50846  21379570.8324   21379585.6424
     -1573.2414      -1225.8924
  22260252.5884  -25277718.41548 -19674076.82846  22260250.5254   22260262.8274
     -1955.8434      -1524.0344
  23351664.1284   -9646714.66247  -7199862.12245  23351661.7684   23351684.5824
      3871.4734       3016.7234
 00  9 18  1  8 59.9970000  0 10G 3G31G10G 8G13G27G19G 1G28G 2
  22796554.4294  -13845144.65648 -10747262.31546  22796552.2604   22796565.6664
        78.6044         61.2454
  21518767.8734  -17446386.98248 -11871219.97646  21518765.4704   21518779.2004
      2444.8674       1905.0884
  22915274.5394   -2106728.88447  -1621330.45745  22915271.1744   22915292.0254
      2505.1004       1952.0174
  20695313.7904   -8958817.70848  -6715735.16147  20695311.4404   20695326.8964
      2807.8894       2187.9644
  19754838.7204  -41805512.68348 -32037252.20347  19754837.0004   19754845.9814
       916.7504        714.3524
  20093610.9014  -39201565.79649 -29335188.76247  20093608.4734   20093620.6604
      1651.6814       1287.0254
  20078428.1074  -42369164.99849 -32017989.19147  20078425.4684   20078436.6164
        95.6464         74.5324
  21388556.4344  -39735522.35448 -30658549.72646  21388554.1004   21388568.9824
     -1582.3684      -1233.0094
  22271407.7034  -25219101.43448 -19628401.12646  22271405.0504   22271417.4514
     -1960.6304      -1527.7664
  23329550.3074   -9762921.69347  -7290412.65245  23329547.5994   23329570.4714
      3867.1134       3013.3214
 00  9 18  1  9 29.9970000  0 10G 3G31G10G 8G13G27G19G 1G28G 2
  22796126.5924  -13847393.37248 -10749014.29846  22796124.5214   22796138.2994
        63.7534         49.6704
  21504828.8774  -17519637.05848 -11928297.90946  21504825.8284   21504840.1034
      2430.8104       1894.1354
  22900990.6874   -2181783.96347  -1679814.65445  22900987.8234   22901010.3974
      2491.0054       1941.0344
  20679271.5864   -9043123.72248  -6781428.13047  20679269.0104   20679284.3454
      2804.7754       2185.5364
  19749619.9684  -41832938.97948 -32058623.36647  19749618.0394   19749626.8574
       904.0394        704.4464
  20084168.6754  -39251184.06249 -29373852.30447  20084166.3864   20084178.3084
      1648.5604       1284.5904
  20077870.8184  -42372090.59349 -32020268.89247  20077868.5984   20077879.9834
        91.7514         71.4934
  21397590.7384  -39688049.85648 -30621558.38046  21397588.2154   21397603.1914
     -1590.0994      -1239.0314
  22282588.1614  -25160346.32748 -19582617.78046  22282585.7724   22282597.5944
     -1963.9894      -1530.3894
  23307460.0604   -9879001.38747  -7380863.97145  23307457.5424   23307481.8464
      3863.9504       3010.8544
 00  9 18  1  9 59.9970000  0 10G 3G31G10G 8G13G27G19G 1G28G 2
  22795815.7404  -13849028.38748 -10750288.07946  22795813.1174   22795826.8334
        45.0874         35.1214
  21491002.7694  -17592293.73948 -11984913.46846  21490999.9414   21491013.9454
      2412.8274       1880.1254
  22886821.3264   -2256243.71647  -1737834.95045  22886818.6944   22886840.3594
      2472.8794       1926.9064
  20663278.4314   -9127166.09548  -6846915.66847  20663275.9884   20663291.2354
      2797.7944       2180.1004
  19744506.1014  -41859811.81948 -32079563.24647  19744504.1224   19744513.3094
       887.3704        691.4584
  20074777.0684  -39300537.94349 -29412309.88647  20074774.6624   20074786.7454
      1641.5414       1279.1234
  20077368.8444  -42374729.27149 -32022324.98447  20077366.5714   20077378.0244
        83.9954         65.4514
  21406701.2964  -39640174.14748 -30584252.86346  21406698.6374   21406714.2324
     -1601.7674      -1248.1234
  22293820.9164  -25101318.45948 -19536621.83146  22293818.3094   22293830.2934
     -1971.3144      -1536.0974
  23285421.0464   -9994815.88947  -7471108.64645  23285418.3654   23285441.9994
      3856.8764       3005.3474
 00  9 18  1 10 29.9970000  0 10G 3G31G10G 8G13G27G19G 1G28G 2
  22795597.5074  -13850169.35048 -10751176.87046  22795595.5094   22795609.7754
        29.8394         23.2464
  21477267.0654  -17664473.68848 -12041157.53046  21477264.3224   21477278.4514
      2398.0864       1868.6344
  22872742.9404   -2330226.26647  -1795483.42145  22872740.2174   22872761.7294
      2458.1634       1915.4394
  20647313.4154   -9211063.68648  -6912290.37247  20647310.8574   20647325.6784
      2794.1594       2177.2654
  19739475.5994  -41886249.95948 -32100164.40847  19739473.5434   19739481.9554
       874.0434        681.0744
  20065412.8664  -39349746.34149 -29450654.11847  20065410.7004   20065422.6504
      1637.8914       1276.2744
  20076898.7804  -42377199.92949 -32024250.15847  20076896.3564   20076907.8754
        79.5904         62.0174
  21415865.7224  -39592015.60848 -30546726.96646  21415863.4114   21415878.1634
     -1609.9464      -1254.4964
  22305082.1604  -25042139.64748 -19490508.26446  22305079.2534   22305091.1194
     -1975.1004      -1539.0474
  23263410.1234  -10110483.33447  -7561238.74445  23263407.6924   23263431.0294
      3853.2204       3002.4954
 00  9 18  1 10 59.9970000  0 10G 3G31G10G 8G13G27G19G 1G28G 2
  22795482.3924  -13850778.04848 -10751651.04646  22795479.9064   22795493.5234
         9.4694          7.3754
  21463630.5764  -17736135.65348 -12096997.93346  21463628.3494   21463641.5394
      2378.0894       1853.0544
  22858763.7134   -2403691.07147  -1852728.45845  22858760.7174   22858782.1224
      2438.1554       1899.8544
  20631383.1274   -9294777.37748  -6977521.77347  20631380.6764   20631396.0154
      2785.2894       2170.3534
  19734535.1014  -41912213.40748 -32120395.67647  19734533.1954   19734541.3254
       855.5244        666.6434
  20056084.5674  -39398769.68949 -29488853.97947  20056082.0954   20056093.8744
      1629.0374       1269.3774
  20076468.1674  -42379463.67349 -32026014.05947  20076465.6924   20076477.1834
        69.9934         54.5384
  21425091.5974  -39543535.96848 -30508950.86146  21425088.7844   21425103.4664
     -1623.3204      -1264.9194
  22316378.9424  -24982772.79248 -19444248.13046  22316376.5264   22316387.9784
     -1984.0234      -1546.0034
  23241434.6534  -10225963.51247  -7651222.92945  23241431.6504   23241455.1604
      3844.2584       2995.5124
 00  9 18  1 11 29.9970000  0 10G 3G31G10G 8G13G27G19G 1G28G 2
  22795470.2024  -13850842.65148 -10751701.19846  22795467.7704   22795480.8184
       -11.5074         -8.9744
  21450094.8924  -17807265.52948 -12152423.70746  21450092.2634   21450105.8494
      2357.4234       1836.9484
  22844883.7914   -2476625.23147  -1909560.04945  22844880.7824   22844901.5544
      2417.6884       1883.9064
  20615490.6754   -9378295.03948  -7042600.40547  20615487.9604   20615503.0224
      2775.9744       2163.0934
  19729687.1574  -41937689.73648 -32140247.35447  19729685.0544   19729693.8484
       836.4624        651.7894
  20046793.0554  -39447596.30649 -29526900.64447  20046790.5684   20046802.1124
      1619.6464       1262.0604
  20076078.7604  -42381508.89449 -32027607.74847  20076076.4704   20076087.9464
        59.8754         46.6574
  21434380.0784  -39494724.52948 -30470916.21346  21434377.3814   21434392.1634
     -1637.1774      -1275.7124
  22327713.6444  -24923208.59648 -19397834.22346  22327710.7814   22327722.8054
     -1993.3674      -1553.2814
  23219497.9094  -10341243.47547  -7741051.13046  23219494.9704   23219518.1614
      3834.7004       2988.0684
 00  9 18  1 11 59.9970000  0 10G 3G31G10G 8G13G27G19G 1G28G 2
  22795570.3534  -13850312.09748 -10751287.64646  22795568.3994   22795581.7684
       -29.2794        -22.8184
  21436670.5844  -17877808.83548 -12207392.39046  21436668.1324   21436682.0894
      2339.9974       1823.3694
  22831115.7714   -2548975.06547  -1965936.34245  22831113.1724   22831133.8684
      2400.2354       1870.3084
  20599645.2744   -9461564.12948  -7107485.31647  20599642.5604   20599657.2844
      2769.7754       2158.2614
  19724941.7404  -41962625.39848 -32159677.75847  19724939.6804   19724948.5414
       820.4844        639.3384
  20037548.7944  -39496173.58449 -29564753.02247  20037546.5324   20037558.2754
      1613.4014       1257.1944
  20075741.4554  -42383283.18849 -32028990.29047  20075738.8974   20075750.3614
        52.9474         41.2574
  21443741.3544  -39445529.89248 -30432582.95446  21443738.9814   21443753.7714
     -1647.8844      -1284.0564
  22339094.7824  -24863397.19648 -19351227.73446  22339092.2944   22339104.6044
     -1999.5114      -1558.0704
  23197608.9854  -10456269.93348  -7830681.80146  23197606.0344   23197628.6804
      3828.4134       2983.1684
 00  9 18  1 12 29.9970000  0 10G 3G31G10G 8G13G27G19G 1G28G 2
  22795777.0794  -13849225.06548 -10750440.46246  22795774.9654   22795788.1724
       -39.3434        -30.6614
  21423351.4644  -17947801.69248 -12261932.15146  21423348.9094   21423362.7324
      2330.0354       1815.6104
  22817452.7014   -2620777.15947  -2021885.82045  22817449.5574   22817470.1474
      2390.4004       1862.6404
  20583839.8674   -9544622.62748  -7172206.11147  20583837.1154   20583851.4654
      2771.1854       2159.3614
  19720292.3194  -41987057.67048 -32178715.90147  19720290.2944   19720299.0994
       812.1904        632.8744
  20028345.6744  -39544539.29649 -29602440.56047  20028342.9244   20028354.5964
      1614.8254       1258.3044
  20075447.5884  -42384824.81449 -32030191.52647  20075445.3454   20075456.9854
        53.6524         41.8054
  21453167.5104  -39395991.38448 -30393981.73346  21453165.7714   21453180.9704
     -1650.8524      -1286.3724
  22350516.2294  -24803378.62448 -19304459.80346  22350513.4374   22350525.2804
     -1997.8764      -1556.7914
  23175760.0674  -10571079.70347  -7920143.62946  23175757.6624   23175781.2264
      3829.5104       2984.0264
 00  9 18  1 12 59.9970000  0 10G 3G31G10G 8G13G27G19G 1G28G 2
  22796086.8524  -13847603.80748 -10749177.02146  22796083.6234   22796097.0634
       -66.8644        -52.1024
  21410132.6934  -18017263.41048 -12316058.03146  21410130.4074   21410144.5754
      2302.5914       1794.2234
  22803889.0144   -2692052.33647  -2077424.73745  22803885.7474   22803906.6514
      2363.1064       1841.3724
  20568070.2444   -9627491.67648  -7236779.25947  20568067.3584   20568081.6494
      2755.2074       2146.9094
  19715734.9364  -42011007.61748 -32197378.20647  19715732.8774   19715741.7454
       786.3694        612.7554
  20019177.7804  -39592714.79449 -29639979.85347  20019175.3214   20019187.1024
      1598.7764       1245.7984
  20075194.6194  -42386155.11749 -32031228.10247  20075192.1994   20075203.8914
        36.9014         28.7524
  21462656.9454  -39346131.60948 -30355130.16046  21462653.9124   21462669.3664
     -1671.2404      -1302.2584
  22361972.2584  -24743177.06348 -19257549.36746  22361969.2434   22361981.3664
     -2013.6504      -1569.0834
  23153950.2194  -10685693.23347  -8009452.55546  23153947.3684   23153970.4034
      3813.3124       2971.4044
 00  9 18  1 13 29.9970000  0 10G 3G31G10G 8G13G27G19G 1G28G 2
  22796483.5344  -13845514.52348 -10747548.94446  22796481.2084   22796494.6524
       -76.4064        -59.5384
  21397004.1554  -18086257.09048 -12369819.19046  21397001.4244   21397015.0644
      2292.9714       1786.7254
  22790413.4384   -2762864.36547  -2132602.77245  22790410.6384   22790431.4844
      2353.6504       1834.0154
  20552323.9264   -9710236.73248  -7301255.76747  20552321.0994   20552335.9824
      2757.1374       2148.4134
  19711257.0664  -42034539.51148 -32215714.74347  19711255.1514   19711263.8914
       778.4344        606.5714
  20010033.4184  -39640765.13749 -29677421.61247  20010031.2074   20010043.2164
      1600.6044       1247.2204
  20074969.2574  -42387339.47349 -32032150.90947  20074966.8734   20074978.1714
        38.0494         29.6474
  21472192.8864  -39296016.96048 -30316079.99346  21472190.9924   21472205.8614
     -1673.6894      -1304.1674
  22373450.2624  -24682859.86848 -19210548.77246  22373447.1434   22373458.8734
     -2011.4984      -1567.4084
  23132164.3414  -10800174.89148  -8098658.73846  23132161.9294   23132185.2734
      3814.8754       2972.6194
 00  9 18  1 13 59.9970000  0 10G 3G31G10G 8G13G27G19G 1G28G 2
  22796979.2064  -13842909.61848 -10745519.13646  22796976.8834   22796989.7464
       -97.5724        -76.0354
  21383973.4484  -18154732.48148 -12423176.47146  21383970.7004   21383984.3974
      2271.7074       1770.1544
  22777035.8494   -2833164.07847  -2187381.62245  22777032.9194   22777053.8774
      2332.6864       1817.6794
  20536610.9784   -9792808.96548  -7365597.60047  20536608.2584   20536622.6974
      2747.3464       2140.7844
  19706867.3094  -42057605.04148 -32233687.87347  19706865.4054   19706874.6504
       758.9204        591.3674
  20000923.1644  -39688641.85749 -29714728.09447  20000920.6544   20000932.4534
      1590.8564       1239.6294
  20074780.4674  -42388329.78449 -32032922.50347  20074778.1834   20074789.6904
        27.6164         21.5164
  21481787.7484  -39245600.34548 -30276794.51846  21481785.0884   21481800.0174
     -1687.6824      -1315.0724
  22384958.7644  -24622381.29448 -19163422.44546  22384955.8484   22384967.8464
     -2020.7974      -1574.6544
  23110413.6994  -10914475.29347  -8187723.68946  23110410.9014   23110434.4724
      3804.8344       2964.7984
 00  9 18  1 14 29.9970000  0 10G 3G31G10G 8G13G27G19G 1G28G 2
  22797566.2274  -13839823.75348 -10743114.48846  22797563.9594   22797576.9114
      -112.5064        -87.6694
  21371035.1784  -18222721.62648 -12476154.84146  21371032.6204   21371046.2554
      2256.5504       1758.3434
  22763750.1054   -2902984.29547  -2241786.82745  22763746.9844   22763768.1544
      2317.7264       1806.0134
  20520923.7584   -9875242.48848  -7429831.33947  20520921.1844   20520935.8504
      2743.7714       2137.9994
  19702561.2654  -42080237.04248 -32251323.18847  19702559.2904   19702567.7064
       745.4954        580.9044
  19991838.8424  -39736378.62249 -29751925.60847  19991836.5684   19991848.4704
      1587.2784       1236.8394
  20074622.4304  -42389160.33949 -32033569.58547  20074620.1144   20074631.7524
        23.3974         18.2274
  21491432.2874  -39194916.95048 -30237301.14946  21491430.1994   21491444.9614
     -1695.5004      -1321.1594
  22396490.3214  -24561777.65948 -19116198.69846  22396487.7384   22396499.9044
     -2023.8904      -1577.0574
  23088691.4394  -11028627.34148  -8276673.05446  23088688.4124   23088711.4014
      3800.9904       2961.8064
 00  9 18  1 14 59.9970000  0 10G 3G31G10G 8G13G27G19G 1G28G 2
  22798264.6674  -13836153.05448 -10740254.12246  22798262.2864   22798276.2394
      -134.0074       -104.4274
  21358209.9244  -18290117.50448 -12528670.89946  21358207.4034   21358220.9354
      2234.7334       1741.3444
  22750574.4254   -2972218.95147  -2295735.74045  22750571.8734   22750592.6624
      2296.2244       1789.2594
  20505283.8334   -9957432.26148  -7493875.14547  20505281.0364   20505295.4714
      2733.6494       2130.1114
  19698357.3964  -42102330.26848 -32268538.67047  19698355.1394   19698363.3904
       725.5824        565.3874
  19982801.7764  -39783870.36749 -29788932.10447  19982799.2344   19982811.0274
      1577.1004       1228.9074
  20074514.7344  -42389726.37749 -32034010.55847  20074512.3684   20074523.8324
        12.5794          9.7994
  21501148.0524  -39143863.26348 -30197519.24346  21501144.9934   21501160.2894
     -1709.8264      -1332.3264
  22408066.1364  -24500946.53848 -19068797.82046  22408063.7494   22408075.3044
     -2033.3514      -1584.4274
  23067017.5174  -11142525.55148  -8365424.65546  23067014.4584   23067037.1934
      3790.4744       2953.6074
 00  9 18  1 15 29.9970000  0 10G 3G31G10G 8G13G27G19G 1G28G 2
  22799062.4394  -13831962.50448 -10736988.63746  22799059.8374   22799073.3914
      -146.9894       -114.5364
  21345485.9104  -18356982.25148 -12580773.06346  21345483.2154   21345497.3834
      2221.2954       1730.8704
  22737499.2964   -3040931.33747  -2349277.67345  22737496.3594   22737517.7254
      2283.0184       1778.9744
  20489677.5214  -10039442.32248  -7557778.91147  20489674.8694   20489688.9334
      2731.9844       2128.8134
  19694242.9174  -42123947.53248 -32285383.26947  19694241.1144   19694249.8984
       714.0294        556.3864
  19973798.7484  -39831180.88049 -29825797.28647  19973796.4134   19973808.1734
      1575.3644       1227.5514
  20074445.0794  -42390092.09849 -32034295.44647  20074442.6594   20074453.8984
        10.1974          7.9424
  21510921.0974  -39092504.57448 -30157499.67346  21510918.3184   21510933.5764
     -1715.6464      -1336.8564
  22419672.8754  -24439954.40748 -19021271.54846  22419670.2194   22419681.8534
     -2034.3984      -1585.2434
  23045379.2024  -11256233.00948  -8454027.64146  23045375.9444   23045398.9174
      3788.3924       2951.9854
 00  9 18  1 15 59.9970000  0 10G 3G31G10G 8G13G27G19G 1G28G 2
  22799960.0514  -13827245.94348 -10733313.33446  22799957.3804   22799970.0374
      -167.0284       -130.1524
  21332865.0484  -18423306.63448 -12632454.16246  21332862.3674   21332875.6104
      2200.8494       1714.9404
  22724524.1134   -3109112.98547  -2402406.03945  22724521.4844   22724542.8034
      2262.9484       1763.3304
  20474107.2154  -10121265.44048  -7621537.02347  20474104.4744   20474118.5464
      2723.3014       2122.0474
  19690221.6644  -42145081.55448 -32301851.31547  19690219.7104   19690228.0264
       695.4664        541.9204
  19964831.7614  -39878303.12049 -29862515.82747  19964829.2644   19964840.8234
      1566.6594       1220.7714
  20074414.6884  -42390250.23849 -32034418.56147  20074412.4624   20074423.5884
         0.8464          0.6574
  21520753.1624  -39040834.84748 -30117237.73346  21520751.0474   21520766.3054
     -1728.4634      -1346.8464
  22431310.7584  -24378796.01648 -18973615.62146  22431307.9584   22431319.5764
     -2042.3914      -1591.4764
  23023779.5994  -11369741.32848  -8542475.46446  23023776.3584   23023798.9064
      3779.3584       2944.9514
 00  9 18  1 16 29.9970000  0 10G 3G31G10G 8G13G27G19G 1G28G 2
  22800967.6644  -13821944.33948 -10729182.17546  22800965.8064   22800979.0024
      -186.8484       -145.6034
  21320357.8834  -18489029.19048 -12683666.30046  21320355.4624   21320368.8324
      2180.2904       1698.9184
  22711662.6334   -3176703.35147  -2455073.66745  22711659.2944   22711679.8594
      2242.7374       1747.5814
  20458583.4914  -10202841.50848  -7685102.65047  20458580.8974   20458595.0604
      2714.6284       2115.2894
  19686303.1834  -42165672.30648 -32317896.01847  19686301.1504   19686309.8614
       676.8914        527.4464
  19955911.2214  -39925177.12949 -29899040.95747  19955909.1024   19955920.7004
      1557.9304       1213.9704
  20074435.6044  -42390141.12049 -32034333.43647  20074433.1464   20074444.3134
        -8.5194         -6.6404
  21530656.3134  -38988795.65848 -30076687.87746  21530653.9114   21530668.8644
     -1741.1704      -1356.7554
  22442991.3024  -24317414.17348 -18925785.59346  22442988.7394   22443000.4624
     -2050.1634      -1597.5294
  23002228.2764  -11482989.99048  -8630720.97546  23002225.7904   23002248.2184
      3770.2054       2937.8134
 00  9 18  1 16 59.9970000  0 10G 3G31G10G 8G13G27G19G 1G28G 2
  22802060.0534  -13816209.09547 -10724713.12946  22802057.4434   22802070.3184
      -198.6714       -154.8144
  21307938.2724  -18554297.70748 -12734524.62346  21307935.1604   21307948.0664
      2167.7254       1689.1284
  22698884.6534   -3243851.41147  -2507396.60445  22698881.5234   22698901.7974
      2230.6154       1738.1324
  20443078.4804  -10284320.28348  -7748592.46247  20443075.7854   20443090.1314
      2713.9774       2114.7814
  19682460.3894  -42185868.87648 -32333633.57147  19682458.2564   19682466.7784
       666.3314        519.2194
  19947010.6534  -39971952.33049 -29935489.06747  19947008.2214   19947019.5874
      1557.2164       1213.4124
  20074478.1294  -42389914.92949 -32034157.07447  20074475.9944   20074487.3124
        -9.7954         -7.6374
  21540600.5134  -38936538.14848 -30035967.88546  21540597.9444   21540613.4044
     -1745.8564      -1360.3994
  22454685.5734  -24255961.13548 -18877900.11546  22454682.6124   22454694.7614
     -2049.9334      -1597.3524
  22980698.9064  -11596128.03548  -8718880.32246  22980696.0754   22980718.3954
      3769.0664       2936.9304
 00  9 18  1 17 29.9970000  0 10G 3G31G10G 8G13G27G19G 1G28G 2
  22803265.1054  -13809869.76947 -10719773.38846  22803263.5284   22803276.5204
      -220.4774       -171.8044
  21295636.9084  -18618939.39248 -12784894.49646  21295634.1204   21295647.2464
      2145.1214       1671.5154
  22686223.3014   -3310385.14047  -2559240.81645  22686220.2704   22686240.5254
      2208.4234       1720.8394
  20427624.7694  -10365530.63348  -7811873.12147  20427622.1034   20427636.2304
      2703.3734       2106.5214
  19678724.7024  -42205499.16348 -32348929.85147  19678722.5584   19678731.1044
       645.7834        503.2074
  19938161.1184  -40018457.44149 -29971726.68147  19938158.6824   19938169.9974
      1546.5514       1205.1004
  20074575.8274  -42389400.96749 -32033756.47747  20074573.6814   20074585.3844
       -21.0554        -16.4094
  21550618.9884  -38883892.47948 -29994945.43346  21550616.4254   21550632.0364
     -1760.4124      -1371.7454
  22466424.6704  -24194267.94548 -18829827.48746  22466422.6484   22466434.4054
     -2059.5484      -1604.8464
  22959222.8264  -11708983.41448  -8806819.42346  22959220.4804   22959243.1014
      3757.9754       2928.2884
 00  9 18  1 17 59.9970000  0 10G 3G31G10G 8G13G27G19G 1G28G 2
  22804560.1484  -13803066.25747 -10714471.88846  22804558.2154   22804570.7784
      -234.5434       -182.7644
  21283428.6854  -18683091.41848 -12834882.81746  21283426.1394   21283438.9624
      2130.2464       1659.9224
  22673653.1764   -3376442.77147  -2610714.01745  22673649.6074   22673670.2724
      2193.9904       1709.5954
  20412195.3104  -10446611.20148  -7875052.65047  20412192.7054   20412206.7394
      2700.4554       2104.2454
  19675070.4614  -42224701.93248 -32363892.99047  19675068.1274   19675076.7984
       632.9804        493.2294
  19929336.2394  -40064831.34149 -30007862.04747  19929333.7854   19929345.0394
      1543.6024       1202.8014
  20074702.3644  -42388738.25749 -32033240.01147  20074699.9794   20074711.0414
       -24.5864        -19.1604
  21560685.0114  -38830999.05548 -29953729.92046  21560682.0684   21560697.1424
     -1767.2404      -1377.0664
  22478183.1634  -24132475.96948 -18781677.82146  22478181.2024   22478192.9764
     -2061.3594      -1606.2594
  22937774.6604  -11821694.23448  -8894645.87846  22937772.0334   22937794.1094
      3754.6224       2925.6734
 00  9 18  1 18 29.9970000  0 10G 3G31G10G 8G13G27G19G 1G28G 2
  22805958.2994  -13795722.84347 -10708749.74046  22805955.7584   22805968.5594
      -252.2124       -196.5244
  21271328.6224  -18746674.78248 -12884428.01346  21271325.9564   21271339.2614
      2111.4884       1645.3064
  22661187.0134   -3441946.45747  -2661755.56345  22661183.7374   22661204.8314
      2175.7334       1695.3674
  20396806.1064  -10527484.96548  -7938071.02047  20396803.1054   20396816.8704
      2693.8494       2099.0994
  19671511.8484  -42243399.78648 -32378462.68147  19671509.9064   19671518.6604
       616.3764        480.2914
  19920550.9504  -40110996.54949 -30043834.77047  19920548.5264   19920559.8204
      1536.9264       1197.5994
  20074871.3644  -42387849.46449 -32032547.34547  20074869.0244   20074880.1994
       -31.8634        -24.8334
  21570811.8524  -38777782.03748 -29912262.25646  21570809.4854   21570823.9664
     -1777.7274      -1385.2384
  22489974.7914  -24070510.78548 -18733393.29646  22489972.2564   22489984.5504
     -2066.8454      -1610.5234
  22916368.9144  -11934182.23548  -8982298.72046  22916365.8114   22916388.1634
      3747.4114       2920.0554
 00  9 18  1 18 59.9970000  0 10G 3G31G10G 8G13G27G19G 1G28G 2
  22807457.1364  -13787846.53947 -10702612.33946  22807455.0134   22807467.3724
      -271.2694       -211.3784
  21259335.9924  -18809693.88648 -12933533.52546  21259333.5394   21259347.0014
      2091.3324       1629.6014
  22648826.2824   -3506901.16347  -2712369.31145  22648823.7434   22648844.3844
      2156.0894       1680.0644
  20381453.9334  -10608157.91748  -8000932.90047  20381451.3134   20381465.3824
      2685.8514       2092.8654
  19668049.2114  -42261598.39148 -32392643.34347  19668047.0584   19668055.3004
       598.4134        466.2924
  19911804.2474  -40156959.00949 -30079649.49547  19911802.0324   19911813.5134
      1528.8124       1191.2774
  20075082.1634  -42386740.76849 -32031683.26447  20075079.8784   20075091.0624
       -40.5364        -31.5914
  21580998.4234  -38724248.95248 -29870548.28846  21580996.0394   21581011.4474
     -1789.5354      -1394.4374
  22501797.9584  -24008380.23948 -18684979.88146  22501795.2204   22501807.8494
     -2073.6654      -1615.8454
  22895004.1544  -12046452.70548  -9069782.07846  22895001.4344   22895023.5834
      3738.8444       2913.3774
 00  9 18  1 19 29.9970000  0 10G 3G31G10G 8G13G27G19G 1G28G 2
  22809039.7924  -13779529.53047 -10696131.44646  22809037.2664   22809050.2274
      -288.0004       -224.4254
  21247434.4854  -18872238.50248 -12982269.30746  21247431.6254   21247444.6224
      2073.4694       1615.6814
  22636553.1554   -3571397.43847  -2762625.84745  22636549.9354   22636569.8594
      2138.8214       1666.6014
  20366123.1784  -10688721.19848  -8063709.31147  20366120.7194   20366134.1104
      2680.1334       2088.4074
  19664663.5074  -42279388.78848 -32406505.91947  19664661.5674   19664669.8974
       582.7554        454.0944
  19903079.3964  -40202810.07249 -30115377.41847  19903076.7724   19903088.2284
      1523.0764       1186.8084
  20075317.4364  -42385503.84049 -32030719.30247  20075314.9974   20075326.3204
       -46.8054        -36.4754
  21591228.5314  -38670492.43248 -29828660.21546  21591225.8194   21591241.0564
     -1799.0674      -1401.8644
  22513634.7424  -23946178.49948 -18636511.01146  22513632.1444   22513644.1214
     -2078.0124      -1619.2264
  22873664.0004  -12158596.20948  -9157166.49146  22873661.3804   22873684.0484
      3732.5324       2908.4644
 00  9 18  1 19 59.9970000  0 10G 3G31G10G 8G13G27G19G 1G28G 2
  22810744.1084  -13770568.51047 -10689148.75146  22810742.3184   22810755.4444
      -308.0534       -240.0404
  21235662.0194  -18934101.74248 -13030474.15946  21235659.5514   21235672.1324
      2052.1184       1599.0454
  22624405.9964   -3635229.77447  -2812365.02245  22624403.0484   22624423.3594
      2117.9784       1650.3624
  20350852.6664  -10768969.64748  -8126240.38947  20350849.9934   20350863.2544
      2670.9894       2081.2834
  19661394.9334  -42296565.44748 -32419890.24947  19661392.8324   19661401.2154
       563.6944        439.2404
  19894414.0984  -40248344.52249 -30150858.65847  19894411.8484   19894422.9884
      1513.9134       1179.6674
  20075615.9174  -42383933.81149 -32029495.76847  20075613.4924   20075625.0454
       -56.5324        -44.0574
  21601539.1664  -38616308.88248 -29786439.37446  21601536.8414   21601552.7714
     -1811.8174      -1411.8024
  22525524.1994  -23883702.98648 -18587828.73146  22525521.1944   22525532.4794
     -2085.7344      -1625.2544
  22852387.3424  -12270406.90648  -9244291.59346  22852384.4364   22852406.8104
      3722.8284       2900.9004
 00  9 18  1 20 29.9970000  0 10G 3G31G10G 8G13G27G19G 1G28G 2
  22812547.9074  -13761087.36747 -10681760.85846  22812546.1904   22812559.6904
      -324.9464       -253.2064
  21223997.0684  -18995404.85848 -13078242.56546  21223994.0804   21224006.5614
      2033.8944       1584.8434
  22612361.8234   -3698520.08847  -2861681.84945  22612358.5194   22612378.2594
      2100.4804       1636.7234
  20335617.8784  -10849026.18648  -8188621.88947  20335615.2594   20335628.6694
      2665.1284       2076.7154
  19658220.3084  -42313250.41949 -32432891.43847  19658217.9164   19658226.1644
       547.7554        426.8214
  19885786.3044  -40293684.99149 -30186188.75147  19885783.6264   19885795.0654
      1507.9074       1174.9884
  20075954.6074  -42382153.98249 -32028108.72547  20075952.2274   20075963.5074
       -63.0134        -49.1064
  21611907.8904  -38561822.70248 -29743982.71346  21611905.1354   21611921.2224
     -1821.4434      -1419.3014
  22537440.7594  -23821078.43648 -18539030.27446  22537438.2734   22537449.3864
     -2090.1294      -1628.6774
  22831149.4254  -12382006.59048  -9331252.22946  22831147.2374   22831169.7354
      3716.2604       2895.7844
 00  9 18  1 20 59.9970000  0 10G 3G31G10G 8G13G27G19G 1G28G 2
  22814453.0104  -13751078.62147 -10673961.72745  22814451.4694   22814464.0164
      -345.8004       -269.4594
  21212439.4264  -19056137.49048 -13125566.45646  21212436.6454   21212449.4384
      2011.4774       1567.3804
  22600423.5824   -3761259.06847  -2910569.07145  22600420.3314   22600440.1364
      2078.6814       1619.7374
  20320421.4884  -10928882.14048  -8250847.07447  20320418.8854   20320432.2804
      2655.0284       2068.8464
  19655139.6594  -42329435.36948 -32445503.00147  19655137.5744   19655146.3544
       527.7144        411.2024
  19877195.8284  -40338822.82949 -30221360.93447  19877193.6904   19877205.2514
      1497.7704       1167.0904
  20076334.8364  -42380155.88949 -32026551.64647  20076332.3574   20076343.7424
       -73.7244        -57.4524
  21622335.2334  -38507026.63448 -29701284.57946  21622332.6074   21622347.9084
     -1835.1434      -1429.9804
  22549387.8554  -23758298.95047 -18490111.02946  22549384.6734   22549396.1234
     -2098.6994      -1635.3514
  22809954.5134  -12493386.11548  -9418041.30146  22809952.1624   22809974.5334
      3705.5454       2887.4354
 00  9 18  1 21 29.9970000  0 10G 3G31G10G 8G13G27G19G 1G28G 2
  22816447.5274  -13740598.89047 -10665795.57646  22816445.3174   22816457.7834
      -351.5634       -273.9484
  21200980.2624  -19116353.78048 -13172488.01946  21200977.5434   21200990.1944
      2004.1504       1561.6684
  22588578.4294   -3823501.38847  -2959069.28345  22588575.3704   22588595.4064
      2072.0224       1614.5514
  20305253.1454  -11008592.61748  -8312958.91747  20305250.4234   20305263.9894
      2660.0964       2072.7964
  19652143.8744  -42345174.71948 -32457767.33747  19652141.9584   19652150.9994
       522.7784        407.3574
  19868635.2074  -40383812.98749 -30256418.02647  19868632.6074   19868643.5854
      1502.7724       1170.9844
  20076745.6764  -42377994.65149 -32024867.41647  20076743.3854   20076754.7104
       -69.2184        -53.9414
  21632810.0484  -38451977.47348 -29658389.23346  21632808.0484   21632823.2964
     -1833.6414      -1428.8104
  22561351.7734  -23695422.03747 -18441115.87746  22561349.2264   22561360.6944
     -2091.9664      -1630.1084
  22788792.1144  -12604599.86548  -9504701.19046  22788789.3844   22788811.4274
      3709.8934       2890.8204
 00  9 18  1 21 59.9970000  0 10G 3G31G10G 8G13G27G19G 1G28G 2
  22818507.2904  -13729775.50247 -10657361.72345  22818504.8274   22818517.1104
      -371.1464       -289.2074
  21189596.2034  -19176177.58448 -13219103.74946  21189593.3334   21189605.7064
      1982.8764       1545.0894
  22576804.4294   -3885372.68847  -3007280.38345  22576801.5614   22576821.5784
      2051.4964       1598.5594
  20290088.0184  -11088283.44248  -8375055.43247  20290085.4064   20290099.1354
      2651.2754       2065.9194
  19649210.2394  -42360594.46649 -32469782.61947  19649208.1884   19649216.6854
       503.9944        392.7204
  19860077.6484  -40428781.42349 -30291458.19947  19860075.2004   19860086.4724
      1493.8974       1164.0724
  20077163.8424  -42375796.37849 -32023154.36247  20077161.6234   20077172.7804
       -78.6064        -61.2564
  21643310.2364  -38396802.63548 -29615395.95946  21643307.6814   21643323.3194
     -1845.9354      -1438.3884
  22573310.5064  -23632576.18047 -18392144.92445  22573308.3304   22573320.2474
     -2099.0074      -1635.5954
  22767636.7334  -12715773.18248  -9591329.55846  22767633.4344   22767655.0444
      3700.4084       2883.4304
 00  9 18  1 22 29.9970000  0 10G 3G31G10G 8G13G27G19G 1G28G 2
  22820697.8174  -13718263.74747 -10648391.40446  22820695.4904   22820708.0554
      -395.1394       -307.9074
  21178352.9634  -19235261.60748 -13265143.04446  21178350.1084   21178361.9104
      1957.1854       1525.0734
  22565167.7194   -3946526.06147  -3054932.08445  22565163.8254   22565183.3014
      2026.5224       1579.0984
  20274992.5044  -11167608.73148  -8436867.11147  20274990.1434   20275003.9434
      2638.0574       2055.6224
  19646402.7044  -42375348.89749 -32481279.47047  19646400.5324   19646408.8334
       480.7344        374.5954
  19851590.2814  -40473381.77749 -30326211.56247  19851588.0074   19851599.0284
      1480.5614       1153.6774
  20077655.1494  -42373215.50549 -32021143.15247  20077652.8654   20077663.8664
       -92.3744        -71.9844
  21653899.0674  -38341157.43348 -29572036.17746  21653896.5054   21653912.1524
     -1862.6454      -1451.4074
  22585329.3994  -23569417.93447 -18342930.55946  22585327.0004   22585338.5644
     -2110.4424      -1644.5054
  22746554.1894  -12826559.46348  -9677656.32446  22746551.3444   22746573.8074
      3686.4464       2872.5504
 00  9 18  1 22 59.9970000  0 10G 3G31G10G 8G13G27G19G 1G28G 2
  22822988.6544  -13706222.05447 -10639008.01846  22822987.0124   22822999.2724
      -412.3694       -321.3334
  21167220.4754  -19293761.70948 -13310727.35246  21167217.7494   21167229.5784
      1938.0754       1510.1814
  22553636.5774   -4007118.06547  -3102146.36445  22553633.3124   22553653.1164
      2008.2224       1564.8394
  20259937.6644  -11246725.67748  -8498516.44247  20259934.7054   20259948.1374
      2631.5314       2050.5354
  19643691.3724  -42389594.04748 -32492379.49047  19643689.4424   19643697.9114
       464.1924        361.7044
  19843143.3904  -40517771.04849 -30360800.41147  19843140.8854   19843151.9304
      1473.9624       1148.5364
  20078189.2824  -42370409.41449 -32018956.46147  20078186.8664   20078197.8064
       -99.4774        -77.5194
  21664547.0974  -38285200.63648 -29528433.57946  21664545.0604   21664560.2204
     -1872.5894      -1459.1564
  22597376.2804  -23506106.33847 -18293596.60245  22597374.5794   22597385.9434
     -2115.1254      -1648.1614
  22725516.1934  -12937115.09948  -9763803.34146  22725513.3234   22725534.9044
      3679.1814       2866.8864
 00  9 18  1 23 29.9970000  0 10G 3G31G10G 8G13G27G19G 1G28G 2
  22825371.8334  -13693698.16347 -10629248.96645  22825369.3504   22825382.4274
      -421.2724       -328.2644
  21156190.9454  -19351722.51448 -13355891.46746  21156188.1644   21156200.6414
      1927.1974       1501.7084
  22542204.5524   -4067194.38847  -3148958.83745  22542202.0244   22542221.3564
      1998.1534       1556.9954
  20244911.8064  -11325680.05648  -8560039.10547  20244909.2774   20244923.5244
      2633.2764       2051.8974
  19641068.6434  -42403375.85648 -32503118.46347  19641066.5144   19641075.3194
       455.9054        355.2484
  19834727.5484  -40561995.52849 -30395260.87047  19834725.2114   19834736.2224
      1475.6084       1149.8204
  20078757.3754  -42367424.54849 -32016630.52347  20078754.9334   20078765.8694
       -98.2834        -76.5864
  21675246.2154  -38228979.87048 -29484625.28646  21675243.6424   21675259.0804
     -1874.1924      -1460.4024
  22609444.7494  -23442690.17247 -18244181.18146  22609442.1274   22609452.9914
     -2111.4284      -1645.2754
  22704513.1364  -13047485.35448  -9849805.89346  22704510.0584   22704531.6054
      3680.1634       2867.6494
 00  9 18  1 23 59.9970000  0 10G 3G31G10G 8G13G27G19G 1G28G 2
  22827860.1144  -13680622.92547 -10619060.29845  22827857.5994   22827870.6164
      -442.6304       -344.9134
  21145276.9684  -19409071.61848 -13400578.94446  21145274.6044   21145287.1384
      1903.7984       1483.4754
  22530884.7964   -4126684.13947  -3195314.26845  22530881.1224   22530899.9454
      1975.6244       1539.4414
  20229932.2874  -11404401.56548  -8621380.30847  20229929.5224   20229943.4884
      2622.5094       2043.5054
  19638547.5244  -42416624.26848 -32513441.80247  19638545.4334   19638554.2984
       435.1094        339.0424
  19826356.3274  -40605984.35249 -30429537.71547  19826354.1674   19826365.0734
      1464.7844       1141.3854
  20079372.3064  -42364190.49549 -32014110.39847  20079369.9264   20079381.2884
      -109.5674        -85.3804
  21686007.6774  -38172426.11548 -29440557.52346  21686005.2554   21686021.0684
     -1888.2494      -1471.3614
  22621544.9554  -23379101.33547 -18194631.24346  22621542.4044   22621553.7354
     -2120.1124      -1652.0444
  22683559.4014  -13157599.03148  -9935608.49346  22683556.7004   22683577.6154
      3668.5504       2858.6004
 00  9 18  1 24 29.9970000  0 10G 3G31G10G 8G13G27G19G 1G28G 2
  22830444.4444  -13667038.56947 -10608474.72145  22830442.4004   22830454.7894
      -455.8984       -355.2594
  21134473.2754  -19465849.11448 -13444821.01846  21134470.3614   21134482.3124
      1888.3904       1471.4664
  22519667.3094   -4185627.84447  -3241244.18445  22519664.6164   22519682.3274
      1961.0924       1528.1174
  20214988.3384  -11482931.25348  -8682572.04647  20214985.6074   20214999.0634
      2619.7504       2041.3584
  19636119.9294  -42429379.92848 -32523381.18247  19636117.9044   19636127.1224
       422.3294        329.0864
  19818022.7314  -40649778.61949 -30463662.95747  19818020.3654   19818031.3104
      1461.9194       1139.1534
  20080027.3384  -42360748.84749 -32011428.53147  20080024.9144   20080036.0464
      -112.8144        -87.9084
  21696824.8044  -38115582.27348 -29396263.72546  21696822.1844   21696838.0304
     -1894.2754      -1476.0584
  22633670.4714  -23315383.41847 -18144980.67146  22633667.2664   22633678.7234
     -2120.7274      -1652.5254
  22662646.6394  -13267496.65748 -10021242.72046  22662643.7204   22662664.5384
      3665.0194       2855.8494
 00  9 18  1 24 59.9960000  0 10G 3G31G10G 8G13G27G19G 1G28G 2
  22833127.6764  -13652938.37748 -10597487.06346  22833125.7014   22833137.5534
      -475.6014       -370.6154
  21123779.5334  -19522042.79448 -13488608.16646  21123776.7484   21123789.4114
      1866.4224       1454.3504
  22508556.5514   -4244014.51547  -3286740.04345  22508553.7774   22508571.9094
      1940.0064       1511.6884
  20200083.1404  -11561257.85148  -8743605.54047  20200080.3714   20200093.2254
      2610.5514       2034.1884
  19633788.3394  -42441633.69348 -32532929.47147  19633786.2564   19633795.0704
       403.0614        314.0704
  19809727.8284  -40693367.98949 -30497628.55647  19809725.4324   19809736.1554
      1452.6184       1131.9064
  20080723.0114  -42357091.18749 -32008578.36947  20080720.7634   20080731.8474
      -122.5804        -95.5184
  21707698.4314  -38058443.22448 -29351739.89946  21707695.9004   21707711.3074
     -1906.6584      -1485.7044
  22645820.1654  -23251532.05947 -18095226.08946  22645817.4924   22645828.7644
     -2127.7464      -1657.9954
  22641776.4114  -13377165.27448 -10106698.46846  22641773.7264   22641795.1054
      3654.9184       2847.9754
 00  9 18  1 25 29.9960000  0 10G 3G31G10G 8G13G27G19G 1G28G 2
  22835904.3134  -13638346.52947 -10586116.44446  22835901.9154   22835914.1274
      -495.1584       -385.8524
  21113191.6524  -19577678.73248 -13531960.69246  21113189.2224   21113201.4234
      1844.5714       1437.3234
  22497546.6664   -4301870.86947  -3331822.67245  22497543.3364   22497561.9214
      1919.0664       1495.3674
  20185211.4434  -11639409.80348  -8804502.95047  20185208.5384   20185221.4974
      2601.4764       2027.1174
  19631546.8214  -42453409.67048 -32542105.46347  19631544.8904   19631554.2414
       383.9604        299.1874
  19801466.7714  -40736778.63049 -30531454.89147  19801464.4594   19801475.1834
      1443.4244       1124.7424
  20081456.2554  -42353240.61049 -32005577.87947  20081453.8564   20081464.4654
      -132.1724       -102.9914
  21718623.9214  -38001029.97148 -29307002.40746  21718621.4804   21718636.8514
     -1918.8994      -1495.2414
  22657992.1994  -23187568.88747 -18045384.41346  22657989.1874   22658000.4914
     -2134.5074      -1663.2614
  22620944.6754  -13486634.87848 -10191999.10046  22620941.9824   22620963.2804
      3644.9984       2840.2464
 00  9 18  1 25 59.9960000  0 10G 3G31G10G 8G13G27G19G 1G28G 2
  22838776.0034  -13623254.63347 -10574356.15545  22838773.2754   22838785.3424
      -514.7664       -401.1334
  21102712.8844  -19632743.27948 -13574867.98646  21102710.8054   21102723.2384
      1822.5874       1420.1924
  22486640.2394   -4359184.24647  -3376482.18946  22486637.3804   22486655.8594
      1898.0414       1478.9864
  20170374.9994  -11717373.89848  -8865253.98447  20170372.2884   20170385.2844
      2592.2214       2019.9064
  19629398.8964  -42464696.39348 -32550900.22247  19629396.8214   19629406.2944
       364.7084        284.1854
  19793242.3104  -40779998.43649 -30565132.50847  19793240.0354   19793250.9994
      1434.1164       1117.4864
  20082227.2524  -42349187.07149 -32002419.26347  20082224.8094   20082235.7774
      -141.8744       -110.5534
  21729602.2554  -37943335.58748 -29262045.84446  21729600.2044   21729615.4364
     -1931.1884      -1504.8244
  22670186.1784  -23123487.99347 -17995450.99945  22670183.4584   22670194.7514
     -2141.3464      -1668.5884
  22600153.9674  -13595890.69948 -10277133.14246  22600150.8964   22600172.1664
      3634.9544       2832.4164
 00  9 18  1 26 29.9960000  0 10G 3G31G10G 8G13G27G19G 1G28G 2
  22841745.3934  -13607645.27647 -10562192.60845  22841743.1764   22841755.0924
      -526.6784       -410.4114
  21092347.7004  -19687216.32348 -13617314.37546  21092344.6994   21092356.8394
      1808.1584       1408.9514
  22475839.8584   -4415935.51847  -3420703.70345  22475836.7444   22475856.0824
      1884.6014       1468.5094
  20155578.4284  -11795131.61848  -8925844.22047  20155575.6074   20155588.0374
      2590.6884       2018.7124
  19627347.9534  -42475475.83548 -32559299.69947  19627346.0714   19627354.7654
       353.1214        275.1574
  19785057.7734  -40823008.60549 -30598646.76547  19785055.4364   19785066.5894
      1432.4564       1116.1954
  20083040.7904  -42344912.27449 -31999088.22247  20083038.4144   20083049.3564
      -143.9264       -112.1514
  21740638.4654  -37885343.05947 -29216856.97346  21740635.7924   21740651.1124
     -1935.8024      -1508.4164
  22682405.7654  -23059272.81147 -17945412.99345  22682403.0564   22682413.8014
     -2140.4654      -1667.9044
  22579406.7144  -13704913.56748 -10362085.62046  22579404.1584   22579425.9664
      3632.4824       2830.4914
 00  9 18  1 26 59.9960000  0 10G 3G31G10G 8G13G27G19G 1G28G 2
  22844808.0394  -13591548.39747 -10549649.19145  22844805.9204   22844817.7764
      -539.9734       -420.7714
  21082088.9894  -19741124.63048 -13659320.72446  21082086.1864   21082098.5084
      1792.2664       1396.5674
  22465142.5864   -4472152.36947  -3464508.79746  22465139.6394   22465158.0514
      1869.7274       1456.9224
  20140814.8774  -11872710.86248  -8986295.38947  20140812.1534   20140825.0634
      2587.6964       2016.3804
  19625388.0414  -42485775.42148 -32567325.26747  19625385.8044   19625395.0684
       340.0854        264.9994
  19776907.7494  -40865837.10449 -30632019.48847  19776905.2664   19776916.3894
      1429.3394       1113.7654
  20083890.5084  -42340444.36149 -31995606.70047  20083888.2954   20083899.5834
      -147.4194       -114.8744
  21751725.2944  -37827082.10748 -29171458.93946  21751722.7364   21751738.4514
     -1941.7324      -1513.0404
  22694644.5924  -22994954.18947 -17895294.31845  22694642.3524   22694653.0594
     -2140.8564      -1668.2114
  22558699.8704  -13813730.87148 -10446877.88446  22558696.7394   22558718.5164
      3628.5974       2827.4634
 00  9 18  1 27 29.9960000  0 10G 3G31G10G 8G13G27G19G 1G28G 2
  22847962.7374  -13574970.65947 -10536731.09445  22847960.0174   22847972.3914
      -563.5384       -439.1364
  21071936.8884  -19794472.41048 -13700890.29746  21071934.3024   21071946.6164
      1765.9554       1376.0634
  22454545.4494   -4527839.78147  -3507901.31946  22454542.1954   22454561.2984
      1844.5484       1437.3074
  20126084.6184  -11950116.84748  -9046611.56547  20126081.9264   20126095.3514
      2574.3034       2005.9464
  19623518.4224  -42495600.80949 -32574981.32847  19623516.2924   19623525.3664
       316.6654        246.7494
  19768791.2114  -40908489.18049 -30665254.74947  19768788.8834   19768799.8574
      1415.8504       1103.2594
  20084776.7084  -42335788.90949 -31991979.03947  20084774.4084   20084785.3884
      -161.2664       -125.6634
  21762861.9144  -37768559.59747 -29125857.10046  21762858.9074   21762875.5884
     -1958.0294      -1525.7314
  22706902.8974  -22930539.66047 -17845100.95045  22706900.2424   22706910.3414
     -2151.6804      -1676.6414
  22538030.6224  -13922347.17648 -10531513.50846  22538027.7404   22538048.6544
      3614.2374       2816.2744
 00  9 18  1 27 59.9960000  0 10G 3G31G10G 8G13G27G19G 1G28G 2
  22851219.6744  -13557854.77547 -10523393.70845  22851217.2814   22851229.3184
      -581.1054       -452.8184
  21061903.2254  -19847199.17648 -13741975.96246  21061900.7814   21061913.3384
      1745.5714       1360.1824
  22444059.7934   -4582938.55247  -3550835.16746  22444056.7674   22444075.6584
      1825.2444       1422.2604
  20111398.6614  -12027290.86948  -9106746.99247  20111396.1824   20111409.2754
      2566.9134       2000.1854
  19621749.7374  -42504892.38948 -32582221.44447  19621747.7454   19621756.8984
       299.1984        233.1404
  19760719.6144  -40950905.57949 -30698306.38747  19760717.2004   19760727.9384
      1408.3094       1097.3804
  20085709.6864  -42330887.19949 -31988159.48847  20085707.1534   20085718.0494
      -169.1444       -131.8034
  21774059.1964  -37709718.13547 -29080006.72946  21774056.5464   21774072.3364
     -1968.3084      -1533.7414
  22719189.0444  -22865972.39247 -17794788.65945  22719186.6654   22719196.9984
     -2156.3384      -1680.2684
  22517410.3614  -14030702.94648 -10615946.10746  22517407.6754   22517428.6244
      3605.8714       2809.7544
 00  9 18  1 28 29.9960000  0 10G 3G31G10G 8G13G27G19G 1G28G 2
  22854570.6024  -13540242.34647 -10509669.41545  22854568.5344   22854580.7714
      -596.3694       -464.7144
  21051980.0034  -19899344.08648 -13782608.22146  21051977.6324   21051989.9714
      1727.3824       1346.0104
  22433679.7604   -4637488.56547  -3593341.42546  22433676.4594   22433694.9724
      1808.1124       1408.9084
  20096750.1184  -12104272.69148  -9166732.65347  20096747.2884   20096759.8224
      2561.7344       1996.1504
  19620074.7994  -42513690.92648 -32589077.36647  19620073.1254   19620082.9594
       284.0004        221.2964
  19752685.4234  -40993126.14949 -30731205.42047  19752683.0744   19752693.3634
      1403.0244       1093.2634
  20086681.3034  -42325779.44749 -31984179.36347  20086679.0784   20086689.8384
      -174.7774       -136.1924
  21785309.8324  -37650599.44547 -29033940.33946  21785307.0354   21785322.7284
     -1976.2984      -1539.9644
  22731496.8754  -22801294.78447 -17744390.30745  22731494.1854   22731504.6664
     -2158.7954      -1682.1894
  22496832.2374  -14138837.90248 -10700206.59846  22496829.5614   22496850.6724
      3599.7804       2805.0034
 00  9 18  1 28 59.9960000  0 10G 3G31G10G 8G13G27G19G 1G28G 2
  22858022.0934  -13522105.32247 -10495536.48045  22858019.5964   22858031.1314
      -612.0294       -476.9124
  21042174.2774  -19950876.34248 -13822763.07246  21042171.4984   21042183.4624
      1708.8504       1331.5674
  22423408.3184   -4691459.83947  -3635396.70246  22423405.6114   22423424.7864
      1790.7164       1395.3554
  20082142.7784  -12181032.42848  -9226545.26047  20082139.8344   20082152.9154
      2556.2204       1991.8554
  19618500.6824  -42521966.68148 -32595525.93847  19618498.6104   19618507.9274
       268.4464        209.1774
  19744694.0664  -41035121.20449 -30763928.74947  19744691.4994   19744701.7764
      1397.4094       1088.8884
  20087698.1894  -42320436.31349 -31980015.79547  20087695.7994   20087706.5954
      -180.7184       -140.8234
  21796616.8084  -37591175.68647 -28987636.24245  21796614.5824   21796630.5814
     -1984.5114      -1546.3664
  22743830.5474  -22736479.45947 -17693884.50845  22743827.6614   22743838.1304
     -2161.5054      -1684.3054
  22476302.8554  -14246721.60148 -10784271.27546  22476299.8144   22476320.7994
      3593.2684       2799.9294
 00  9 18  1 29 29.9960000  0 10G 3G31G10G 8G13G27G19G 1G28G 2
  22861555.7314  -13503532.37147 -10481063.81045  22861553.8494   22861565.4294
      -626.2204       -487.9744
  21032468.4064  -20001881.37148 -13862507.08446  21032465.5414   21032477.3324
      1691.4424       1318.0004
  22413231.9854   -4744938.87247  -3677068.40646  22413228.8624   22413247.7774
      1774.5104       1382.7254
  20067561.4364  -12257657.00748  -9286252.54947  20067558.7994   20067571.5794
      2551.9154       1988.5004
  19617008.6824  -42529806.24948 -32601634.64147  19617006.7204   19617015.8224
       254.1254        198.0184
  19736728.6314  -41076977.37749 -30796543.86247  19736726.2294   19736736.6614
      1392.9674       1085.4264
  20088743.2234  -42314944.83349 -31975736.67447  20088740.7134   20088751.6574
      -185.4604       -144.5164
  21807965.3144  -37531535.27447 -28941163.32545  21807963.4984   21807979.6404
     -1991.5084      -1551.8184
  22756173.5314  -22671616.06247 -17643341.37345  22756170.6444   22756180.8754
     -2162.8254      -1685.3214
  22455804.1854  -14354440.44648 -10868207.49846  22455801.3264   22455821.8314
      3587.9834       2795.8144
 00  9 18  1 29 59.9960000  0 10G 3G31G10G 8G13G27G19G 1G28G 2
  22865183.7194  -13484469.99347 -10466209.77545  22865181.5194   22865192.3324
      -640.8534       -499.3714
  21022873.1134  -20052303.21648 -13901796.65646  21022870.4594   21022882.0344
      1673.6824       1304.1654
  22403159.2304   -4797870.58447  -3718313.62246  22403155.7614   22403175.7254
      1757.9424       1369.8164
  20053016.4794  -12334091.42548  -9345811.66447  20053013.6974   20053026.6214
      2547.2934       1984.8974
  19615609.8804  -42537154.77348 -32607360.72347  19615608.0714   19615617.4704
       239.4654        186.5954
  19728800.7424  -41118639.50949 -30829007.74747  19728798.2864   19728808.6884
      1388.2114       1081.7204
  20089827.0784  -42309250.03249 -31971299.09147  20089824.4774   20089835.4044
      -190.5454       -148.4804
  21819365.9234  -37471624.77247 -28894479.95845  21819364.1664   21819380.1794
     -1998.8384      -1557.5344
  22768535.9394  -22606651.47847 -17592719.47845  22768533.0674   22768542.7204
     -2164.5304      -1686.6614
  22435347.4104  -14461938.85448 -10951971.94546  22435344.6244   22435365.3014
      3582.3034       2791.3884
 00  9 18  1 30 29.9960000  0 10G 3G31G10G 8G13G27G19G 1G28G 2
  22868916.5374  -13464852.94847 -10450923.45145  22868914.0484   22868925.5924
      -658.7394       -513.3114
  21013401.6034  -20102074.23848 -13940579.08646  21013399.2164   21013410.9334
      1652.5814       1287.7204
  22393202.7294   -4850188.01847  -3759080.19746  22393200.0864   22393219.2324
      1738.1014       1354.3574
  20038519.8934  -12410268.73748  -9405170.42747  20038517.3404   20038530.3104
      2539.2954       1978.6664
  19614317.8574  -42543945.60548 -32612652.23947  19614315.8474   19614325.3124
       221.4714        172.5734
  19720921.9674  -41160040.83949 -30861268.41947  19720919.6374   19720930.5074
      1380.0954       1075.3964
  20090961.6164  -42303285.58049 -31966651.39747  20090959.2484   20090970.3924
      -198.9284       -155.0104
  21830831.2584  -37411379.28947 -28847535.57145  21830828.6984   21830844.5904
     -2009.3394      -1565.7144
  22780928.9734  -22541521.43447 -17541968.52045  22780926.4564   22780937.0054
     -2169.3804      -1690.4314
  22414945.2294  -14569149.45848 -11035512.10246  22414942.3554   22414963.1744
      3573.2884       2784.3624
 00  9 18  1 30 59.9960000  0 10G 3G31G10G 8G13G27G19G 1G28G 2
  22872738.4844  -13444770.50347 -10435274.55645  22872735.7254   22872746.8354
      -682.9214       -532.1514
  21004038.0644  -20151280.26748 -13978921.25846  21004035.4134   21004047.2224
      1625.0164       1266.2404
  22383348.1314   -4901977.90448  -3799435.70946  22383344.8364   22383364.2194
      1711.8374       1333.8914
  20024056.3714  -12486275.90348  -9464396.60047  20024053.5494   20024066.3674
      2524.9704       1967.5014
  19613115.0814  -42550266.35148 -32617577.45447  19613113.1134   19613122.4904
       197.1094        153.5914
  19713076.3214  -41201267.95949 -30893393.34747  19713074.0694   19713084.8994
      1365.5874       1064.0894
  20092131.0304  -42297138.73349 -31961861.57747  20092128.6744   20092139.9764
      -213.6844       -166.5094
  21842343.3574  -37350887.40847 -28800399.19445  21842340.3194   21842355.8294
     -2026.2344      -1578.8784
  22793337.3934  -22476315.16647 -17491158.20145  22793334.7914   22793344.9064
     -2180.4984      -1699.0984
  22394581.5134  -14676158.63348 -11118895.28446  22394578.8664   22394599.2354
      3557.8604       2772.3414
 00  9 18  1 31 29.9960000  0 10G 3G31G10G 8G13G27G19G 1G28G 2
  22876643.7404  -13424243.16247 -10419278.97645  22876641.1064   22876652.5014
      -692.0224       -539.2474
  20994778.4484  -20199939.14548 -14016837.06846  20994775.7834   20994787.6224
      1612.4184       1256.4234
  22373588.3964   -4953259.22447  -3839394.93746  22373585.4024   22373604.9784
      1700.4714       1325.0314
  20009620.6194  -12562131.85048  -9523504.93247  20009617.9954   20009631.4314
      2525.5414       1967.9454
  19611998.2094  -42556135.36648 -32622150.67947  19611996.1864   19612005.2744
       187.6884        146.2484
  19705260.7614  -41242339.98349 -30925397.43147  19705258.3294   19705269.0224
      1366.0924       1064.4854
  20093332.1944  -42290828.62249 -31956944.58047  20093329.8424   20093340.7564
      -213.4924       -166.3594
  21853897.8764  -37290170.13447 -28753087.18745  21853894.6164   21853910.9344
     -2028.0414      -1580.2924
  22805755.9514  -22411054.06847 -17440305.21845  22805753.7714   22805763.9314
     -2176.6674      -1696.1104
  22374253.3434  -14782985.09948 -11202136.11546  22374250.5554   22374270.4744
      3557.4164       2771.9924
 00  9 18  1 31 59.9960000  0 10G 3G31G10G 8G13G27G19G 1G28G 2
  22880650.9444  -13403179.57847 -10402865.51745  22880649.1394   22880660.5664
      -711.5804       -554.4904
  20985641.0324  -20247957.18848 -14054253.51746  20985637.8114   20985650.0114
      1589.3514       1238.4494
  22363944.5194   -5003939.43747  -3878885.79946  22363941.6494   22363960.2194
      1678.7934       1308.1444
  19995232.2874  -12637743.77048  -9582423.10547  19995229.5774   19995242.2434
      2515.7114       1960.2874
  19610984.9174  -42561460.03448 -32626299.73647  19610982.9064   19610992.0934
       167.8554        130.7964
  19697492.0944  -41283163.69649 -30957208.03847  19697489.8464   19697500.3904
      1356.0844       1056.6864
  20094581.8244  -42284262.16449 -31951827.80947  20094579.4914   20094590.0524
      -223.6924       -174.3094
  21865511.0244  -37229136.08747 -28705528.35045  21865508.9264   21865525.9574
     -2040.3234      -1589.8584
  22818201.6984  -22345647.53447 -17389338.89645  22818199.9374   22818209.2114
     -2183.1714      -1701.1804
  22353976.8754  -14889535.29948 -11285161.65246  22353974.1594   22353993.7484
      3546.5414       2763.5184
 00  9 18  1 32 29.9960000  0 10G 3G31G10G 8G13G27G19G 1G28G 2
  22884752.2684  -13381631.39747 -10386074.39345  22884749.5574   22884761.1534
      -723.3484       -563.6554
  20976615.1974  -20295383.44148 -14091208.82546  20976612.9984   20976625.0994
      1573.9784       1226.4714
  22354405.2294   -5054068.20247  -3917946.98646  22354402.5244   22354420.5204
      1664.6954       1297.1594
  19980880.7834  -12713161.51148  -9641189.96547  19980878.0484   19980890.8124
      2513.5764       1958.6244
  19610065.8114  -42566290.20748 -32630063.47047  19610063.8854   19610073.0264
       155.7284        121.3474
  19689761.4244  -41323788.71749 -30988863.82647  19689759.1024   19689769.4314
      1353.8014       1054.9084
  20095870.3004  -42277489.82449 -31946550.61447  20095868.0164   20095878.7484
      -226.2284       -176.2814
  21877177.1444  -37167837.05647 -28657763.04045  21877173.9524   21877190.2134
     -2044.7224      -1593.2824
  22830665.5274  -22280147.65347 -17338299.73345  22830663.3624   22830673.2344
     -2181.9014      -1700.1954
  22333743.7144  -14995858.87748 -11368010.60246  22333740.9674   22333760.2014
      3543.2944       2760.9874
 00  9 18  1 32 59.9960000  0 10G 3G31G10G 8G13G27G19G 1G28G 2
  22888939.8464  -13359627.62247 -10368928.26745  22888936.7334   22888947.5374
      -740.4384       -576.9724
  20967698.7834  -20342243.99448 -14127723.32346  20967696.0594   20967707.1634
      1553.2084       1210.2834
  22344965.6324   -5103672.45747  -3956599.46746  22344962.8874   22344980.9514
      1645.3934       1282.1124
  19966560.7594  -12788412.00248  -9699826.50247  19966558.0864   19966571.0444
      2506.1024       1952.8014
  19609235.1364  -42570654.03848 -32633463.82547  19609233.1874   19609242.3334
       138.3034        107.7674
  19682063.3734  -41364241.83449 -31020385.67747  19682061.0124   19682071.5464
      1346.2034       1048.9864
  20097193.5354  -42270538.93949 -31941134.30647  20097190.8724   20097201.5584
      -234.0604       -182.3854
  21888885.7804  -37106301.65147 -28609813.51745  21888883.2914   21888899.4814
     -2054.5094      -1600.9144
  22843142.2134  -22214584.07547 -17287210.99745  22843139.9124   22843149.5054
     -2185.8324      -1703.2504
  22313548.6654  -15101982.25548 -11450703.57746  22313545.8944   22313565.3684
      3534.7324       2754.3164
 00  9 18  1 33 29.9960000  0 10G 3G31G10G 8G13G27G19G 1G28G 2
  22893221.6564  -13337118.37647 -10351388.23745  22893219.8054   22893230.6234
      -763.6234       -595.0404
  20958898.8654  -20388485.75948 -14163755.64246  20958895.8764   20958907.7204
      1526.2234       1189.2574
  22335635.9314   -5152700.35248  -3994802.84946  22335632.9184   22335651.4214
      1619.7574       1262.1414
  19952282.8014  -12863443.28248  -9758292.22547  19952279.8224   19952292.7094
      2492.4624       1942.1714
  19608503.7024  -42574499.11948 -32636459.95147  19608501.7854   19608510.6724
       114.6334         89.3214
  19674408.0584  -41404471.16549 -31051733.13747  19674405.6534   19674416.3524
      1332.3624       1038.2014
  20098559.1514  -42263357.87549 -31935538.60647  20098556.9464   20098567.6534
      -248.1104       -193.3364
  21900649.7964  -37044479.91347 -28561640.88945  21900647.9434   21900663.8824
     -2070.3594      -1613.2634
  22855640.0724  -22148906.83247 -17236033.65445  22855637.4394   22855647.6654
     -2195.9544      -1711.1514
  22293401.6464  -15207853.07048 -11533199.72746  22293398.8114   22293418.4354
      3519.9454       2742.7944
 00  9 18  1 33 59.9960000  0 10G 3G31G10G 8G13G27G19G 1G28G 2
  22897605.2574  -13314088.98947 -10333443.02945  22897602.0764   22897612.9164
      -774.2094       -603.2954
  20950220.0574  -20434092.09048 -14199292.81546  20950217.1384   20950228.5834
      1511.7744       1177.9984
  22326418.8704   -5201135.31448  -4032544.21246  22326416.0264   22326434.8114
      1606.7334       1251.9964
  19938049.3954  -12938239.14548  -9816574.51547  19938046.7864   19938059.5184
      2491.4044       1941.3474
  19607873.9184  -42577809.05249 -32639039.07947  19607871.9074   19607881.0634
       103.6014         80.7284
  19666797.9594  -41444460.04049 -31082893.20247  19666795.6174   19666806.3624
      1331.1294       1037.2404
  20099972.8244  -42255930.47949 -31929750.92647  20099970.4554   20099980.9164
      -249.5464       -194.4544
  21912471.6284  -36982357.47047 -28513233.92845  21912469.2434   21912485.2844
     -2073.5834      -1615.7714
  22868162.5314  -22083102.03047 -17184756.79745  22868159.0244   22868169.2234
     -2193.4624      -1709.2004
  22273306.3564  -15313454.80648 -11615486.24046  22273303.2554   22273322.4234
      3517.7424       2741.0784
 00  9 18  1 34 29.9960000  0 10G 3G31G10G 8G13G27G19G 1G28G 2
  22902074.2854  -13290600.42747 -10315139.92445  22902071.8074   22902082.5224
      -791.9564       -617.1154
  20941650.5414  -20479120.86748 -14234379.95246  20941648.2284   20941659.3764
      1489.9914       1161.0214
  22317303.1894   -5249036.80648  -4069869.90146  22317300.6644   22317318.6544
      1586.4854       1236.2164
  19923849.8844  -13012858.52148  -9874719.28747  19923847.2764   19923859.7644
      2482.9304       1934.7454
  19607334.7294  -42580643.87149 -32641247.97847  19607332.7534   19607341.6094
        85.2144         66.4004
  19659222.9514  -41484267.63249 -31113912.02447  19659220.6074   19659231.1364
      1322.5374       1030.5444
  20101421.6264  -42248316.23149 -31923817.66247  20101419.4154   20101430.0484
      -258.3064       -201.2794
  21924338.6634  -36919995.09247 -28464640.00345  21924336.7534   21924353.3324
     -2084.0524      -1623.9254
  22880697.1874  -22017231.25547 -17133428.56545  22880694.2694   22880704.1184
     -2198.1844      -1712.8804
  22253250.1234  -15418845.87748 -11697608.62946  22253247.4284   22253266.4684
      3508.1424       2733.5994
 00  9 18  1 34 59.9960000  0 10G 3G31G10G 8G13G27G19G 1G28G 2
  22906644.9434  -13266576.80347 -10296419.90345  22906642.8554   22906653.7254
      -811.1484       -632.0754
  20933207.2054  -20523493.56248 -14268955.86546  20933204.4764   20933215.8684
      1466.7014       1142.8774
  22308304.7734   -5296326.91748  -4106719.21246  22308301.5064   22308319.4814
      1564.7274       1219.2624
  19909697.8854  -13087223.48848  -9932665.83547  19909695.4684   19909708.4274
      2473.1444       1927.1204
  19606900.3404  -42582926.00549 -32643026.22047  19606898.1654   19606906.9714
        65.4564         51.0034
  19651697.3984  -41523815.75549 -31144728.65147  19651694.9134   19651705.4364
      1312.5354       1022.7504
  20102921.1364  -42240437.49749 -31917678.31747  20102918.7344   20102929.2224
      -268.4534       -209.1864
  21936266.9634  -36857316.64447 -28415799.78045  21936263.9984   21936280.8784
     -2095.9514      -1633.2084
  22893257.9544  -21951218.72547 -17081989.90545  22893255.6234   22893264.6134
     -2204.1534      -1717.5324
  22233249.8064  -15523947.86548 -11779505.76546  22233247.0054   22233265.7364
      3497.2214       2725.0934
 00  9 18  1 35 29.9960000  0 10G 3G31G10G 8G13G27G19G 1G28G 2
  22911289.8584  -13242166.76247 -10277398.73645  22911286.8154   22911298.2064
      -815.4894       -635.4634
  20924859.7834  -20567356.52048 -14303134.59346  20924857.5264   20924868.9854
      1458.1834       1136.2394
  22299393.9084   -5343152.81648  -4143206.81046  22299391.1014   22299408.8484
      1557.7124       1213.7974
  19895567.5274  -13161480.93048  -9990528.59447  19895564.9374   19895577.3514
      2477.9634       1930.8734
  19606542.6804  -42584802.59248 -32644488.44747  19606540.8234   19606549.8054
        60.4034         47.0654
  19644192.8734  -41563251.23649 -31175457.49947  19644190.5324   19644200.8464
      1317.2214       1026.4044
  20104442.7284  -42232441.26149 -31911447.38847  20104440.2664   20104450.7604
      -263.9254       -205.6604
  21948225.2024  -36794471.13847 -28366829.39845  21948223.5954   21948239.8874
     -2092.9924      -1630.9014
  22905817.7144  -21885213.88447 -17030557.20545  22905815.4284   22905825.2754
     -2195.4514      -1710.7564
  22213276.3654  -15628907.47748 -11861291.98546  22213273.3094   22213291.8814
      3500.8764       2727.9414
 00  9 18  1 35 59.9960000  0 10G 3G31G10G 8G13G27G19G 1G28G 2
  22916017.3374  -13217315.60847 -10258033.77045  22916015.6284   22916026.9534
      -839.4464       -654.1304
  20916620.9394  -20610651.78348 -14336870.95246  20916618.2874   20916629.7244
      1429.9564       1114.2434
  22290582.2284   -5389457.86648  -4179288.54446  22290578.5894   22290596.7544
      1531.0534       1193.0254
  19881468.5504  -13235574.06948 -10048263.31847  19881465.6154   19881477.7214
      2463.2104       1919.3794
  19606273.5384  -42586216.82548 -32645590.39647  19606271.4584   19606280.8314
        35.6884         27.8094
  19636721.1484  -41602517.16749 -31206054.21847  19636718.6314   19636728.4734
      1302.2844       1014.7654
  20105997.1364  -42224271.04049 -31905080.89347  20105994.7214   20106005.4444
      -278.9874       -217.3954
  21960227.3184  -36731403.54947 -28317685.94345  21960225.1294   21960241.6374
     -2109.6584      -1643.8884
  22918387.5794  -21819162.08247 -16979087.89645  22918384.0424   22918394.9034
     -2206.2034      -1719.1314
  22193340.7654  -15733667.62248 -11942922.81846  22193337.8624   22193356.5334
      3484.9684       2715.5444
 00  9 18  1 36 29.9960000  0 10G 3G31G10G 8G13G27G19G 1G28G 2
  22920852.6014  -13191912.35247 -10238238.60545  22920849.2004   22920860.6044
      -848.4494       -661.1424
  20908511.9934  -20653265.91648 -14370076.52446  20908508.8464   20908519.7444
      1416.6614       1103.8834
  22281891.3144   -5435128.95948  -4214876.28446  22281887.9524   22281906.6234
      1519.3664       1183.9194
  19867420.9084  -13309389.56548 -10105781.70147  19867418.5504   19867431.1104
      2463.4124       1919.5354
  19606113.9104  -42587056.08848 -32646244.31347  19606111.9984   19606120.8554
        25.9344         20.2064
  19629302.6544  -41641500.26949 -31236430.55447  19629300.2294   19629310.0714
      1302.2634       1014.7474
  20107606.4074  -42215814.09349 -31898490.93947  20107603.9754   20107614.4704
      -279.1364       -217.5124
  21972291.9804  -36668002.64047 -28268282.76745  21972288.9184   21972306.9944
     -2111.3934      -1645.2404
  22930985.5564  -21752952.47747 -16927495.61745  22930983.2544   22930993.3974
     -2202.0914      -1715.9254
  22173464.6244  -15838114.70448 -12024309.69546  22173461.9934   22173480.1754
      3483.8964       2714.7104
 00  9 18  1 36 59.9960000  0 10G 3G31G10G 8G13G27G19G 1G28G 2
  22925769.2954  -13166076.47147 -10218106.41945  22925767.3914   22925775.9314
      -872.9164       -680.2054
  20900510.6044  -20695315.50648 -14402842.16746  20900507.2124   20900517.9654
      1387.7514       1081.3564
  22273297.6974   -5480283.70748  -4250061.70546  22273294.6104   22273313.3514
      1492.1304       1162.6954
  19853405.0404  -13383044.87048 -10163175.25247  19853402.3954   19853414.6704
      2447.9594       1907.4944
  19606041.1994  -42587438.34948 -32646542.11247  19606039.2844   19606048.0044
         0.6534          0.5074
  19621915.6974  -41680317.77649 -31266677.85947  19621913.2554   19621923.4104
      1286.6484       1002.5794
  20109247.7684  -42207188.08649 -31891769.24847  20109245.3684   20109256.0274
      -294.8774       -229.7774
  21984396.4974  -36604387.67347 -28218712.78745  21984394.7984   21984412.7064
     -2128.6054      -1658.6444
  22943591.2514  -21686704.57647 -16875873.33745  22943589.1194   22943598.5404
     -2213.3994      -1724.7414
  22153626.4654  -15942365.72948 -12105543.83046  22153623.5944   22153641.5804
      3467.2734       2701.7584
 00  9 18  1 37 29.9960000  0 10G 3G31G10G 8G13G27G19G 1G28G 2
  22930796.6374  -13139657.33147 -10197519.70045  22930793.8824   22930803.3514
      -889.7994       -693.3594
  20892643.5614  -20736647.78148 -14435048.87546  20892641.3484   20892652.7664
      1366.3964       1064.7134
  22264831.8864   -5524770.46348  -4284726.60046  22264829.0734   22264847.5074
      1472.3304       1147.2664
  19839448.2164  -13456387.56749 -10220325.19147  19839445.4084   19839457.9554
      2440.0954       1901.3664
  19606083.8084  -42587211.57648 -32646365.33847  19606082.0344   19606090.9804
       -17.1214        -13.3424
  19614589.4474  -41718817.15849 -31296677.27447  19614586.9044   19614597.0344
      1278.5884        996.2984
  20110950.0824  -42198240.83949 -31884797.24347  20110947.9104   20110958.2474
      -303.0364       -236.1364
  21996572.4944  -36540408.16447 -28168858.76345  21996570.7024   21996587.3334
     -2138.1364      -1666.0714
  22956233.6204  -21620268.69647 -16824104.55845  22956231.2364   22956240.5504
     -2217.0424      -1727.5764
  22133853.7764  -16046268.07148 -12186506.27146  22133850.8714   22133869.0804
      3458.1764       2694.6654
 00  9 18  1 37 59.9960000  0 10G 3G31G10G 8G13G27G19G 1G28G 2
  22935898.6774  -13112836.67347 -10176620.07245  22935896.6954   22935906.9524
      -901.9614       -702.8454
  20884880.9624  -20777441.97448 -14466836.30146  20884878.2074   20884888.8724
      1349.5364       1051.5774
  22256459.7024   -5568769.19948  -4319011.21746  22256456.9764   22256474.8754
      1457.2244       1135.4944
  19825516.4134  -13529597.51748 -10277371.68947  19825513.7944   19825526.4284
      2436.7624       1898.7684
  19606209.1124  -42586555.75748 -32645854.25047  19606207.0454   19606215.7074
       -30.2974        -23.6114
  19607289.7224  -41757178.07349 -31326568.75847  19607287.1524   19607297.1954
      1275.1254        993.5984
  20112679.7954  -42189152.57549 -31877715.34847  20112677.3814   20112687.3034
      -306.5874       -238.9034
  22008783.7024  -36476245.83247 -28118862.27045  22008780.3644   22008797.0774
     -2143.0294      -1669.8884
  22968877.3144  -21553827.60247 -16772332.22345  22968874.9104   22968883.9204
     -2216.1104      -1726.8484
  22114113.3744  -16150001.17848 -12267336.85246  22114110.7594   22114129.1324
      3453.6764       2691.1614
 00  9 18  1 38 29.9960000  0 10G 3G31G10G 8G13G27G19G 1G28G 2
  22941076.0084  -13085629.75647 -10155419.45445  22941073.8424   22941083.1404
      -916.2414       -713.9744
  20877217.8294  -20817710.27248 -14498213.95846  20877215.3574   20877225.9284
      1330.5594       1036.7914
  22248177.4674   -5612292.78848  -4352925.58746  22248174.3924   22248192.6114
      1439.9464       1122.0344
  19811607.9564  -13602687.63649 -10334324.83747  19811605.1014   19811617.7864
      2431.3384       1894.5424
  19606412.6514  -42585485.20448 -32645019.99747  19606410.7024   19606419.3084
       -45.4824        -35.4414
  19600013.1754  -41795413.42449 -31356362.39147  19600010.9804   19600021.2984
      1269.5044        989.2184
  20114433.4224  -42179936.48649 -31870533.83247  20114430.9584   20114441.1814
      -312.2574       -243.3234
  22021025.8344  -36411915.49347 -28068734.86545  22021023.1704   22021039.1994
     -2150.0084      -1675.3294
  22981518.5264  -21487394.94847 -16720566.10945  22981515.9984   22981524.7034
     -2217.1094      -1727.6374
  22094402.9844  -16253577.66648 -12348045.42446  22094400.2714   22094418.7394
      3447.0534       2686.0014
 00  9 18  1 38 59.9960000  0 10G 3G31G10G 8G13G27G19G 1G28G 2
  22946361.6134  -13057854.71847 -10133776.07745  22946358.5974   22946368.6044
      -930.4674       -725.0614
  20869690.1284  -20857268.48448 -14529038.31446  20869687.6444   20869698.6074
      1311.6624       1022.0714
  22240019.9104   -5655157.91548  -4386326.85946  22240016.9274   22240036.1254
      1422.7564       1108.6334
  19797756.7274  -13675474.04648 -10391041.29347  19797754.0604   19797766.1534
      2425.9814       1890.3684
  19606730.2484  -42583815.60948 -32643718.95647  19606728.1424   19606736.9314
       -60.7624        -47.3484
  19592796.1614  -41833339.14449 -31385914.73847  19592793.8214   19592804.1254
      1263.9054        984.8564
  20116246.3444  -42170409.05849 -31863109.71947  20116243.8564   20116254.1374
      -317.9094       -247.7254
  22033333.0244  -36347235.47647 -28018334.98945  22033330.9324   22033346.6304
     -2156.9434      -1680.7274
  22994192.4784  -21420790.24347 -16668665.95745  22994189.9644   22994199.3854
     -2218.1654      -1728.4524
  22074757.4724  -16356813.70248 -12428488.72146  22074754.7304   22074773.3164
      3440.4234       2680.8364
 00  9 18  1 39 29.9960000  0 10G 3G31G10G 8G13G27G19G 1G28G 2
  22951730.2474  -13029637.01747 -10111787.80745  22951728.4734   22951738.0084
      -948.5504       -739.1414
  20862273.8044  -20896239.24448 -14559404.94446  20862271.2564   20862282.3444
      1288.6014       1004.0984
  22231965.4084   -5697487.98148  -4419311.19146  22231962.7514   22231980.9084
      1401.4644       1092.0464
  19783940.1714  -13748079.98949 -10447617.15547  19783937.5704   19783949.4624
      2416.5374       1883.0094
  19607138.2264  -42581671.04848 -32642047.82147  19607136.2794   19607145.0744
       -79.9954        -62.3344
  19585614.6304  -41871078.24549 -31415321.67847  19585612.3034   19585622.4704
      1254.2544        977.3374
  20118094.6194  -42160693.53949 -31855539.08047  20118092.4174   20118102.7224
      -327.5994       -255.2754
  22045684.2834  -36282330.72947 -27967759.98945  22045681.8194   22045698.5174
     -2167.8134      -1689.2014
  23006875.5304  -21354138.57347 -16616729.12245  23006873.1454   23006882.1174
     -2223.1314      -1732.3274
  22055154.0094  -16459831.89348 -12508762.27446  22055151.1714   22055169.1704
      3429.7284       2672.5054
 00  9 18  1 39 59.9960000  0 10G 3G31G10G 8G13G27G19G 1G28G 2
  22957181.5564  -13000995.17647 -10089469.14945  22957177.9884   22957188.2124
      -960.6354       -748.5624
  20854967.0534  -20934638.07248 -14589325.90146  20854964.0734   20854975.2864
      1271.6104        990.8584
  22224008.7024   -5739299.61148  -4451891.54846  22224005.5424   22224023.1774
      1386.2944       1080.2244
  19770155.0504  -13820521.59548 -10504064.97147  19770152.3604   19770164.1804
      2413.0704       1880.3084
  19607633.9054  -42579068.16248 -32640019.54647  19607631.7004   19607640.1664
       -93.2314        -72.6494
  19578465.9104  -41908646.73249 -31444595.67947  19578463.3134   19578472.8974
      1250.6004        974.4884
  20119976.4354  -42150806.53249 -31847834.80947  20119974.0034   20119983.8904
      -331.2454       -258.1164
  22058074.2834  -36217219.61847 -27917024.17745  22058072.3574   22058089.5484
     -2172.6454      -1692.9684
  23019563.5124  -21287458.85947 -16564770.56345  23019561.5484   23019570.8364
     -2221.9034      -1731.3674
  22035588.0714  -16562648.29448 -12588878.61246  22035585.5504   22035603.2244
      3425.0014       2668.8204
 00  9 18  1 40 29.9960000  0 10G 3G31G10G 8G13G27G19G 1G28G 2
  22962712.3474  -12971918.50647 -10066811.65545  22962710.6984   22962720.6814
      -976.5754       -760.9784
  20847770.9104  -20972452.18348 -14618791.24946  20847768.3684   20847779.0674
      1250.5824        974.4734
  22216153.5314   -5780580.95247  -4484058.68046  22216149.8354   22216167.9834
      1367.0964       1065.2674
  19756402.9324  -13892786.24548 -10560374.90347  19756400.3534   19756412.6654
      2405.6654       1874.5384
  19608218.4554  -42575994.56948 -32637624.48847  19608216.4984   19608224.9614
      -110.4204        -86.0444
  19571351.6414  -41946031.93249 -31473726.82847  19571348.9754   19571358.6284
      1242.9884        968.5574
  20121892.9454  -42140736.15949 -31839987.67947  20121890.3374   20121900.1424
      -338.8954       -264.0764
  22070505.5244  -36151891.51247 -27866119.27445  22070503.4954   22070520.5214
     -2181.3124      -1699.7224
  23032260.2874  -21220740.33047 -16512781.73045  23032257.6394   23032265.7594
     -2224.7004      -1733.5474
  22016063.2754  -16665249.92848 -12668827.59546  22016060.8854   22016078.2344
      3416.3734       2662.1004
 00  9 18  1 40 59.9960000  0 10G 3G31G10G 8G13G27G19G 1G28G 2
  22968343.8804  -12942326.71147 -10043752.68245  22968342.0014   22968350.9504
      -993.6464       -774.2794
  20840702.7534  -21009598.82848 -14647736.48846  20840699.7214   20840710.4044
      1228.3814        957.1754
  22208412.6904   -5821249.97847  -4515748.67546  22208409.8034   22208429.1314
      1346.7634       1049.4174
  19742701.1494  -13964791.64348 -10616482.83447  19742698.4214   19742710.0024
      2397.1334       1867.8894
  19608908.6954  -42572369.19748 -32634799.46047  19608906.5834   19608914.9094
      -128.7124       -100.2984
  19564287.6974  -41983151.47949 -31502651.00247  19564285.1694   19564294.9544
      1234.2134        961.7184
  20123859.1154  -42130399.89449 -31831933.36547  20123856.9934   20123866.9494
      -347.6694       -270.9134
  22082994.2224  -36086266.08447 -27814982.68245  22082991.1264   22083008.8034
     -2191.1434      -1707.3844
  23044979.2514  -21153902.82647 -16460700.08945  23044976.0164   23044984.9484
     -2228.6034      -1736.5944
  21996595.3064  -16767554.23348 -12748544.90546  21996592.5864   21996610.3164
      3406.4984       2654.4014
 00  9 18  1 41 29.9960000  0 10G 3G31G10G 8G13G27G19G 1G28G 2
  22974037.9614  -12912404.84447 -10020436.61445  22974035.2624   22974045.1824
     -1007.4614       -785.0364
  20833725.6384  -21046260.17848 -14676303.58746  20833722.6574   20833733.3644
      1209.3954        942.3814
  22200755.9684   -5861489.89147  -4547104.29646  22200752.7994   22200771.3694
      1329.6214       1036.0624
  19729013.5954  -14036720.39849 -10672531.04047  19729010.8124   19729022.0424
      2391.7384       1863.6854
  19609668.2634  -42568374.85448 -32631686.92547  19609666.3794   19609674.7524
      -143.8654       -112.1034
  19557239.5524  -42020187.95149 -31531510.43747  19557237.1874   19557246.8434
      1228.6064        957.3504
  20125841.8394  -42119980.97049 -31823814.63647  20125839.6704   20125849.6274
      -353.2624       -275.2734
  22095503.1744  -36020528.04447 -27763758.36145  22095501.2624   22095518.0344
     -2197.7104      -1712.5014
  23057683.2674  -21087132.02147 -16408670.58345  23057681.8434   23057690.8684
     -2229.0934      -1736.9584
  21977149.3094  -16869743.60348 -12828172.65346  21977146.5774   21977164.6674
      3399.8294       2649.2084
 00  9 18  1 41 59.9960000  0 10G 3G31G10G 8G13G27G19G 1G28G 2
  22979840.4144  -12881910.00647  -9996674.12645  22979838.2004   22979847.9324
     -1026.4354       -799.8304
  20826888.3734  -21082191.11948 -14704301.53946  20826885.6394   20826896.1264
      1185.1164        923.4634
  22193226.0654   -5901056.25147  -4577935.06246  22193223.3114   22193241.7664
      1307.2224       1018.6124
  19715387.0144  -14108327.33049 -10728328.42147  19715384.3194   19715395.5454
      2381.0794       1855.3814
  19610545.7044  -42563767.05348 -32628096.36947  19610543.4924   19610551.7894
      -164.2104       -127.9594
  19550254.1014  -42056896.14949 -31560114.08847  19550251.7274   19550261.4544
      1217.7294        948.8754
  20127887.0764  -42109234.51849 -31815440.68547  20127884.7174   20127894.7184
      -364.0714       -283.6934
  22108081.5624  -35954434.17247 -27712256.76745  22108078.7004   22108095.2994
     -2209.4174      -1721.6204
  23070422.9934  -21020184.44047 -16356503.42945  23070421.4214   23070430.5474
     -2234.9654      -1741.5524
  21957771.9064  -16971572.68448 -12907519.63346  21957768.9254   21957786.5394
      3387.9144       2639.9194
 00  9 18  1 42 29.9960000  0 10G 3G31G10G 8G13G27G19G 1G28G 2
  22985735.5884  -12850934.81747  -9972537.28545  22985732.1084   22985741.0654
     -1036.9694       -808.0394
  20820172.0004  -21117481.67248 -14731800.50246  20820169.4524   20820180.2654
      1169.2314        911.0834
  22185807.5664   -5940039.81947  -4608311.69845  22185804.8184   22185823.1084
      1293.3034       1007.7604
  19701804.4444  -14179702.79349 -10783945.50847  19701801.7414   19701813.2434
      2378.8164       1853.6194
  19611521.7384  -42558637.23248 -32624099.04647  19611519.6534   19611527.8464
      -176.1394       -137.2534
  19543313.9644  -42093366.26649 -31588532.22247  19543311.5814   19543321.3364
      1215.2264        946.9254
  20129976.9034  -42098251.28049 -31806882.21547  20129974.6144   20129984.7054
      -366.5154       -285.5994
  22120708.9024  -35888077.13847 -27660550.09945  22120705.4534   22120722.5984
     -2212.7534      -1724.2174
  23083179.9384  -20953152.70347 -16304270.41545  23083177.0604   23083185.3634
     -2232.2944      -1739.4654
  21938444.9644  -17073131.97748 -12986656.38346  21938442.3384   21938459.8124
      3384.3784       2637.1654
 00  9 18  1 42 59.9960000  0 10G 3G31G10G 8G13G27G19G 1G28G 2
  22991709.0704  -12819542.49647  -9948075.43545  22991706.5784   22991714.5164
     -1059.0734       -825.2574
  20813567.4194  -21152192.46348 -14758847.71346  20813564.3044   20813574.3524
      1141.6864        889.6204
  22178489.1294   -5978501.96247  -4638282.01246  22178485.3894   22178504.7314
      1267.7064        987.8114
  19688254.5594  -14250907.83249 -10839429.80647  19688251.7724   19688263.3934
      2364.9304       1842.7964
  19612585.1354  -42553046.94848 -32619742.92147  19612583.0754   19612591.6194
      -199.7294       -155.6354
  19536407.9304  -42129658.79849 -31616811.97047  19536405.3814   19536414.8604
      1201.0954        935.9134
  20132100.5804  -42087092.56849 -31798187.05547  20132098.0664   20132108.0484
      -380.5964       -296.5714
  22133373.3704  -35821519.68647 -27608687.28645  22133371.2364   22133388.8294
     -2227.5674      -1735.7564
  23095939.1884  -20886100.22047 -16252021.34545  23095936.4644   23095944.4164
     -2241.1434      -1746.3614
  21919158.5254  -17174481.89348 -13065629.99046  21919155.9914   21919173.2284
      3369.1454       2625.2964
 00  9 18  1 43 29.9960000  0 10G 3G31G10G 8G13G27G19G 1G28G 2
  22997773.8504  -12787662.38447  -9923233.48345  22997772.0224   22997781.3774
     -1073.3374       -836.3784
  20807085.4984  -21186250.55548 -14785386.32246  20807083.1324   20807093.7834
      1121.8744        874.1834
  22171281.3934   -6016370.70547  -4667789.92246  22171279.2944   22171297.4824
      1249.8414        973.8944
  19674750.7574  -14321869.47149 -10894724.41147  19674748.0834   19674759.6414
      2358.7484       1837.9804
  19613749.8014  -42546923.47848 -32614971.32447  19613748.1114   19613756.8914
      -215.5154       -167.9354
  19529548.9394  -42165701.01349 -31644896.67047  19529546.5544   19529555.9814
      1194.7154        930.9414
  20134271.1644  -42075685.70349 -31789298.52047  20134268.7244   20134278.8564
      -386.9104       -301.4904
  22146090.4274  -35754691.05647 -27556613.14645  22146088.2944   22146105.0834
     -2234.6224      -1741.2584
  23108716.5934  -20818956.49547 -16199701.18645  23108712.6764   23108721.4784
     -2242.2724      -1747.2284
  21899926.2364  -17275549.52148 -13144383.61546  21899923.2544   21899940.4884
      3361.6904       2619.4864
 00  9 18  1 43 59.9960000  0 10G 3G31G10G 8G13G27G19G 1G28G 2
  23003929.3374  -12755320.45747  -9898031.72345  23003926.5704   23003935.8584
     -1083.4384       -844.2494
  20800723.8904  -21219679.63848 -14811434.79146  20800721.2974   20800732.3694
      1106.0824        861.8784
  22164184.9754   -6053670.28248  -4696854.33646  22164181.5764   22164199.7584
      1236.0704        963.1654
  19661288.8374  -14392611.42549 -10949847.84247  19661286.0354   19661297.8404
      2356.5944       1836.3004
  19615012.3094  -42540291.73848 -32609803.67647  19615010.1654   19615019.0194
      -227.2814       -177.1034
  19522734.0444  -42201516.33149 -31672804.56947  19522731.2894   19522740.4904
      1192.3254        929.0794
  20136484.3834  -42064054.76249 -31780235.37847  20136481.8884   20136491.9824
      -389.1944       -303.2704
  22158854.6354  -35687616.99947 -27504347.77345  22158851.8194   22158869.8274
     -2237.6474      -1743.6184
  23121504.7194  -20751747.43647 -16147330.18445  23121502.3254   23121510.3144
     -2239.0604      -1744.7244
  21880742.6554  -17376358.52748 -13222935.71746  21880739.6934   21880757.0004
      3358.2794       2616.8284
 00  9 18  1 44 29.9960000  0 10G 3G31G10G 8G13G27G19G 1G28G 2
  23010148.6664  -12722638.10847  -9872564.72145  23010145.8744   23010154.1974
     -1096.5044       -854.4214
  20794459.7694  -21252598.21848 -14837085.45646  20794457.3994   20794467.8224
      1087.2894        847.2324
  22157172.4114   -6090520.44348  -4725568.54346  22157169.1844   22157187.1104
      1219.3794        950.1604
  19647845.5214  -14463252.53049 -11004892.67047  19647843.1554   19647854.8834
      2351.4934       1832.3274
  19616347.9714  -42533271.57449 -32604333.36447  19616345.9604   19616354.9284
      -241.9454       -188.5304
  19515938.2944  -42237223.83649 -31700628.44847  19515935.9964   19515945.4804
      1186.9684        924.9064
  20138717.3054  -42052319.07049 -31771090.64547  20138715.0184   20138724.9124
      -394.4224       -307.3434
  22171642.7224  -35620418.65847 -27451985.55345  22171640.2294   22171656.9364
     -2243.4224      -1748.1174
  23134283.0734  -20684594.45647 -16095003.02345  23134280.8204   23134289.1544
     -2239.0514      -1744.7204
  21861585.5384  -17477027.45648 -13301378.65046  21861582.8584   21861600.1164
      3351.8264       2611.7994
 00  9 18  1 44 59.9960000  0 10G 3G31G10G 8G13G27G19G 1G28G 2
  23016471.5104  -12689411.28747  -9846673.47545  23016469.0104   23016477.4644
     -1116.7434       -870.1994
  20788332.6394  -21284799.85548 -14862177.49246  20788329.7274   20788339.6504
      1061.2924        826.9784
  22150284.2084   -6126715.37848  -4753772.19546  22150281.1064   22150299.5524
      1195.4774        931.5334
  19634461.7944  -14533586.58349 -11059698.23947  19634458.8844   19634470.6984
      2339.1464       1822.7044
  19617796.9494  -42525657.39549 -32598400.17747  19617794.9244   19617803.7154
      -263.8454       -205.5964
  19509203.0644  -42272617.02849 -31728207.41847  19509200.6924   19509210.2284
      1174.3824        915.0984
  20141009.7374  -42040272.59849 -31761703.73847  20141007.4444   20141017.1874
      -406.8884       -317.0594
  22184492.6274  -35552891.66547 -27399367.26645  22184489.7644   22184506.7004
     -2256.4894      -1758.2944
  23147089.7234  -20617293.34047 -16042560.36945  23147087.1034   23147095.0134
     -2246.0384      -1750.1624
  21842494.3954  -17577350.05648 -13379551.70446  21842491.6834   21842508.7624
      3338.1954       2601.1784
 00  9 18  1 45 29.9960000  0 10G 3G31G10G 8G13G27G19G 1G28G 2
  23022874.5644  -12655760.06247  -9820451.59845  23022871.6454   23022881.2284
     -1129.6334       -880.2484
  20782318.5454  -21316401.78548 -14886802.22446  20782316.0374   20782325.6224
      1042.5364        812.3624
  22143497.9174   -6162373.32448  -4781557.40246  22143495.2154   22143514.0834
      1178.8074        918.5454
  19621113.8044  -14603730.90749 -11114355.96447  19621111.1514   19621122.4114
      2334.0504       1818.7324
  19619336.6614  -42517566.94549 -32592095.87547  19619334.5754   19619343.3824
      -278.4654       -216.9874
  19502505.5004  -42307813.19849 -31755632.86647  19502503.0634   19502512.4554
      1169.0484        910.9424
  20143338.9014  -42028033.21149 -31752166.49647  20143336.5544   20143346.2724
      -412.0754       -321.0994
  22197383.0484  -35485155.86647 -27346586.27545  22197380.8194   22197397.7344
     -2262.2174      -1762.7644
  23159901.8344  -20549963.40347 -15990095.32245  23159900.4304   23159906.8454
     -2245.7454      -1749.9444
  21823447.1114  -17677443.51948 -13457546.20046  21823444.2364   21823460.9974
      3331.7834       2596.1814
 00  9 18  1 45 59.9960000  0 10G 3G31G10G 8G13G27G19G 1G28G 2
  23029371.4434  -12621618.25447  -9793847.39945  23029368.8694   23029377.6894
     -1146.5984       -893.4614
  20776431.5444  -21347336.10448 -14910906.74446  20776429.1384   20776439.2704
      1019.6094        794.4944
  22136826.3254   -6197426.90248  -4808871.68446  22136823.9894   22136842.9604
      1157.8784        902.2294
  19607814.4114  -14673617.49449 -11168812.84847  19607811.8804   19607823.0614
      2324.7764       1811.5074
  19620979.2264  -42508933.19649 -32585368.22947  19620977.4194   19620986.0914
      -297.2464       -231.6224
  19495858.1384  -42342744.08949 -31782851.61447  19495855.8514   19495865.4074
      1159.5114        903.5114
  20145717.1694  -42015533.14549 -31742426.11647  20145714.9544   20145724.9694
      -421.4354       -328.3944
  22210324.7564  -35417145.15947 -27293591.06745  22210322.1334   22210338.0444
     -2272.0174      -1770.4014
  23172731.8544  -20482538.74047 -15937556.30645  23172730.2204   23172738.3284
     -2249.4714      -1752.8404
  21804456.1744  -17777239.72848 -13535309.07046  21804453.2014   21804469.7684
      3321.1564       2587.9004
 00  9 18  1 46 29.9960000  0 10G 3G31G10G 8G13G27G19G 1G28G 2
  23035940.8734  -12587097.93547  -9766948.21045  23035937.6394   23035946.7794
     -1156.6884       -901.3164
  20770651.5914  -21377712.49148 -14934576.50546  20770648.9294   20770658.5004
      1003.4754        781.9224
  22130251.7224   -6231986.45948  -4835801.00146  22130248.3254   22130266.3324
      1144.0144        891.4344
  19594543.5654  -14743355.97849 -11223154.34747  19594540.8594   19594552.3014
      2322.3364       1809.6064
  19622705.0664  -42499866.38049 -32578303.12347  19622702.7754   19622711.3214
      -309.2254       -240.9564
  19489240.6304  -42377519.21649 -31809949.00147  19489238.2394   19489247.7804
      1156.7914        901.3934
  20148124.5024  -42002882.38249 -31732568.29647  20148122.2984   20148132.3734
      -423.9734       -330.3724
  22223296.8714  -35348971.27047 -27240468.70045  22223294.8214   22223312.0974
     -2274.9274      -1772.6714
  23185559.2544  -20415131.26447 -15885030.62245  23185556.3204   23185564.2904
     -2246.4084      -1750.4684
  21785500.1204  -17876848.34248 -13612925.75446  21785497.6374   21785514.5724
      3317.3884       2584.9644
 00  9 18  1 46 59.9960000  0 10G 3G31G10G 8G13G27G19G 1G28G 2
  23042579.0584  -12552213.04547  -9739765.02745  23042575.9404   23042585.3334
     -1168.5434       -910.5624
  20764974.9374  -21407542.49148 -14957820.52346  20764971.9304   20764981.8904
       985.6094        768.0024
  22123766.7844   -6266064.60748  -4862355.22746  22123763.8724   22123781.2814
      1128.2934        879.1844
  19581298.8544  -14812958.02049 -11277389.51647  19581296.1484   19581307.2964
      2318.1084       1806.3124
  19624510.0094  -42490378.88949 -32570910.21947  19624507.9274   19624516.9744
      -322.8684       -251.5874
  19482650.8334  -42412150.02249 -31836933.94447  19482648.3534   19482657.5754
      1152.3254        897.9134
  20150558.2524  -41990093.03749 -31722602.48047  20150555.9694   20150565.9684
      -428.2494       -333.7044
  22236299.3434  -35280648.08947 -27187229.99345  22236297.7794   22236313.2094
     -2279.5254      -1776.2374
  23198379.8014  -20347755.13847 -15832529.23945  23198377.4794   23198385.8974
     -2244.9944      -1749.3684
  21766578.7984  -17976280.81148 -13690405.17846  21766575.9704   21766593.0634
      3311.8504       2580.6494
 00  9 18  1 47 29.9960000  0 10G 3G31G10G 8G13G27G19G 1G28G 2
  23049312.8924  -12516815.62547  -9712182.40745  23049312.0254   23049319.6364
     -1183.0364       -921.8444
  20759430.2014  -21436675.50648 -14980521.42346  20759427.5214   20759437.9414
       964.8674        751.8404
  22117401.7064   -6299511.60547  -4888417.65146  22117398.4044   22117416.0834
      1109.7734        864.7554
  19568108.4194  -14882272.95949 -11331400.99147  19568105.7514   19568116.8284
      2311.0514       1800.8144
  19626423.5324  -42480321.99049 -32563073.62547  19626421.7324   19626430.8154
      -339.3294       -264.4144
  19476116.6004  -42446485.90549 -31863689.08147  19476114.2914   19476123.6344
      1145.0184        892.2194
  20153046.9214  -41977014.80649 -31712411.57547  20153044.6114   20153054.5314
      -435.3784       -339.2574
  22249358.2504  -35212027.08347 -27133759.19445  22249356.2864   22249371.5294
     -2286.9624      -1782.0444
  23211222.2804  -20280262.38347 -15779937.28945  23211221.0854   23211229.9104
     -2246.3574      -1750.4244
  21747719.1124  -18075386.43148 -13767629.91146  21747716.5144   21747733.3874
      3303.4954       2574.1384
 00  9 18  1 47 59.9960000  0 10G 3G31G10G 8G13G27G19G 1G28G 2
  23056115.0334  -12481063.33447  -9684323.38045  23056114.3504   23056123.1664
     -1199.9014       -934.9874
  20753989.4194  -21465266.43348 -15002799.91446  20753986.9264   20753997.4014
       941.7704        733.8434
  22111126.4784   -6332483.33247  -4914109.73345  22111123.7604   22111140.7484
      1088.9004        848.4924
  19554942.6644  -14951455.59749 -11385309.36847  19554940.3704   19554951.5974
      2301.5724       1793.4294
  19628415.6494  -42469850.84249 -32554914.24347  19628413.7734   19628423.0784
      -358.1774       -279.1004
  19469609.0244  -42480681.36749 -31890334.80447  19469606.9124   19469616.4344
      1135.2864        884.6364
  20155560.9354  -41963802.76649 -31702116.42147  20155558.6184   20155568.5994
      -444.8884       -346.6684
  22262444.3124  -35143265.08247 -27080178.54645  22262440.3264   22262457.3144
     -2296.6474      -1789.5894
  23224059.1074  -20212809.78847 -15727376.63245  23224056.2284   23224063.4204
     -2249.9434      -1753.2044
  21728892.7154  -18174320.04148 -13844720.61646  21728889.9204   21728906.5884
      3292.7214       2565.7444
 00  9 18  1 48 29.9960000  0 10G 3G31G10G 8G13G27G19G 1G28G 2
  23063010.9444  -12444831.62247  -9656090.73845  23063008.8334   23063017.5104
     -1214.7964       -946.6034
  20748676.5704  -21493188.82748 -15024557.47546  20748673.6804   20748683.7144
       920.5344        717.2934
  22104966.5554   -6364854.13747  -4939333.57946  22104963.4544   22104981.5754
      1069.9674        833.7334
  19541827.4324  -15020379.54849 -11439016.16847  19541824.6234   19541835.6254
      2294.0004       1787.5264
  19630511.3534  -42458839.70949 -32546334.09247  19630509.4714   19630518.0294
      -375.1074       -292.2934
  19463152.7024  -42514609.96349 -31916772.59347  19463150.3374   19463159.9644
      1127.4234        878.5074
  20158124.4364  -41950330.76248 -31691618.69347  20158122.2044   20158131.8864
      -452.4874       -352.5894
  22275577.4174  -35074238.07347 -27026391.42445  22275575.1324   22275593.0064
     -2304.3474      -1795.5964
  23236911.3014  -20145272.63747 -15674750.05145  23236907.7424   23236916.7104
     -2251.6824      -1754.5704
  21710122.5194  -18272954.97848 -13921578.59846  21710119.9624   21710136.1504
      3283.8054       2558.7974
 00  9 18  1 48 59.9960000  0 10G 3G31G10G 8G13G27G19G 1G28G 2
  23069987.7464  -12408169.49347  -9627522.72645  23069985.4634   23069994.5584
     -1228.6994       -957.4354
  20743481.1004  -21520489.62348 -15045830.66846  20743478.3224   20743488.5804
       900.1394        701.4004
  22098912.6014   -6396671.18147  -4964125.92446  22098909.5884   22098926.9924
      1051.8654        819.6284
  19528751.9314  -15089091.17249 -11492557.50047  19528749.0884   19528760.3514
      2287.2954       1782.3014
  19632700.7324  -42447336.06649 -32537370.17347  19632698.7044   19632706.9614
      -391.1874       -304.8224
  19456738.1714  -42548318.14149 -31943038.62247  19456735.7504   19456745.1434
      1120.4204        873.0524
  20160728.8884  -41936645.80948 -31680955.00747  20160726.3974   20160736.2724
      -459.2294       -357.8454
  22288754.2394  -35004994.73147 -26972435.72945  22288753.1034   22288769.5334
     -2311.1954      -1800.9284
  23249770.4374  -20077699.91347 -15622095.71745  23249767.0354   23249775.5714
     -2252.5054      -1755.2154
  21691400.8034  -18371337.88348 -13998240.19546  21691397.9474   21691414.1704
      3275.7274       2552.5004
 00  9 18  1 49 29.9960000  0 10G 3G31G10G 8G13G27G19G 1G28G 2
  23077057.4644  -12371019.25847  -9598574.27345  23077055.2314   23077063.5554
     -1247.3294       -971.9604
  20738415.1944  -21547108.60448 -15066572.55646  20738412.5794   20738422.6904
       875.1254        681.9094
  22092974.2564   -6427875.72247  -4988440.98646  22092971.3414   22092988.5574
      1029.1224        801.9064
  19515728.1504  -15157530.46749 -11545886.62847  19515725.4644   19515736.4084
      2275.8714       1773.4004
  19634994.7244  -42435281.37649 -32527976.86447  19634992.6684   19635000.8734
      -411.8114       -320.8934
  19450376.9834  -42581745.57049 -31969085.89547  19450374.7484   19450384.2744
      1108.7424        863.9534
  20163384.8764  -41922688.01449 -31670078.69447  20163382.3464   20163392.4034
      -470.6384       -366.7344
  22301983.5994  -34935477.07047 -26918266.25845  22301981.9024   22301998.3944
     -2322.6234      -1809.8314
  23262646.6394  -20010033.35547 -15569368.10945  23262644.0464   23262650.7184
     -2257.8384      -1759.3684
  21672737.9114  -18469408.70848 -14074658.61446  21672735.3164   21672751.5774
      3263.0084       2542.5914
 00  9 18  1 49 59.9960000  0 10G 3G31G10G 8G13G27G19G 1G28G 2
  23084205.2944  -12333463.46247  -9569309.64645  23084202.4224   23084210.8154
     -1256.1144       -978.8034
  20733464.5914  -21573126.17248 -15086845.80246  20733461.7794   20733471.5244
       859.6704        669.8664
  22087136.5824   -6458548.59547  -5012341.75746  22087133.9624   22087150.9254
      1016.0684        791.7354
  19502740.7074  -15225777.46749 -11599065.93047  19502738.1674   19502749.5274
      2274.0614       1771.9904
  19637377.8514  -42422756.35049 -32518217.05647  19637376.1274   19637384.5244
      -422.8994       -329.5334
  19444054.2954  -42614972.15449 -31994976.65647  19444051.9174   19444061.7704
      1106.6584        862.3294
  20166076.9944  -41908537.96949 -31659052.57047  20166074.7394   20166085.0234
      -472.4484       -368.1464
  22315249.2744  -34865767.30147 -26863947.09345  22315246.9284   22315263.4384
     -2324.3194      -1811.1534
  23275524.2984  -19942356.03647 -15516632.23045  23275522.3764   23275528.9204
     -2253.5184      -1755.9914
  21654119.3654  -18567247.59948 -14150896.30446  21654116.7054   21654133.3364
      3259.8874       2540.1594
 00  9 18  1 50 29.9960000  0 10G 3G31G10G 8G13G27G19G 1G28G 2
  23091426.4274  -12295511.29247  -9539736.26745  23091423.9384   23091433.2324
     -1268.8514       -988.7284
  20728626.0244  -21598548.93348 -15106655.55446  20728623.5704   20728633.6464
       840.3044        654.7744
  22081400.2004   -6488697.01647  -5035833.88245  22081397.1844   22081413.4004
       998.9604        778.4064
  19489789.1564  -15293838.25549 -11652100.07047  19489786.5294   19489797.5304
      2268.3134       1767.5104
  19639850.0064  -42409768.04049 -32508096.24447  19639847.7674   19639856.0534
      -437.8844       -341.2094
  19437768.7234  -42648004.00749 -32020715.66347  19437766.1364   19437775.7224
      1100.5944        857.6024
  20168805.3314  -41894202.29049 -31647881.78347  20168802.7654   20168812.9034
      -478.1744       -372.6084
  22328550.2464  -34795873.89547 -26809484.85045  22328548.0314   22328564.2934
     -2330.0544      -1815.6164
  23288403.5464  -19874676.58247 -15463894.95745  23288400.6624   23288408.2164
     -2253.2734      -1755.8024
  21635544.4054  -18664860.70248 -14226958.06546  21635541.3684   21635557.8654
      3252.8104       2534.6434
 00  9 18  1 50 59.9960000  0 10G 3G31G10G 8G13G27G19G 1G28G 2
  23098730.9164  -12257123.62947  -9509823.32845  23098728.0264   23098736.4124
     -1283.3544      -1000.0374
  20723909.2574  -21623336.23648 -15125970.14546  20723906.6344   20723916.4904
       819.1334        638.2804
  22075769.8934   -6518281.00747  -5058886.18646  22075767.0094   22075783.8164
       980.1584        763.7554
  19476880.7244  -15361672.17049 -11704957.50447  19476878.1884   19476889.1244
      2260.7224       1761.5964
  19642416.8624  -42396276.09549 -32497582.99047  19642414.8754   19642423.3704
      -454.6654       -354.2854
  19431527.4014  -42680800.05049 -32046270.91747  19431525.1874   19431534.6264
      1092.7164        851.4624
  20171576.3344  -41879640.45549 -31636534.77947  20171574.0084   20171583.7184
      -485.7344       -378.4984
  22341892.5744  -34725758.33947 -26754849.49545  22341890.1104   22341905.1944
     -2337.4554      -1821.3924
  23301290.5614  -19806955.61447 -15411125.44445  23301286.7584   23301294.4474
     -2254.6154      -1756.8444
  21617019.1064  -18762207.08748 -14302811.99346  21617016.6334   21617033.0084
      3243.8794       2527.6854
 00  9 18  1 51 29.9950000  0 10G 3G31G10G 8G13G27G19G 1G28G 2
  23106094.6414  -12218425.44247  -9479668.72145  23106091.7214   23106101.3694
     -1295.6884      -1009.6314
  20719290.3854  -21647607.53948 -15144882.65946  20719287.9504   20719297.4664
       799.9854        623.3604
  22070225.2634   -6547420.85047  -5081592.40646  22070222.3344   22070239.0014
       963.4484        750.7374
  19463993.4084  -15429396.81449 -11757729.78347  19463990.5464   19464001.1454
      2255.1994       1757.2944
  19645056.8024  -42382402.81249 -32486772.59147  19645054.9104   19645063.2354
      -469.3404       -365.7204
  19425309.1224  -42713479.29349 -32071735.14347  19425306.4204   19425315.8174
      1086.9034        846.9334
  20174367.7574  -41864973.34049 -31625105.73047  20174365.1984   20174374.7434
      -491.2234       -382.7764
  22355253.4414  -34655545.24447 -26700138.13745  22355251.8204   22355266.7304
     -2342.6794      -1825.4584
  23314161.3454  -19739317.64447 -15358420.57445  23314159.0694   23314165.7554
     -2253.8234      -1756.2344
  21598523.7394  -18859403.79248 -14378549.29646  21598520.8404   21598536.5114
      3237.0654       2522.3764
 00  9 18  1 51 59.9950000  0 10G 3G31G10G 8G13G27G19G 1G28G 2
  23113545.1564  -12179264.82947  -9449153.59245  23113543.3724   23113552.2344
     -1317.9634      -1027.0024
  20714798.2544  -21671213.78148 -15163276.96646  20714795.6974   20714805.4614
       770.7884        600.6064
  22064792.7594   -6575969.12747  -5103837.67546  22064789.3634   22064806.5644
       936.7354        729.9214
  19451153.6904  -15496865.97249 -11810303.00747  19451150.9474   19451161.9584
      2239.6104       1745.1444
  19647797.9504  -42367997.74249 -32475547.81747  19647795.9194   19647804.4754
      -494.0404       -384.9694
  19419140.5834  -42745893.00549 -32096992.45547  19419138.3614   19419147.4934
      1071.0134        834.5514
  20177207.5094  -41850049.67949 -31613476.76947  20177204.8924   20177214.5054
      -506.7164       -394.8484
  22368663.6364  -34585081.28447 -26645231.32945  22368660.3694   22368676.4774
     -2357.9014      -1837.3144
  23327045.7264  -19671608.69047 -15305659.82545  23327042.6234   23327050.1544
     -2263.0384      -1763.4144
  21580082.9324  -18956306.50348 -14454057.52846  21580080.4774   21580096.0894
      3220.1514       2509.1984
 00  9 18  1 52 29.9950000  0 10G 3G31G10G 8G13G27G19G 1G28G 2
  23121102.5824  -12139551.09947  -9418207.35945  23121099.9014   23121108.6754
     -1324.9564      -1032.4494
  20710450.3164  -21694059.56948 -15181078.70946  20710447.7654   20710457.5274
       756.9004        589.7884
  22059490.8264   -6603830.44147  -5125547.63546  22059487.7554   22059503.6714
       925.3214        721.0264
  19438381.8904  -15563982.21349 -11862601.21947  19438379.1994   19438390.2424
      2239.3514       1744.9454
  19650658.1344  -42352967.20749 -32463835.67247  19650656.2254   19650664.7704
      -503.3774       -392.2434
  19413041.3224  -42777944.83049 -32121967.77647  19413038.9804   19413048.3674
      1070.4264        834.0934
  20180113.8184  -41834775.11648 -31601574.38847  20180111.1844   20180120.8464
      -506.9204       -395.0064
  22382136.9604  -34514276.00147 -26590058.55045  22382134.5474   22382151.3264
     -2357.8064      -1837.2434
  23339960.7084  -19603739.20747 -15252774.30345  23339957.5834   23339965.3644
     -2256.9394      -1758.6544
  21561717.3794  -19052816.81848 -14529260.00346  21561714.6624   21561730.4494
      3218.5504       2507.9484
 00  9 18  1 52 59.9950000  0 10G 3G31G10G 8G13G27G19G 1G28G 2
  23128717.8694  -12099532.74747  -9387023.93245  23128715.1824   23128723.9604
     -1344.5744      -1047.7284
  20706201.2104  -21716390.79548 -15198479.49746  20706198.2874   20706207.7184
       730.2774        569.0424
  22054271.8784   -6631251.50047  -5146914.55846  22054268.9754   22054285.9694
       901.1834        702.2154
  19425630.1134  -15630990.91149 -11914815.63747  19425627.5494   19425638.4254
      2226.2144       1734.7064
  19653590.6534  -42337557.52149 -32451828.09047  19653588.7394   19653596.7494
      -525.4914       -409.4764
  19406964.2164  -42809879.90249 -32146852.12047  19406961.7664   19406971.1754
      1057.0094        823.6394
  20183039.7164  -41819395.61648 -31589590.24647  20183037.5514   20183047.3124
      -519.9994       -405.1994
  22395629.0304  -34443377.11547 -26534812.83445  22395626.7174   22395643.0634
     -2370.3454      -1847.0174
  23352858.5704  -19535956.11147 -15199955.88045  23352855.8654   23352860.9264
     -2263.5394      -1763.8264
  21543380.3384  -19149180.36348 -14604348.11446  21543377.4754   21543392.6164
      3204.1354       2496.7174
 00  9 18  1 53 29.9950000  0 10G 3G31G10G 8G13G27G19G 1G28G 2
  23136429.9474  -12058998.45747  -9355438.44945  23136428.7324   23136437.2714
     -1357.5004      -1057.7934
  20702089.6804  -21737994.58048 -15215313.43646  20702087.1094   20702096.8494
       710.2374        553.4264
  22049178.4844   -6658019.99047  -5167773.01746  22049175.2154   22049192.1034
       883.6974        688.5914
  19412939.9954  -15697678.68449 -11966779.96547  19412937.4154   19412947.9314
      2219.7724       1729.6884
  19656635.5304  -42321555.94749 -32439359.29147  19656633.6324   19656641.7374
      -540.9934       -421.5544
  19400949.6964  -42841484.67849 -32171479.07547  19400947.3124   19400956.5824
      1050.2334        818.3584
  20186026.7624  -41803698.01648 -31577358.23847  20186024.5874   20186034.5734
      -526.3384       -410.1384
  22409178.7794  -34372173.50947 -26479329.66645  22409175.5664   22409191.5204
     -2376.2404      -1851.6104
  23365780.5484  -19468048.76747 -15147040.50245  23365778.0934   23365784.8654
     -2263.4784      -1763.7604
  21525110.8054  -19245183.71148 -14679155.56646  21525108.0364   21525123.0844
      3196.3444       2490.6464
 00  9 18  1 53 59.9950000  0 10G 3G31G10G 8G13G27G19G 1G28G 2
  23144208.9654  -12018123.84447  -9323587.75645  23144206.3364   23144214.4204
     -1366.8004      -1065.0514
  20698083.5764  -21759044.46148 -15231715.76846  20698081.2574   20698090.9984
       693.7604        540.5864
  22044175.1054   -6684310.49848  -5188259.00846  22044171.9164   22044189.6984
       869.7294        677.7074
  19400277.8944  -15764218.63449 -12018629.12347  19400275.2304   19400286.0774
      2216.8014       1727.3734
  19659759.9674  -42305137.84949 -32426565.92647  19659757.9134   19659766.0094
      -552.8974       -430.8304
  19394965.5044  -42872932.21649 -32195983.49547  19394963.1134   19394972.1594
      1046.9424        815.7944
  20189041.4404  -41787855.82148 -31565013.56147  20189039.1104   20189048.8794
      -529.1574       -412.3334
  22422752.3144  -34300840.48647 -26423745.67545  22422750.1444   22422766.6744
     -2378.5654      -1853.4254
  23378692.9034  -19400192.62847 -15094165.33945  23378690.0014   23378696.8074
     -2259.6814      -1760.8014
  21506877.0714  -19341000.04248 -14753817.28546  21506874.4864   21506889.1434
      3192.1144       2487.3514
 00  9 18  1 54 29.9950000  0 10G 3G31G10G 8G13G27G19G 1G28G 2
  23152067.0444  -11976830.07147  -9291410.43245  23152064.7474   23152072.1194
     -1386.6354      -1080.4984
  20694199.3774  -21779459.09048 -15247623.08346  20694196.6034   20694205.9804
       666.6444        519.4564
  22039278.7574   -6710042.50348  -5208309.80346  22039275.8024   22039292.2404
       845.1644        658.5654
  19387659.4494  -15830529.15449 -12070299.52347  19387656.7414   19387667.3854
      2203.2314       1716.7984
  19662978.7614  -42288222.26649 -32413384.91647  19662976.8004   19662985.1834
      -575.4214       -448.3804
  19389026.4974  -42904140.78649 -32220301.69547  19389024.2464   19389033.2544
      1033.0404        804.9614
  20192099.0434  -41771787.89748 -31552493.00047  20192096.7814   20192106.5554
      -542.6374       -422.8384
  22436366.2644  -34229298.70847 -26367999.03045  22436363.6304   22436380.9464
     -2391.4894      -1863.4934
  23391609.0184  -19332307.76347 -15041267.71745  23391607.5894   23391614.7724
     -2266.4794      -1766.0984
  21488694.8754  -19436547.87248 -14828269.80746  21488692.2084   21488707.0354
      3177.1944       2475.7244
 00  9 18  1 54 59.9950000  0 10G 3G31G10G 8G13G27G19G 1G28G 2
  23160010.4884  -11935092.33447  -9258887.20245  23160007.6794   23160014.6794
     -1396.6764      -1088.3254
  20690440.6434  -21799211.54948 -15263014.42146  20690437.8274   20690447.2824
       649.3814        506.0034
  22034492.8884   -6735189.58248  -5227904.82246  22034489.5244   22034507.1274
       830.5004        647.1424
  19375089.2764  -15896582.50349 -12121769.52047  19375086.7594   19375097.7174
      2199.4464       1713.8484
  19666297.3134  -42270782.48249 -32399795.43947  19666295.3674   19666303.6804
      -588.0224       -458.2014
  19383138.3124  -42935082.61649 -32244412.04347  19383135.9474   19383145.2084
      1028.9704        801.7894
  20195204.9014  -41755467.01848 -31539775.34647  20195202.6054   20195212.1184
      -546.2284       -425.6344
  22450025.4144  -34157523.06747 -26312070.14445  22450022.0644   22450038.8084
     -2394.4054      -1865.7594
  23404538.6884  -19264368.85047 -14988328.05145  23404537.0594   23404543.3644
     -2263.4214      -1763.6994
  21470569.0204  -19531799.66248 -14902491.63646  21470566.3594   21470581.4054
      3172.1604       2471.8014
 00  9 18  1 55 29.9950000  0 10G 3G31G10G 8G13G27G19G 1G28G 2
  23168010.0094  -11893047.29547  -9226124.52545  23168006.7884   23168015.1364
     -1411.9354      -1100.2204
  20686781.4324  -21818436.70848 -15277994.88246  20686778.9754   20686788.4344
       626.7254        488.3514
  22029793.4924   -6759887.25648  -5247149.66346  22029790.4724   22029807.4584
       810.4874        631.5484
  19362543.6014  -15962512.78349 -12173143.60347  19362540.8914   19362551.8284
      2190.2904       1706.7154
  19669690.2944  -42252954.09949 -32385903.16347  19669688.0604   19669696.3424
      -606.0744       -472.2664
  19377274.9244  -42965891.76749 -32268419.01647  19377272.8254   19377282.3764
      1019.4384        794.3624
  20198333.0464  -41739027.62748 -31526965.33647  20198330.8124   20198340.5914
      -555.2774       -432.6854
  22463701.6664  -34085649.86347 -26256065.25545  22463699.2614   22463717.3044
     -2402.6774      -1872.2184
  23417451.2204  -19196511.85747 -14935452.19345  23417447.6384   23417456.3114
     -2265.8954      -1765.6484
  21452474.0294  -19626889.55648 -14976587.32246  21452471.3694   21452486.0244
      3161.6664       2463.6264
 00  9 18  1 55 59.9950000  0 10G 3G31G10G 8G13G27G19G 1G28G 2
  23176099.2614  -11850531.76547  -9192995.30345  23176096.8944   23176105.4654
     -1421.9374      -1108.0034
  20683255.6494  -21836968.92348 -15292435.38246  20683252.6464   20683261.6614
       609.3174        474.7864
  22025210.1294   -6783970.72248  -5265915.91446  22025207.4234   22025224.2694
       795.6674        619.9994
  19350052.4444  -16028153.85949 -12224292.33747  19350049.7714   19350060.2454
      2186.2914       1703.5974
  19673187.9434  -42234572.66449 -32371579.94447  19673185.8184   19673194.2834
      -618.7904       -482.1734
  19371469.6284  -42996402.08949 -32292193.14947  19371467.0924   19371476.1274
      1015.1644        791.0324
  20201515.2324  -41722304.08348 -31513933.90247  20201513.1464   20201522.6954
      -559.0604       -435.6354
  22477428.9464  -34013515.43547 -26199856.80845  22477426.7534   22477443.7924
     -2405.6134      -1874.5004
  23430379.2374  -19128573.01747 -14882512.41745  23430376.5784   23430383.9684
     -2262.8034      -1763.2254
  21434441.0404  -19721651.71648 -15050427.64046  21434438.2954   21434452.9344
      3156.4164       2459.5354
 00  9 18  1 56 29.9950000  0 10G 3G31G10G 8G13G27G19G 1G28G 2
  23184266.3434  -11807618.40547  -9159556.09245  23184262.9034   23184270.3294
     -1437.9584      -1120.4904
  20679846.7804  -21854879.08848 -15306391.18346  20679844.1204   20679853.4414
       585.6964        456.3804
  22020730.0014   -6807511.14848  -5284259.02046  22020727.4754   22020744.2294
       774.7244        603.6814
  19337603.1534  -16093575.86349 -12275270.35147  19337600.3934   19337610.4974
      2176.0994       1695.6574
  19676777.0634  -42215709.22949 -32356881.13747  19676775.2244   19676783.9174
      -637.7174       -496.9244
  19365707.0264  -43026683.57549 -32315788.96947  19365704.6164   19365713.3444
      1004.6104        782.8094
  20204738.3214  -41705366.71848 -31500735.84447  20204736.0794   20204745.6114
      -569.0834       -443.4444
  22491193.0754  -33941192.02847 -26143501.09845  22491189.9784   22491208.7224
     -2414.7764      -1881.6384
  23443309.8564  -19060624.64247 -14829565.29845  23443306.7104   23443313.4604
     -2265.9734      -1765.6964
  21416456.9434  -19816156.48648 -15124067.40246  21416454.3304   21416468.8934
      3144.9264       2450.5804
 00  9 18  1 56 59.9950000  0 10G 3G31G10G 8G13G27G19G 1G28G 2
  23192504.7904  -11764318.19047  -9125815.38945  23192503.3904   23192510.2594
     -1447.9834      -1128.3184
  20676555.2064  -21872175.96648 -15319869.09846  20676552.5424   20676561.7304
       568.2484        442.7854
  22016351.7644   -6830518.31248  -5302186.60646  22016349.2404   22016366.2584
       759.9024        592.1334
  19325193.5934  -16158787.11749 -12326084.14347  19325190.9094   19325201.2224
      2172.0114       1692.4724
  19680456.7734  -42196373.04949 -32341813.95347  19680454.9054   19680463.4804
      -650.5074       -506.8894
  19359986.1744  -43056744.33849 -32339212.80647  19359983.8894   19359992.9944
      1000.2264        779.3924
  20207999.9704  -41688224.43148 -31487378.10947  20207997.5854   20208007.6384
      -572.9444       -446.4534
  22504988.0984  -33868690.36747 -26087006.50845  22504985.5554   22505002.8964
     -2417.8224      -1884.0094
  23456238.9984  -18992676.97247 -14776618.69445  23456236.8364   23456243.7684
     -2263.0024      -1763.3944
  21398520.8454  -19910412.32748 -15197513.20646  21398517.7514   21398532.0564
      3139.6164       2446.4444
 00  9 18  1 57 29.9950000  0  9G 3G31G10G 8G13G27G19G 1G 2
  23200815.1814  -11720648.75647  -9091786.95145  23200812.2354   23200821.0054
     -1461.2814      -1138.6714
  20673376.7394  -21888874.93048 -15332881.10546  20673374.2684   20673383.7764
       547.1544        426.3474
  22012072.8474   -6853008.41148  -5319711.28246  22012069.7164   22012086.3724
       741.5324        577.8124
  19312821.2484  -16223802.30349 -12376745.14747  19312818.4904   19312828.5314
      2164.3344       1686.4894
  19684223.2164  -42176580.57249 -32326391.21347  19684221.2964   19684229.6664
      -666.8604       -519.6324
  19354305.1154  -43086598.94649 -32362475.98747  19354302.7914   19354311.6964
       992.2094        773.1454
  20211298.0804  -41670892.41648 -31473872.55947  20211296.0124   20211305.8904
      -580.4224       -452.2794
  22518815.3074  -33796027.62347 -26030386.38845  22518813.8074   22518830.0264
     -2424.2654      -1889.0314
  21380628.3034  -20004434.35648 -15270776.82246  21380625.7034   21380640.4694
      3130.6734       2439.4754
 00  9 18  1 57 59.9950000  0  9G 3G31G10G 8G13G27G19G 1G 2
  23209184.1494  -11676664.27047  -9057513.00945  23209181.7574   23209190.1784
     -1473.7424      -1148.3844
  20670302.9654  -21905028.33748 -15345467.99046  20670300.4894   20670309.4174
       526.9394        410.5964
  22007880.9774   -6875034.72548  -5336874.56746  22007877.9554   22007895.6784
       724.0534        564.1954
  19300476.3994  -16288673.12449 -12427293.65847  19300473.8694   19300483.9574
      2157.5234       1681.1814
  19688066.2064  -42156384.96749 -32310654.34547  19688064.2994   19688072.4654
      -682.3164       -531.6774
  19348653.6874  -43116299.05549 -32385618.78047  19348651.0144   19348659.9674
       985.0154        767.5394
  20214623.2014  -41653422.77748 -31460259.80147  20214620.6114   20214630.1114
      -587.0264       -457.4254
  22532663.9164  -33723257.76947 -25973682.79045  22532660.4404   22532679.1404
     -2429.8724      -1893.4014
  21362770.9274  -20098274.33948 -15343898.58447  21362768.3994   21362782.9894
      3122.5494       2433.1454
 00  9 18  1 58 29.9950000  0  9G 3G31G10G 8G13G27G19G 1G 2
  23217634.8524  -11632256.12747  -9022908.88145  23217632.7094   23217640.6714
     -1489.6894      -1160.8154
  20667353.8644  -21920525.75348 -15357543.71346  20667351.3544   20667360.3334
       503.2734        392.1534
  22003798.9254   -6896487.72448  -5353591.11746  22003795.6234   22003812.8314
       703.1644        547.9194
  19288180.7004  -16353288.26449 -12477642.92147  19288177.8144   19288188.2084
      2147.0894       1673.0504
  19692006.9204  -42135675.91249 -32294517.39247  19692004.9564   19692013.3134
      -701.2344       -546.4184
  19343052.0814  -43145733.28449 -32408554.40547  19343049.8744   19343058.7444
       974.2884        759.1814
  20217994.7034  -41635704.85248 -31446453.54747  20217992.0644   20218001.6104
      -597.1304       -465.3004
  22546552.3934  -33650272.04147 -25916810.98645  22546549.7304   22546568.6394
     -2438.8204      -1900.3704
  21344969.8694  -20191821.08448 -15416791.85147  21344967.0114   21344981.0704
      3110.9594       2424.1154
 00  9 18  1 58 59.9950000  0  9G 3G31G10G 8G13G27G19G 1G 2
  23226170.5864  -11587395.55147  -8987952.09145  23226168.3724   23226176.2424
     -1499.1604      -1168.1984
  20664535.0544  -21935337.08448 -15369084.82246  20664532.5454   20664541.4964
       485.8984        378.6164
  21999831.0344   -6917337.26848  -5369837.44746  21999828.1704   21999844.8924
       688.5744        536.5474
  19275939.3364  -16417616.67849 -12527768.76147  19275936.5774   19275946.5794
      2143.0644       1669.9134
  19696051.2834  -42114424.08349 -32277957.49147  19696049.2134   19696057.3524
      -713.8224       -556.2254
  19337507.3874  -43174870.32649 -32431258.45047  19337504.8314   19337513.7104
       969.8934        755.7564
  20221419.0104  -41617707.75248 -31432429.75447  20221416.5754   20221425.9904
      -600.9474       -468.2734
  22560488.6214  -33577041.57047 -25859748.45645  22560485.6144   22560502.6744
     -2441.4134      -1902.3904
  21327229.6364  -20285043.73048 -15489432.58846  21327226.8534   21327240.8574
      3105.6524       2419.9804
 00  9 18  1 59 29.9950000  0  9G 3G31G10G 8G13G27G19G 1G 2
  23234768.0734  -11542215.14647  -8952746.20245  23234765.8724   23234773.4384
     -1512.2494      -1178.3864
  20661822.6694  -21949591.87548 -15380192.27446  20661820.0774   20661828.9884
       464.9554        362.2964
  21995953.9514   -6937713.78448  -5385715.17946  21995950.6634   21995967.6634
       670.4494        522.4234
  19263728.0534  -16481787.00949 -12577771.41047  19263725.2094   19263735.2504
      2135.3534       1663.9034
  19700173.9574  -42092759.15649 -32261075.69847  19700171.8314   19700179.9834
      -729.9674       -568.8074
  19331994.7054  -43203839.09649 -32453831.38247  19331992.3064   19332001.0064
       961.8564        749.4924
  20224871.9734  -41599560.67848 -31418289.11147  20224869.6134   20224879.4154
      -608.3494       -474.0424
  22574445.0644  -33503697.73847 -25802597.60945  22574442.1114   22574459.9444
     -2447.5714      -1907.1924
  21309526.6224  -20378071.44048 -15561921.42747  21309524.0104   21309538.0234
      3096.7484       2413.0404
 00  9 18  1 59 59.9950000  0  9G 3G31G10G 8G13G27G19G 1G 2
  23243439.0064  -11496654.48447  -8917244.07345  23243435.1294   23243443.5144
     -1526.0424      -1189.1344
  20659227.4844  -21963227.89448 -15390817.58746  20659224.6794   20659234.0944
       443.1434        345.3024
  21992177.7034   -6957556.04848  -5401176.60346  21992175.0884   21992191.4284
       651.4544        507.6274
  19251558.4334  -16545736.46249 -12627601.94147  19251555.8324   19251566.1504
      2126.8344       1657.2654
  19704386.2584  -42070620.51249 -32243824.77547  19704384.3684   19704393.1484
      -746.9264       -582.0214
  19326526.0224  -43232576.45749 -32476223.99647  19326523.6104   19326532.5494
       952.9614        742.5634
  20228365.7234  -41581201.44448 -31403983.13247  20228363.2084   20228372.9674
      -616.6004       -480.4714
  22588436.0194  -33430180.11447 -25745311.33545  22588433.6104   22588450.2244
     -2454.5904      -1912.6644
  21291872.9604  -20470841.46948 -15634209.47547  21291870.2824   21291884.3344
      3086.9574       2405.4124
 00  9 18  2  0 29.9950000  0  9G 3G31G10G 8G13G27G19G 1G 2
  23252201.2904  -11450602.52247  -8881359.15845  23252199.4934   23252206.1384
     -1538.5614      -1198.8824
  20656771.6354  -21976132.22448 -15400872.75646  20656768.9714   20656778.2334
       422.5894        329.2844
  21988526.0624   -6976751.38948  -5416133.93446  21988522.4184   21988538.7294
       633.7164        493.8024
  19239452.9834  -16609350.91949 -12677171.45547  19239450.2394   19239460.5594
      2119.4584       1651.5204
  19708710.8954  -42047894.94149 -32226116.51747  19708708.9974   19708717.5314
      -762.6474       -594.2714
  19321123.3244  -43260968.21549 -32498347.33247  19321120.8324   19321129.8344
       945.2844        736.5814
  20231921.0664  -41562516.43748 -31389423.28947  20231918.6944   20231928.3004
      -623.6424       -485.9604
  22602480.6644  -33356376.84447 -25687802.48845  22602477.1064   22602496.1914
     -2460.2684      -1917.0804
  21274289.8064  -20563240.15748 -15706208.16547  21274287.1244   21274301.1784
      3078.4154       2398.7584
 00  9 18  2  0 59.9950000  0  9G 3G31G10G 8G13G27G19G 1G 2
  23261035.3384  -11404176.02947  -8845182.46645  23261033.3874   23261040.0804
     -1551.0964      -1208.6584
  20654433.8124  -21988419.48348 -15410447.08146  20654431.1294   20654440.2364
       401.9884        313.2314
  21984973.6514   -6995415.80948  -5430677.55946  21984970.3744   21984986.5114
       615.9474        479.9544
  19227388.8364  -16672744.25749 -12726568.65747  19227386.5034   19227396.8534
      2112.0574       1645.7524
  19713125.5334  -42024698.09049 -32208041.02447  19713123.6234   19713131.3894
      -778.4174       -606.5614
  19315764.5264  -43289128.45449 -32520290.27347  19315762.2184   19315770.8684
       937.4844        730.5034
  20235516.7784  -41543619.90848 -31374698.64347  20235514.6634   20235524.5254
      -630.7724       -491.5134
  22616557.2504  -33282404.26247 -25630161.72145  22616554.0054   22616572.6944
     -2465.9114      -1921.4774
  21256756.5084  -20655381.50148 -15778006.33847  21256753.4844   21256766.7464
      3069.7584       2392.0084
 00  9 18  2  1 29.9950000  0  9G 3G31G10G 8G13G27G19G 1G 2
  23269922.1664  -11357480.41347  -8808795.91645  23269919.8944   23269924.4874
     -1566.1964      -1220.4234
  20652193.5694  -22000193.61448 -15419621.58146  20652190.5234   20652199.3184
       378.7424        295.1214
  21981502.3984   -7013653.43748  -5444888.62146  21981499.7804   21981515.8044
       595.6394        464.1294
  19215348.5424  -16736019.40349 -12775873.75147  19215345.7554   19215355.6464
      2101.9564       1637.8814
  19717609.2684  -42001133.98049 -32189679.33947  19717607.2724   19717615.5024
      -796.7614       -620.8544
  19310430.5934  -43317159.67049 -32542132.67347  19310428.0904   19310436.5364
       927.0104        722.3414
  20239133.4584  -41524615.20848 -31359889.69847  20239131.1384   20239140.8494
      -640.5184       -499.1094
  22630644.4104  -33208367.75547 -25572471.11645  22630642.4104   22630661.4944
     -2474.1544      -1927.9094
  21239251.3914  -20747368.67648 -15849684.37647  21239248.4854   21239262.3934
      3058.4674       2383.2114
 00  9 18  2  1 59.9950000  0  9G 3G31G10G 8G13G27G19G 1G 2
  23278897.6314  -11310312.07947  -8772041.14845  23278894.6524   23278901.5744
     -1577.2854      -1229.0584
  20650088.9684  -22011248.65048 -15428235.73246  20650086.4064   20650095.4794
       359.3364        279.9974
  21978151.7364   -7031258.98348  -5458607.14146  21978148.9884   21978165.7694
       579.1614        451.2954
  19203369.2054  -16798969.56949 -12824925.63347  19203366.5624   19203376.4154
      2095.7004       1633.0064
  19722201.9614  -41976997.79548 -32170871.88947  19722200.1504   19722208.6754
      -811.2484       -632.1434
  19305159.9084  -43344854.80649 -32563713.18947  19305157.4114   19305166.1104
       920.3884        717.1824
  20242809.7654  -41505296.13748 -31344835.81547  20242807.4414   20242817.0164
      -646.4154       -503.7014
  22644783.4694  -33134062.89647 -25514571.39445  22644782.7554   22644802.1314
     -2478.4354      -1931.2384
  21221814.7334  -20838995.16948 -15921081.35847  21221811.9754   21221826.5354
      3051.0214       2377.4104
 00  9 18  2  2 29.9950000  0  9G 3G31G10G 8G13G27G19G 1G 2
  23287935.0664  -11262816.23447  -8735031.23045  23287933.0554   23287940.3084
     -1588.9674      -1238.1754
  20648094.3874  -22021728.46048 -15436401.65446  20648091.6684   20648101.0374
       339.3634        264.4334
  21974894.5554   -7048377.02348  -5471945.79346  21974891.6714   21974909.1944
       562.1024        437.9984
  19191424.8744  -16861737.41949 -12873835.45547  19191422.0824   19191431.9554
      2088.7574       1627.5974
  19726877.1054  -41952433.73749 -32151731.02547  19726874.8994   19726883.0584
      -826.3304       -643.8944
  19299926.3064  -43372356.61549 -32585143.04847  19299924.0344   19299932.4144
       913.1094        711.5104
  20246518.6964  -41485805.95348 -31329648.58847  20246516.2184   20246525.7584
      -652.9534       -508.7974
  22658947.7314  -33059634.89447 -25456575.70145  22658944.1364   22658964.3684
     -2483.3074      -1935.0394
  21204419.9394  -20930403.99848 -15992308.72947  21204417.2554   21204431.4414
      3042.9444       2371.1164
 00  9 18  2  2 59.9950000  0  9G 3G31G10G 8G13G27G19G 1G 2
  23297028.7944  -11215026.56447  -8697792.38245  23297025.7314   23297033.5264
     -1602.6854      -1248.8414
  20646203.7834  -22031664.47148 -15444143.83846  20646201.1834   20646210.3844
       317.2484        247.2004
  21971723.7984   -7065040.06448  -5484929.88246  21971720.8584   21971737.1794
       542.9904        423.1094
  19179509.1624  -16924353.41049 -12922626.93947  19179506.5254   19179516.2894
      2079.7084       1620.5454
  19731626.4884  -41927473.86848 -32132281.73347  19731624.5624   19731632.4534
      -843.4774       -657.2564
  19294723.6644  -43399695.65149 -32606446.06747  19294721.4574   19294730.0704
       903.6934        704.1724
  20250254.4934  -41466175.57648 -31314352.11547  20250251.8604   20250260.9804
      -661.5984       -515.5334
  22673128.7434  -32985116.84447 -25398509.86845  22673125.9734   22673144.0964
     -2490.3224      -1940.5024
  21187060.7134  -21021626.14148 -16063390.62747  21187058.3104   21187071.8554
      3032.7774       2363.1934
 00  9 18  2  3 29.9950000  0  9G 3G31G10G 8G13G27G19G 1G 2
  23306216.3224  -11166739.25147  -8660165.66945  23306215.1914   23306221.1304
     -1616.3134      -1259.4854
  20644455.4704  -22040851.73248 -15451302.60746  20644452.8324   20644461.7174
       295.3764        230.1614
  21968678.5194   -7081043.21148  -5497399.78146  21968675.6914   21968692.0144
       524.0534        408.3464
  19167661.5834  -16986611.26149 -12971139.35847  19167659.0674   19167668.9084
      2070.8754       1613.6614
  19736490.5324  -41901913.37649 -32112364.42447  19736488.4254   19736496.5694
      -860.3834       -670.4304
  19289591.2694  -43426665.48949 -32627461.39947  19289588.9984   19289597.8524
       894.4354        696.9594
  20254055.1594  -41446199.23448 -31298786.04247  20254053.0164   20254062.1694
      -670.0554       -522.1254
  22687364.3264  -32910304.87147 -25340214.95245  22687361.4964   22687380.2684
     -2497.0434      -1945.7434
  21169776.4644  -21112455.73548 -16134166.63847  21169773.5164   21169787.2964
      3022.7314       2355.3674
 00  9 18  2  3 59.9950000  0  8G31G10G 8G13G27G19G 1G 2
  20642807.7874  -22049508.79848 -15458048.25846  20642805.1724   20642813.9114
       274.8434        214.1594
  21965716.6064   -7096605.39548  -5509526.05646  21965713.8564   21965729.4504
       506.5054        394.6744
  19155841.3514  -17048728.32049 -13019542.07547  19155838.6474   19155848.3534
      2063.2904       1607.7534
  19741427.1734  -41875971.03049 -32092149.56847  19741425.2614   19741433.3824
      -875.9784       -682.5814
  19284488.4704  -43453483.38249 -32648358.34047  19284486.0204   19284494.5104
       886.4984        690.7744
  20257880.9084  -41426094.62048 -31283119.99547  20257878.8214   20257888.1074
      -677.2024       -527.6924
  22701613.7344  -32835418.64747 -25281862.17445  22701613.0404   22701631.9534
     -2502.2654      -1949.8144
  21152524.5534  -21203110.50948 -16204806.42247  21152522.0124   21152535.8884
      3014.0164       2348.5744
 00  9 18  2  4 29.9950000  0  8G31G10G 8G13G27G19G 1G 2
  20641277.9674  -22057550.83148 -15464314.67046  20641275.0614   20641283.8684
       256.2044        199.6354
  21962855.6504   -7111642.98548  -5521243.54946  21962852.6084   21962869.2224
       490.9364        382.5454
  19144063.8374  -17110618.73949 -13067768.20847  19144061.1834   19144070.6084
      2057.5654       1603.2914
  19746452.2454  -41849563.01048 -32071571.84447  19746450.1214   19746458.6334
      -889.6314       -693.2214
  19279429.9244  -43480063.37949 -32669069.90947  19279427.7724   19279436.2524
       880.4134        686.0324
  20261747.1024  -41405776.43148 -31267287.53547  20261744.8324   20261754.3064
      -682.4824       -531.8094
  22715895.7004  -32760375.00146 -25223386.72645  22715891.2564   22715910.3774
     -2505.6884      -1952.4834
  21135323.3354  -21293505.07248 -16275243.45347  21135320.3984   21135334.3934
      3007.1984       2343.2614
 00  9 18  2  4 59.9950000  0  8G31G10G 8G13G27G19G 1G 2
  20639855.8074  -22065021.78448 -15470136.10146  20639853.2734   20639862.2554
       240.6334        187.5024
  21960084.8194   -7126200.65948  -5532587.09646  21960082.1864   21960099.0824
       478.3524        372.7374
  19132321.3464  -17172325.52649 -13115851.24047  19132318.6234   19132327.9564
      2054.8474       1601.1754
  19751557.1174  -41822733.88248 -32050665.99347  19751555.0804   19751563.8014
      -900.2184       -701.4714
  19274409.8034  -43506448.32249 -32689629.48747  19274406.9864   19274415.3784
       877.3354        683.6344
  20265646.3624  -41385288.04148 -31251322.44547  20265644.1574   20265653.1394
      -684.7014       -533.5374
  22730196.5704  -32685219.44346 -25164824.07844  22730193.5974   22730212.8434
     -2505.8694      -1952.6194
  21118162.7384  -21383682.48248 -16345511.26847  21118160.0114   21118174.0294
      3003.3874       2340.2924
 00  9 18  2  5 29.9950000  0  8G31G10G 8G13G27G19G 1G 2
  20638555.8974  -22071852.26648 -15475458.45646  20638553.1014   20638562.0284
       214.0974        166.8264
  21957419.7124   -7140209.42148  -5543502.90546  21957416.8094   21957432.5064
       454.9714        354.5184
  19120627.2104  -17233777.74049 -13163735.91747  19120624.4794   19120633.7674
      2041.2414       1590.5724
  19756756.1774  -41795414.26448 -32029377.93547  19756754.0614   19756762.4924
      -921.7134       -718.2194
  19269438.8664  -43532567.44949 -32709981.93447  19269436.5944   19269445.0414
       863.2894        672.6894
  20269590.5304  -41364559.36548 -31235170.13347  20269588.3384   20269597.4594
      -697.8884       -543.8124
  22744534.0074  -32609883.84047 -25106121.11745  22744531.1334   22744548.2184
     -2517.0624      -1961.3444
  21101057.2234  -21473572.50548 -16415555.14447  21101054.4594   21101068.2494
      2988.6364       2328.7974
 00  9 18  2  5 59.9950000  0  8G31G10G 8G13G27G19G 1G 2
  20637386.2824  -22078000.51748 -15480249.19946  20637383.2484   20637392.0564
       191.7394        149.4044
  21954865.8824   -7153628.44848  -5553959.17846  21954863.0394   21954879.5304
       435.6294        339.4454
  19108989.6594  -17294932.76549 -13211389.01947  19108987.0334   19108996.2314
      2031.6274       1583.0814
  19762056.2054  -41767563.16848 -32007675.73947  19762054.1884   19762062.1344
      -939.0424       -731.7224
  19264527.1044  -43558377.93349 -32730093.87847  19264524.6154   19264533.4194
       853.3484        664.9434
  20273588.9304  -41343548.27848 -31218797.78547  20273586.6524   20273595.4694
      -706.9334       -550.8594
  22758911.7174  -32534327.76547 -25047246.35445  22758908.6764   22758928.6244
     -2523.9564      -1966.7274
  21084014.0594  -21563132.77548 -16485342.06747  21084011.4184   21084024.7694
      2978.0194       2320.5244
 00  9 18  2  6 29.9950000  0  8G31G10G 8G13G27G19G 1G 2
  20636327.9364  -22083560.09348 -15484581.23346  20636325.1854   20636333.8624
       177.9244        138.6404
  21952407.0974   -7166551.71448  -5564029.14046  21952403.8394   21952419.8854
       424.9494        331.1224
  19097391.1134  -17355882.64349 -13258882.27647  19097388.4184   19097397.8574
      2030.6034       1582.2834
  19767438.6934  -41739274.30848 -31985632.43247  19767436.9854   19767445.3894
      -947.8264       -738.5684
  19259656.5094  -43583971.57149 -32750036.85547  19259654.1854   19259662.7784
       851.9034        663.8174
  20277623.5534  -41322347.22548 -31202277.40547  20277621.1034   20277630.0584
      -707.4614       -551.2694
  22773314.1624  -32458645.74346 -24988273.41945  22773311.6304   22773329.9034
     -2522.3904      -1965.4984
  21067016.4474  -21652455.74348 -16554944.07647  21067013.7304   21067026.8874
      2975.9084       2318.8794
 00  9 18  2  6 59.9950000  0  8G31G10G 8G13G27G19G 1G 2
  20635373.5904  -22088574.00148 -15488488.08046  20635370.9564   20635379.8774
       155.1754        120.9144
  21950033.4484   -7179022.89848  -5573746.83746  21950030.5564   21950046.3464
       405.3024        315.8164
  19085823.6914  -17416668.79049 -13306247.95447  19085821.1164   19085830.8024
      2020.5284       1574.4314
  19772897.1184  -41710591.58548 -31963282.21647  19772895.1654   19772903.7684
      -965.5024       -752.3414
  19254819.8564  -43609390.04949 -32769843.33847  19254817.5364   19254825.6224
       841.4754        655.6914
  20281685.8734  -41300998.48148 -31185641.98246  20281683.4884   20281692.5934
      -716.9974       -558.6994
  22787729.7474  -32382882.04746 -24929236.83845  22787729.2984   22787747.9664
     -2529.6954      -1971.1904
  21050056.0404  -21741583.69048 -16624394.11947  21050053.0914   21050066.1594
      2964.8004       2310.2234
 00  9 18  2  7 29.9950000  0  8G31G10G 8G13G27G19G 1G 2
  20634546.7674  -22092919.18348 -15491873.84246  20634544.0514   20634553.0144
       140.9174        109.8034
  21947769.3544   -7190919.65248  -5583016.92646  21947766.0414   21947782.3614
       394.2074        307.1714
  19074311.1194  -17477167.04649 -13353389.31947  19074308.4774   19074318.4574
      2018.9754       1573.2244
  19778453.6594  -41681392.03648 -31940529.28047  19778451.6824   19778460.2104
      -974.6784       -759.4904
  19250039.7364  -43634508.84249 -32789416.30947  19250037.3634   19250045.5944
       839.5174        654.1664
  20285800.6064  -41279378.29048 -31168795.03747  20285798.2064   20285806.6854
      -718.0014       -559.4824
  22802186.2684  -32306914.74047 -24870041.60545  22802185.1234   22802204.3594
     -2528.3784      -1970.1484
  21033155.7194  -21830392.50148 -16693595.48247  21033153.1034   21033166.1064
      2962.2094       2308.2054
 00  9 18  2  7 59.9950000  0  8G31G10G 8G13G27G19G 1G 2
  20633841.3814  -22096626.95548 -15494762.92246  20633838.5194   20633847.0624
       112.7914         87.8844
  21945608.3594   -7202273.18248  -5591863.71446  21945605.4934   21945621.6054
       369.2244        287.7024
  19062848.0104  -17537407.20349 -13400329.56747  19062845.2294   19062854.7944
      2003.4774       1561.1474
  19784102.2094  -41651706.89248 -31917397.95947  19784100.4284   19784109.2344
      -997.7584       -777.4754
  19245310.8414  -43659357.62649 -32808778.87047  19245308.4554   19245317.0004
       823.6154        641.7754
  20289960.6104  -41257516.57748 -31151759.86647  20289958.0024   20289966.8024
      -732.9244       -571.1124
  22816675.5104  -32230776.19046 -24810712.91045  22816672.9124   22816693.3194
     -2540.9664      -1979.9754
  21016310.8484  -21918912.29448 -16762571.63747  21016308.0914   21016320.8854
      2945.6704       2295.3184
 00  9 18  2  8 29.9950000  0  8G31G10G 8G13G27G19G 1G 2
  20633234.6924  -22099815.49048 -15497247.39746  20633231.8104   20633240.2084
        94.8254         73.8844
  21943528.8564   -7213202.96948  -5600380.31046  21943525.8394   21943541.6574
       354.4674        276.2054
  19051411.1704  -17597506.22549 -13447159.82947  19051408.5144   19051417.9614
      1998.1044       1556.9594
  19789821.2894  -41621655.56548 -31893981.30147  19789819.1444   19789827.5064
     -1010.6384       -787.5124
  19240611.5124  -43684053.64949 -32828022.41847  19240609.0734   19240617.4234
       817.8404        637.2734
  20294143.5604  -41235531.36448 -31134628.47846  20294141.3054   20294150.5854
      -737.7564       -574.8774
  22831172.5814  -32154586.05246 -24751344.00545  22831171.1064   22831191.3144
     -2543.3744      -1981.8464
  20999498.4344  -22007260.84948 -16831414.36647  20999495.6124   20999508.6914
      2939.2854       2290.3414
 00  9 18  2  8 59.9950000  0  8G31G10G 8G13G27G19G 1G 2
  20632749.9564  -22102360.94848 -15499230.76646  20632747.3594   20632756.0044
        71.1014         55.4014
  21941552.2264   -7223585.94548  -5608470.82346  21941549.5184   21941565.8284
       333.9844        260.2484
  19040025.2224  -17657338.94749 -13493782.58247  19040022.5654   19040032.0594
      1986.8764       1548.2104
  19795632.7714  -41591114.62148 -31870183.13147  19795630.9584   19795639.1934
     -1029.2304       -801.9984
  19235964.7944  -43708471.72249 -32847049.39247  19235962.4514   19235970.4294
       806.2674        628.2574
  20298374.2594  -41213298.01048 -31117303.73846  20298371.9394   20298381.3834
      -748.3224       -583.1094
  22845706.1914  -32078221.75347 -24691839.41945  22845702.9534   22845722.6074
     -2551.3994      -1988.1124
  20982742.0454  -22095313.34848 -16900026.40147  20982739.3904   20982752.6624
      2927.1044       2280.8494
 00  9 18  2  9 29.9950000  0  8G31G10G 8G13G27G19G 1G 2
  20632398.0694  -22104211.26748 -15500672.47546  20632395.2374   20632403.9704
        54.8924         42.7684
  21939691.1054   -7233370.49348  -5616095.03846  21939687.9674   21939703.8584
       320.9494        250.0884
  19028700.0184  -17716851.91049 -13540156.15547  19028697.3614   19028707.0134
      1983.1324       1545.2924
  19801547.7414  -41560032.34548 -31845963.14147  19801545.8604   19801553.7884
     -1040.3594       -810.6714
  19231381.1684  -43732558.14949 -32865817.94647  19231378.6444   19231386.9024
       802.1044        625.0144
  20302662.6504  -41190763.28148 -31099744.17646  20302660.4734   20302669.4724
      -751.4344       -585.5344
  22860279.6244  -32001632.41346 -24632159.43944  22860277.0164   22860297.5524
     -2551.9234      -1988.4984
  20966052.3314  -22183016.94148 -16968366.57447  20966049.4164   20966063.0104
      2922.4044       2277.1904
 00  9 18  2  9 59.9950000  0  8G31G10G 8G13G27G19G 1G 2
  20632142.9624  -22105549.51048 -15501715.16446  20632140.3644   20632148.9074
        34.5004         26.8794
  21937906.9924   -7242739.85148  -5623395.73746  21937904.1594   21937921.0654
       303.8444        236.7594
  19017401.6964  -17776226.17549 -13586421.64647  19017398.9594   19017408.1074
      1975.1974       1539.1094
  19807531.0464  -41528591.79948 -31821463.97647  19807528.7484   19807536.8264
     -1055.5544       -822.5094
  19226826.2194  -43756494.17749 -32884469.30547  19226823.8004   19226832.1594
       793.7884        618.5334
  20306973.7334  -41168108.94348 -31082091.39846  20306971.3124   20306980.3514
      -758.7304       -591.2204
  22874861.6974  -31925001.72446 -24572447.25244  22874859.8164   22874877.1864
     -2556.6444      -1992.1854
  20949394.3664  -22270553.20548 -17036576.35847  20949391.7034   20949405.2864
      2913.5414       2270.2834
 00  9 18  2 10 29.9950000  0  8G31G10G 8G13G27G19G 1G 2
  20632028.1154  -22106154.13548 -15502186.18346  20632025.2094   20632033.8034
        14.2264         11.0834
  21936246.1474   -7251473.36848  -5630200.97146  21936242.9094   21936258.8264
       286.8384        223.5064
  19006171.8934  -17835239.09549 -13632405.56947  19006168.9684   19006178.1114
      1967.3044       1532.9594
  19813623.6544  -41496571.83948 -31796513.31947  19813621.7564   19813629.9254
     -1070.7014       -834.3154
  19222342.2004  -43780056.88049 -32902829.75047  19222340.0374   19222348.2364
       785.4704        612.0514
  20311349.3544  -41145112.75348 -31064172.23946  20311347.1524   20311356.4134
      -765.9504       -596.8454
  22889495.4124  -31848109.85946 -24512531.53144  22889491.9664   22889510.4424
     -2561.1444      -1995.6924
  20932810.8364  -22357699.91348 -17104482.59247  20932808.0114   20932821.1394
      2904.6994       2263.3924
 00  9 18  2 10 59.9950000  0  8G31G10G 8G13G27G19G 1G 2
  20632006.6094  -22106264.95448 -15502272.41846  20632003.9664   20632012.7284
        -9.9164         -7.7314
  21934658.8914   -7259811.41448  -5636698.04246  21934655.5544   21934672.3704
       265.9864        207.2564
  18994965.1294  -17894128.73449 -13678293.42447  18994962.4184   18994971.6824
      1955.4814       1523.7464
  19819781.1744  -41464212.66748 -31771298.33847  19819779.3134   19819787.6744
     -1089.6764       -849.1014
  19217884.2884  -43803484.21049 -32921084.69647  19217881.7964   19217889.9914
       773.2304        602.5134
  20315745.4294  -41122013.74148 -31046172.96646  20315743.0354   20315751.9874
      -777.1044       -605.5374
  22904131.0554  -31771197.25746 -24452599.67344  22904128.4004   22904145.3114
     -2569.5434      -2002.2424
  20916255.6894  -22444695.56048 -17172271.12647  20916253.1514   20916266.0554
      2891.9484       2253.4564
 00  9 18  2 11 29.9950000  0  8G31G10G 8G13G27G19G 1G 2
  20632120.9884  -22105665.52248 -15501805.22446  20632117.8694   20632126.7354
       -29.9674        -23.3544
  21933188.4384   -7267538.06848  -5642718.71346  21933185.4854   21933202.4914
       249.2564        194.2234
  18983823.5754  -17952677.03649 -13723915.31147  18983820.9104   18983830.0394
      1947.7274       1517.7034
  19826045.0354  -41431298.48048 -31745650.88147  19826042.8704   19826050.8644
     -1104.5044       -860.6544
  19213493.3024  -43826558.09449 -32939064.23747  19213491.0124   19213499.0344
       765.0954        596.1744
  20320201.3384  -41098594.35148 -31027924.04646  20320199.4444   20320208.2614
      -784.1354       -611.0164
  22918810.3074  -31694048.52046 -24392483.78644  22918809.1814   22918829.0674
     -2573.6714      -2005.4714
  20899770.9884  -22531322.74648 -17239772.55847  20899768.5764   20899781.4354
      2883.3114       2246.7264
 00  9 18  2 11 59.9950000  0  8G31G10G 8G13G27G19G 1G 2
  20632346.3524  -22104478.72948 -15500880.33246  20632343.8554   20632352.3284
       -46.7444        -36.4284
  21931811.2404   -7274776.97048  -5648359.33146  21931808.0104   21931824.5014
       235.7664        183.7134
  18972724.1024  -18011005.18149 -13769365.64247  18972721.3704   18972730.2884
      1943.1134       1514.1094
  19832390.4284  -41397952.44048 -31719666.91147  19832388.3044   19832396.5544
     -1116.1334       -869.7154
  19209146.5284  -43849399.86849 -32956862.91147  19209144.1454   19209152.3714
       760.0864        592.2704
  20324695.6684  -41074976.12548 -31009520.16546  20324693.6924   20324702.7634
      -788.0124       -614.0374
  22933512.3594  -31616787.41046 -24332280.32444  22933510.3404   22933531.1234
     -2574.6774      -2006.2374
  20883333.4184  -22617703.55648 -17307082.00147  20883330.7094   20883343.4354
      2877.8224       2242.4514
 00  9 18  2 12 29.9950000  0  8G31G10G 8G13G27G19G 1G 2
  20632673.7524  -22102758.10548 -15499539.45446  20632671.3524   20632679.3544
       -73.9154        -57.6034
  21930516.0604   -7281582.01948  -5653661.87046  21930512.7404   21930529.4624
       211.9044        165.1194
  18961656.0464  -18069165.35249 -13814685.07447  18961653.5354   18961662.6824
      1928.1184       1502.4254
  19838807.7244  -41364228.18748 -31693388.23347  19838805.8824   19838813.8884
     -1138.1214       -886.8494
  19204834.0504  -43872061.45149 -32974521.18047  19204831.7844   19204839.8414
       744.7164        580.2954
  20329218.0814  -41051211.88848 -30991002.51846  20329215.6534   20329225.0234
      -802.2734       -625.1514
  22948226.4424  -31539468.67746 -24272031.95444  22948222.1654   22948245.5094
     -2585.9284      -2015.0094
  20866932.2284  -22703890.54148 -17374240.42047  20866929.5624   20866941.6774
      2861.9784       2230.1024
 00  9 18  2 12 59.9950000  0  8G31G10G 8G13G27G19G 1G 2
  20633138.6084  -22100312.16948 -15497633.38446  20633136.0124   20633144.7394
       -89.5044        -69.7504
  21929339.1274   -7287762.78548  -5658477.98146  21929336.3984   21929352.9844
       199.7194        155.6194
  18950657.4794  -18126964.45149 -13859723.15847  18950654.8554   18950663.8094
      1924.6534       1499.7244
  19845333.6744  -41329934.41548 -31666665.77047  19845331.6304   19845339.7744
     -1148.5164       -894.9484
  19200592.7044  -43894349.80349 -32991888.63547  19200590.3274   19200598.4104
       740.8034        577.2464
  20333803.8424  -41027109.66948 -30972221.50046  20333801.9704   20333811.2954
      -804.9774       -627.2574
  22962988.3764  -31461901.90646 -24211590.29344  22962985.9164   22963004.9124
     -2585.6254      -2014.7614
  20850604.5204  -22789691.35048 -17441097.92947  20850601.7454   20850614.3154
      2857.6774       2226.7514
 00  9 18  2 13 29.9950000  0  8G31G10G 8G13G27G19G 1G 2
  20633691.5454  -22097408.79848 -15495370.86646  20633688.6154   20633696.8204
      -102.1874        -79.6324
  21928231.3124   -7293587.45448  -5663016.61246  21928228.1654   21928244.4274
       190.4864        148.4284
  18939676.4924  -18184668.17149 -13904686.91947  18939673.8264   18939682.9624
      1924.0874       1499.2824
  19851916.3814  -41295339.64048 -31639708.75847  19851914.5014   19851922.9704
     -1155.9254       -900.7224
  19196371.5614  -43916530.64649 -33009172.31747  19196369.2614   19196377.6164
       739.8184        576.4784
  20338404.8244  -41002935.59048 -30953384.52146  20338402.3604   20338411.4334
      -804.7844       -627.1044
  22977744.1864  -31384355.66846 -24151164.65044  22977741.4784   22977761.1034
     -2582.2384      -2012.1434
  20834299.7974  -22875372.28548 -17507862.03147  20834297.0334   20834309.7264
      2856.2794       2225.6644
 00  9 18  2 13 59.9950000  0  8G31G10G 8G13G27G19G 1G 2
  20634356.1964  -22093915.16748 -15492648.39946  20634353.6894   20634361.7204
      -131.7534       -102.6734
  21927215.3464   -7298923.88748  -5667174.79946  21927212.3424   21927229.1434
       164.2654        127.9924
  18928739.4064  -18242142.39249 -13949471.84447  18928736.6214   18928746.0054
      1906.4224       1485.5184
  19858581.8324  -41260311.28748 -31612413.89247  19858580.0524   19858588.3714
     -1180.3304       -919.7394
  19192196.7454  -43938469.56249 -33026267.48447  19192194.5434   19192202.6434
       721.7544        562.4024
  20343043.7444  -40978555.69648 -30934387.17146  20343041.8824   20343050.7284
      -821.5904       -640.2034
  22992520.1924  -31306698.04046 -24090652.21544  22992520.7554   22992537.8914
     -2595.9264      -2022.8044
  20818043.1144  -22960799.54648 -17574428.46147  20818040.6074   20818053.3284
      2837.8554       2211.3074
 00  9 18  2 14 29.9950000  0  8G31G10G 8G13G27G19G 1G 2
  20635154.3304  -22089717.80648 -15489377.57046  20635152.0914   20635160.4554
      -147.4974       -114.9394
  21926314.9544   -7303658.68348  -5670864.18946  21926311.9764   21926328.1064
       151.9174        118.3754
  18917867.9644  -18299271.56849 -13993987.90547  18917865.2524   18917874.4174
      1902.6564       1482.5834
  19865351.8884  -41224736.03748 -31584692.87447  19865349.9414   19865357.9864
     -1190.8124       -927.9074
  19188090.0224  -43960051.32849 -33043084.35147  19188087.6204   19188095.4164
       717.5604        559.1344
  20347744.0304  -40953855.27548 -30915140.05046  20347742.0404   20347751.1834
      -824.5884       -642.5374
  23007341.1704  -31228816.58346 -24029965.33444  23007338.9914   23007360.9004
     -2595.5594      -2022.5164
  20801857.3674  -23045858.37248 -17640707.79547  20801854.5934   20801866.6414
      2833.3194       2207.7714
 00  9 18  2 14 59.9950000  0  8G31G10G 8G13G27G19G 1G 2
  20636058.5094  -22084968.10048 -15485676.33946  20636055.7754   20636063.7704
      -168.9734       -131.6714
  21925499.0474   -7307943.66748  -5674203.07946  21925495.7954   21925512.0254
       133.9144        104.3494
  18907034.0384  -18356205.34649 -14038351.71447  18907031.2284   18907040.1534
      1893.0014       1475.0604
  19872196.8964  -41188765.71048 -31556663.99947  19872194.9234   19872202.9584
     -1207.0214       -940.5384
  19184022.5574  -43981425.54949 -33059739.49547  19184020.1434   19184027.8924
       707.5504        551.3344
  20352476.9804  -40928984.56048 -30895760.18346  20352474.7974   20352483.6654
      -833.3384       -649.3554
  23022176.2834  -31150863.40846 -23969222.57544  23022173.4524   23022191.4514
     -2601.0974      -2026.8474
  20785712.2354  -23130699.00648 -17706817.10847  20785709.5984   20785721.6774
      2822.9404       2199.6864
 00  9 18  2 15 29.9950000  0  8G31G10G 8G13G27G19G 1G 2
  20637067.3084  -22079666.41248 -15481544.99646  20637064.6004   20637072.5024
      -187.7294       -146.2904
  21924768.9144   -7311779.63548  -5677192.08846  21924766.0254   21924782.1424
       118.5544         92.3784
  18896237.5154  -18412941.83849 -14082561.80547  18896234.7334   18896243.2344
      1886.0264       1469.6254
  19879117.0854  -41152400.30548 -31528327.28047  19879114.8734   19879123.3534
     -1220.5914       -951.1124
  19179994.6034  -44002590.27849 -33076231.39647  19179992.3624   19180000.4194
       700.1524        545.5694
  20357242.3364  -40903942.51448 -30876246.81146  20357239.9954   20357248.7234
      -839.4594       -654.1274
  23037023.7614  -31072839.47546 -23908424.67244  23037023.4804   23037038.1324
     -2603.8704      -2028.9894
  20769609.3024  -23215320.07948 -17772755.33447  20769606.4764   20769618.5314
      2815.2294       2193.6734
 00  9 18  2 15 59.9950000  0  8G31G10G 8G13G27G19G 1G 2
  20638210.9794  -22073652.81548 -15476858.91546  20638208.6244   20638216.6554
      -208.7824       -162.6934
  21924154.3384   -7315007.69148  -5679707.39046  21924151.9084   21924167.8264
       101.0454         78.7354
  18885508.5834  -18469319.91349 -14126492.61947  18885505.9014   18885514.6664
      1876.8124       1462.4464
  19886142.2964  -41115480.62448 -31499558.65747  19886140.3254   19886148.8444
     -1236.3194       -963.3674
  19176037.8514  -44023384.18749 -33092434.33047  19176035.4614   19176043.4594
       690.5044        538.0514
  20362071.1014  -40878568.63548 -30856474.86046  20362068.5614   20362077.4084
      -847.7874       -660.6154
  23051915.8594  -30994586.04046 -23847447.94244  23051909.3884   23051930.0774
     -2608.6404      -2032.7054
  20753578.5984  -23299561.15548 -17838397.45147  20753576.0404   20753587.7634
      2805.2714       2185.9164
