     2              OBSERVATION DATA    G (GPS)             RINEX VERSION / TYPE
teqc  1997Aug1      CORS/NGS/NOAA       19970919 02:35:48UTCPGM / RUN BY / DATE
HP-UX 10.20|PA-RISC|cc A.10.32.03|=+|=|                     COMMENT
BIT 2 OF LLI FLAGS DATA COLLECTED UNDER A-S CONDITION       COMMENT
ppt1                                                        MARKER NAME
xxx                                                         MARKER NUMBER
CORS/NGS/NOAA       U.S. Coast Guard                        OBSERVER / AGENCY
05402               ASHTECH Z-XII3      1C01                REC # / TYPE / VERS
11092               ASHTECH L1/L2 P                         ANT # / TYPE
 -2725252.4059 -4295978.6230  3833958.9881                  APPROX POSITION XYZ
        0.0000        0.0000        0.0000                  ANTENNA: DELTA H/E/N
     1     1                                                WAVELENGTH FACT L1/2
     7    C1    L1    L2    P1    P2    D1    D2            # / TYPES OF OBSERV
    30.0000                                                 INTERVAL
  1997     9    18     0     1    0.000000                  TIME OF FIRST OBS
                                                            END OF HEADER
 97  9 18  0  1  0.0000000  0  7G29G16G14G15G18G25G22
  21284036.8934  -33737923.85949 -25970699.23647  21284037.7414   21284045.6724
      -481.5164       -375.2074
  22636503.8534  -19895565.14648 -15225582.47946  22636504.4234   22636514.3334
      3408.9054       2656.2904
  20606477.2544  -34601592.51849 -26716494.74447  20606478.1374   20606487.4534
      1659.3124       1292.9694
  22728822.0454  -22897677.83248 -17827114.51146  22728822.4434   22728833.5474
     -2674.3374      -2083.8984
  24518146.7674   -8367064.23447  -6495612.57545  24518147.2844   24518157.6274
      3351.0814       2611.2264
  22390402.2354  -26060302.27348 -20019571.43147  22390403.1854   22390411.6114
     -1876.7454      -1462.3994
  22750026.4144  -12592031.98648  -9532780.55446  22750026.3954   22750037.3504
      3116.8154       2428.6854
 97  9 18  0  1 30.0000000  0  7G29G16G14G15G18G25G22
  21286810.8154  -33723344.50049 -25959338.69547  21286811.9544   21286819.7124
      -488.3534       -380.5344
  22617067.7934  -19997701.39048 -15305169.12846  22617068.3894   22617078.4824
      3402.2644       2651.1134
  20597053.5134  -34651117.01949 -26755085.25247  20597054.1484   20597063.0704
      1644.6334       1281.5324
  22744121.4384  -22817280.23748 -17764467.11046  22744121.8494   22744132.8964
     -2683.2884      -2090.8704
  24499026.3654   -8467542.70547  -6573907.37945  24499026.6624   24499036.2814
      3349.6404       2610.1044
  22401149.4004  -26003825.46448 -19975563.54947  22401150.2784   22401158.6884
     -1886.1744      -1469.7464
  22732273.0394  -12685321.10448  -9605473.30346  22732273.4004   22732284.5394
      3104.6244       2419.1844
 97  9 18  0  2  0.0000000  0  7G29G16G14G15G18G25G22
  21289620.5524  -33708580.81349 -25947834.51847  21289621.4284   21289629.2724
      -494.8854       -385.6264
  22597664.7234  -20099667.31748 -15384623.06146  22597665.2354   22597675.2214
      3396.2734       2646.4474
  20587706.4424  -34700233.16849 -26793357.56847  20587707.3884   20587716.5374
      1630.5424       1270.5534
  22759466.0314  -22736644.44548 -17701634.10346  22759466.2284   22759477.7224
     -2691.5704      -2097.3254
  24479907.1724   -8568010.62447  -6652193.96845  24479907.6394   24479918.4574
      3348.9534       2609.5674
  22411945.1114  -25947094.64148 -19931357.73547  22411945.8754   22411954.3314
     -1895.0014      -1476.6244
  22714585.7084  -12778270.13148  -9677901.03746  22714585.9334   22714596.9984
      3092.6634       2409.8634
 97  9 18  0  2 30.0000000  0  7G29G16G14G15G18G25G22
  21292463.5574  -33693640.26949 -25936192.53247  21292464.6324   21292472.7074
      -501.8054       -391.0174
  22578292.0074  -20201469.22948 -15463949.18946  22578292.5594   22578303.1204
      3389.9324       2641.5054
  20578436.6384  -34748946.81149 -26831316.24047  20578437.4684   20578446.5664
      1616.4044       1259.5354
  22774855.1114  -22655772.45548 -17638617.03946  22774855.3704   22774867.0564
     -2700.5294      -2104.3054
  24460791.1234   -8668458.42147  -6730464.86745  24460791.9834   24460803.8114
      3346.8304       2607.9194
  22422789.3274  -25890107.52048 -19886952.20247  22422790.2424   22422798.0344
     -1904.8994      -1484.3364
  22696965.2154  -12870866.67248  -9750054.10246  22696965.4314   22696976.5194
      3079.8884       2399.9084
 97  9 18  0  3  0.0000000  0  7G29G16G14G15G18G25G22
  21295345.8154  -33678494.23249 -25924390.42847  21295346.7534   21295354.8804
      -508.5764       -396.2924
  22558954.9524  -20303089.78348 -15543133.99746  22558955.3194   22558965.1864
      3383.9624       2636.8544
  20569248.1884  -34797231.88549 -26868940.96047  20569248.9624   20569258.4894
      1601.9354       1248.2604
  22790294.7484  -22574635.07248 -17575393.17546  22790295.1924   22790307.2364
     -2709.2274      -2111.0844
  24441688.7244   -8768843.31747  -6808686.74845  24441688.9634   24441701.0974
      3344.7264       2606.2744
  22433690.4344  -25832821.04948 -19842313.40047  22433691.3544   22433699.2754
     -1914.8164      -1492.0654
  22679415.2254  -12963091.24048  -9821917.32046  22679415.0864   22679426.4354
      3067.9244       2390.5864
 97  9 18  0  3 30.0000000  0  7G29G16G14G15G18G25G22
  21298252.8784  -33663219.12949 -25912487.75647  21298253.8334   21298261.5004
      -511.6194       -398.6644
  22539639.8584  -20404589.36548 -15622224.55246  22539640.2254   22539650.4134
      3380.6624       2634.2814
  20560128.3394  -34845156.81249 -26906285.04347  20560129.1104   20560138.7634
      1591.0244       1239.7594
  22805770.2234  -22493312.60048 -17512025.10146  22805770.6224   22805782.5524
     -2714.1874      -2114.9504
  24422585.0324   -8869232.92647  -6886912.28945  24422586.0624   24422597.5574
      3345.8384       2607.1384
  22444634.3744  -25775308.43348 -19797498.38847  22444635.5084   22444643.7374
     -1921.3104      -1497.1244
  22661919.7354  -13055033.53248  -9893560.58646  22661919.7824   22661930.1984
      3059.4774       2384.0054
 97  9 18  0  4  0.0000000  0  7G29G16G14G15G18G25G22
  21301192.6694  -33647768.92449 -25900448.63847  21301193.7164   21301201.8514
      -523.4344       -407.8724
  22520360.8804  -20505900.57448 -15701168.31646  22520361.2814   22520371.3784
      3368.2534       2624.6104
  20551089.4854  -34892659.14149 -26943299.83147  20551090.0614   20551099.1774
      1570.4324       1223.7124
  22821289.3764  -22411758.21448 -17448476.30146  22821289.9154   22821301.9454
     -2727.9914      -2125.7094
  24403492.1324   -8969568.71747  -6965095.90345  24403492.8874   24403504.5154
      3337.9734       2601.0174
  22455631.8184  -25717516.28948 -19752465.56847  22455632.9274   22455641.3364
     -1936.5544      -1509.0034
  22644489.5274  -13146628.31448  -9964933.07446  22644489.5054   22644499.7714
      3041.6514       2370.1164
 97  9 18  0  4 30.0000000  0  7G29G16G14G15G18G25G22
  21304168.7184  -33632128.38649 -25888261.21147  21304169.8544   21304178.2454
      -524.0474       -408.3494
  22501124.0084  -20606991.73348 -15779940.62146  22501124.3094   22501134.5264
      3366.3584       2623.1354
  20542139.3654  -34939690.46649 -26979947.59947  20542140.1194   20542149.1774
      1560.4354       1215.9244
  22836858.1944  -22329945.66748 -17384726.34246  22836858.5234   22836870.2444
     -2730.8024      -2127.8964
  24384416.2124   -9069814.72547  -7043209.58245  24384417.0044   24384427.8744
      3340.6004       2603.0604
  22466685.7854  -25659429.27448 -19707202.98047  22466686.6624   22466695.2154
     -1940.5304      -1512.1004
  22627130.7774  -13237849.40948 -10036014.36946  22627130.5574   22627141.3704
      3035.1704       2365.0644
 97  9 18  0  5  0.0000000  0  7G29G16G14G15G18G25G22
  21307178.4534  -33616313.54449 -25875937.96147  21307179.3494   21307187.4974
      -527.8994       -411.3494
  22481927.6794  -20707866.68548 -15858544.44547  22481928.3314   22481938.9494
      3360.9534       2618.9214
  20533275.9264  -34986267.25249 -27016241.18347  20533276.5954   20533286.0824
      1547.0774       1205.5154
  22852470.2984  -22247902.65048 -17320796.78946  22852470.6764   22852482.6354
     -2736.4214      -2132.2734
  24365354.2214   -9169987.30747  -7121266.01845  24365354.7264   24365365.4894
      3339.8284       2602.4614
  22477789.9804  -25601077.33048 -19661733.95847  22477790.8764   22477799.3724
     -1947.2654      -1517.3484
  22609837.6264  -13328724.55748 -10106826.09246  22609838.2014   22609848.2974
      3025.3574       2357.4204
 97  9 18  0  5 30.0000000  0  7G29G16G14G15G18G25G22
  21310221.3254  -33600322.99249 -25863477.79547  21310222.4404   21310230.1754
      -533.3264       -415.5784
  22462774.6804  -20808517.37448 -15936973.51847  22462775.1204   22462785.4314
      3353.9454       2613.4634
  20524498.8914  -35032389.87349 -27052180.87047  20524499.8504   20524509.1554
      1532.5284       1194.1784
  22868125.3374  -22165634.53248 -17256691.84046  22868125.8834   22868137.5654
     -2743.3764      -2137.6924
  24346309.1134   -9270069.58647  -7199252.08745  24346309.7344   24346319.8444
      3337.1494       2600.3734
  22488942.7554  -25542467.73548 -19616064.16747  22488943.7374   22488952.2064
     -1955.3334      -1523.6354
  22592613.4554  -13419239.78448 -10177357.35746  22592613.5414   22592623.9884
      3013.6454       2348.2904
 97  9 18  0  6  0.0000000  0  7G29G16G14G15G18G25G22
  21313288.2604  -33584206.23049 -25850919.28147  21313289.1224   21313297.2454
      -541.0484       -421.5964
  22443653.9724  -20908997.27448 -16015269.51047  22443654.2984   22443664.6634
      3344.7014       2606.2594
  20515799.6644  -35078105.27249 -27087803.23947  20515800.3954   20515809.7854
      1515.2414       1180.7064
  22883813.0904  -22083191.34948 -17192450.47246  22883813.8804   22883826.4434
     -2752.7694      -2145.0104
  24327272.1104   -9370105.86247  -7277202.29645  24327272.8184   24327284.0544
      3332.2814       2596.5764
  22500135.1594  -25483653.71248 -19570235.08047  22500135.8914   22500144.3764
     -1965.5554      -1531.6014
  22575450.3994  -13509429.65048 -10247635.08846  22575450.8014   22575461.1264
      2999.1024       2336.9614
 97  9 18  0  6 30.0000000  0  7G29G16G14G15G18G25G22
  21316390.4934  -33567904.17949 -25838216.38747  21316391.4344   21316399.4854
      -542.8634       -423.0104
  22424578.0504  -21009240.71948 -16093381.25347  22424578.5924   22424588.9704
      3341.1484       2603.4934
  20507188.9134  -35123354.27949 -27123062.19047  20507189.7274   20507199.2204
      1504.3434       1172.2144
  22899546.0944  -22000516.74848 -17128028.78646  22899546.6094   22899559.3454
     -2755.9734      -2147.5074
  24308253.9424   -9470044.37447  -7355076.36445  24308255.2414   24308266.4014
      3333.3464       2597.4164
  22511378.1744  -25424569.87248 -19524195.74547  22511379.0504   22511387.3364
     -1970.5504      -1535.4934
  22558362.3884  -13599229.25948 -10317608.72146  22558362.5454   22558373.1504
      2990.3404       2330.1324
 97  9 18  0  7  0.0000000  0  7G29G16G14G15G18G25G22
  21319517.8904  -33551469.20549 -25825409.91547  21319518.9354   21319526.9234
      -551.4174       -429.6754
  22405536.5474  -21109308.06348 -16171355.76847  22405536.7934   22405546.9804
      3331.4244       2595.9144
  20498656.3074  -35168195.40349 -27158003.31047  20498657.0394   20498666.3864
      1486.2894       1158.1474
  22915311.1134  -21917671.98048 -17063474.49846  22915311.8664   22915324.1954
     -2765.7914      -2155.1594
  24289245.0074   -9569944.17647  -7432920.25645  24289245.5574   24289255.8694
      3327.9754       2593.2194
  22522665.2994  -25365255.51848 -19477976.78646  22522666.1744   22522674.4644
     -1982.4174      -1544.7414
  22541341.2754  -13688674.29348 -10387306.06646  22541341.1994   22541352.3184
      2973.9434       2317.3564
 97  9 18  0  7 30.0000000  0  7G29G16G14G15G18G25G22
  21322677.6964  -33534863.47149 -25812470.38547  21322678.6424   21322686.8514
      -556.3754       -433.5394
  22386532.3304  -21209173.04748 -16249172.60647  22386532.9454   22386543.1694
      3325.4564       2591.2624
  20490211.2444  -35212574.83549 -27192584.67947  20490211.9224   20490220.9374
      1471.5354       1146.6504
  22931116.7704  -21834616.03048 -16998755.64946  22931117.4014   22931129.2354
     -2772.0124      -2160.0064
  24270247.6044   -9669777.11347  -7510712.06145  24270247.6914   24270258.5334
      3326.9184       2592.3974
  22534004.3354  -25305669.06248 -19431545.79746  22534005.5294   22534013.4484
     -1990.7144      -1551.2064
  22524398.0564  -13777711.10148 -10456685.31246  22524398.4064   22524409.1564
      2961.0624       2307.3194
 97  9 18  0  8  0.0000000  0  7G29G16G14G15G18G25G22
  21325874.4394  -33518064.87449 -25799380.57447  21325875.5064   21325883.5694
      -562.8164       -438.5584
  22367571.6844  -21308811.33948 -16326812.79247  22367572.3364   22367582.7054
      3317.7154       2585.2314
  20481860.3094  -35256459.10349 -27226780.20747  20481861.1164   20481870.1274
      1454.8674       1133.6634
  22946965.3604  -21751332.13748 -16933859.18646  22946965.7694   22946977.8134
     -2779.4954      -2165.8374
  24251261.8044   -9769544.95147  -7588453.13045  24251261.9664   24251272.3124
      3324.9334       2590.8504
  22545397.9414  -25245797.71748 -19384892.81247  22545398.7314   22545406.5414
     -2000.0174      -1558.4524
  22507536.7974  -13866315.82448 -10525727.87746  22507537.1604   22507548.4394
      2946.7144       2296.1394
 97  9 18  0  8 30.0000000  0  7G29G16G14G15G18G25G22
  21329106.4344  -33501082.15149 -25786147.29147  21329107.2814   21329115.2094
      -568.6494       -443.1034
  22348653.5454  -21408227.85248 -16404280.16447  22348653.8354   22348664.3354
      3310.8364       2579.8714
  20473601.4664  -35299859.68449 -27260598.83247  20473602.1054   20473611.5074
      1439.1954       1121.4504
  22962853.7024  -21667839.83848 -16868800.33746  22962853.8044   22962865.9864
     -2786.0054      -2170.9094
  24232284.3174   -9869267.37547  -7666158.80145  24232284.9634   24232296.2414
      3323.7074       2589.8934
  22556841.4894  -25185662.11048 -19338033.90947  22556842.2974   22556850.4844
     -2008.2094      -1564.8384
  22490753.8244  -13954507.10048 -10594448.28146  22490754.0564   22490765.5224
      2933.3864       2285.7524
 97  9 18  0  9  0.0000000  0  7G29G16G14G15G18G25G22
  21332371.8574  -33483921.96349 -25772775.72147  21332372.7914   21332380.8384
      -575.8584       -448.7204
  22329774.7394  -21507437.17148 -16481586.08347  22329774.8324   22329785.2554
      3302.5204       2573.3944
  20465431.4284  -35342792.09149 -27294052.64847  20465432.2404   20465441.7844
      1422.5504       1108.4804
  22978778.9324  -21584152.25148 -16803589.31446  22978779.3424   22978790.7404
     -2793.6344      -2176.8544
  24213315.9964   -9968947.79647  -7743831.74545  24213316.1204   24213327.5474
      3321.2114       2587.9514
  22568328.2394  -25125298.98448 -19290997.72747  22568329.0354   22568337.0114
     -2016.4354      -1571.2464
  22474048.0994  -14042299.37948 -10662857.77746  22474048.4154   22474058.9044
      2919.1304       2274.6454
 97  9 18  0  9 30.0000000  0  7G29G16G14G15G18G25G22
  21335672.4304  -33466577.08349 -25759260.23847  21335673.3994   21335681.5764
      -580.4154       -452.2724
  22310938.6524  -21606419.87048 -16558715.42247  22310938.9964   22310949.1894
      3296.2374       2568.4944
  20457349.3064  -35385263.63749 -27327147.35447  20457350.0184   20457359.4254
      1408.8794       1097.8264
  22994740.3604  -21500272.81348 -16738228.79646  22994740.7974   22994752.4504
     -2798.4014      -2180.5704
  24194355.1674  -10068585.11747  -7821471.10945  24194355.8504   24194366.9714
      3321.3544       2588.0604
  22579855.5674  -25064720.42448 -19243793.68047  22579856.5704   22579865.0364
     -2022.1634      -1575.7104
  22457415.5734  -14129707.04448 -10730967.56446  22457415.8394   22457425.6744
      2907.9844       2265.9584
 97  9 18  0 10  0.0000000  0  7G29G16G14G15G18G25G22
  21339005.8824  -33449059.64349 -25745610.28747  21339006.9394   21339015.1204
      -585.9034       -456.5474
  22292146.6394  -21705171.75548 -16635664.90847  22292147.2604   22292157.7374
      3288.7354       2562.6504
  20449351.6784  -35427290.08249 -27359895.22447  20449352.5464   20449361.8734
      1394.4034       1086.5484
  23010736.8524  -21416210.02048 -16672725.39746  23010737.3504   23010749.1334
     -2804.3124      -2185.1754
  24175404.5004  -10168173.49247  -7899072.33845  24175404.7924   24175415.9934
      3319.4284       2586.5604
  22591422.7184  -25003934.86048 -19196428.33247  22591423.4584   22591432.0484
     -2028.8524      -1580.9224
  22440852.4274  -14216744.22048 -10798788.65946  22440852.5014   22440863.3214
      2895.9274       2256.5634
 97  9 18  0 10 30.0000000  0  7G29G16G14G15G18G25G22
  21342378.6744  -33431336.34249 -25731799.92347  21342379.4914   21342387.8704
      -592.2484       -461.4924
  22273406.4554  -21803652.44648 -16712403.06247  22273406.7754   22273417.5934
      3280.0504       2555.8814
  20441445.2714  -35468840.95949 -27392272.52347  20441446.0064   20441455.2984
      1379.1084       1074.6304
  23026776.3634  -21331923.56248 -16607047.72046  23026776.8154   23026788.6124
     -2811.4314      -2190.7214
  24156473.7114  -10267655.98747  -7976591.06145  24156474.4334   24156484.9754
      3316.1584       2584.0154
  22603036.9744  -24942900.59548 -19148869.19347  22603038.0034   22603046.3194
     -2036.7984      -1587.1124
  22424367.1304  -14303375.30148 -10866293.31746  22424367.1944   22424377.6754
      2882.7544       2246.3024
 97  9 18  0 11  0.0000000  0  7G29G16G14G15G18G25G22
  21345774.6764  -33413489.09849 -25717892.98747  21345775.6424   21345783.5374
      -599.1654       -466.8824
  22254703.4054  -21901936.77748 -16788988.22447  22254703.9264   22254714.5884
      3270.6584       2548.5634
  20433612.3024  -35510002.03349 -27424346.07547  20433613.1554   20433622.7994
      1363.2954       1062.3074
  23042843.3214  -21247489.64748 -16541255.13846  23042844.0364   23042855.7624
     -2819.0704      -2196.6764
  24137548.5574  -10367106.31047  -8054084.71245  24137549.1234   24137560.3974
      3312.5014       2581.1634
  22614686.1414  -24881685.11548 -19101168.83446  22614687.1264   22614695.0044
     -2045.9374      -1594.2354
  22407944.7684  -14389675.63748 -10933540.26546  22407945.0534   22407955.4734
      2868.9634       2235.5534
 97  9 18  0 11 30.0000000  0  7G29G16G14G15G18G25G22
  21349221.4994  -33395375.08049 -25703778.16947  21349222.6134   21349230.5884
      -607.8884       -473.6794
  22236063.9424  -21999890.07848 -16865315.43647  22236064.1004   22236074.6854
      3260.1064       2540.3414
  20425882.8724  -35550620.83649 -27455997.07747  20425883.6544   20425892.9064
      1345.2244       1048.2264
  23058965.3424  -21162770.00748 -16475239.91846  23058965.4914   23058976.9764
     -2828.3864      -2203.9344
  24118654.8234  -10466392.85747  -8131450.74946  24118656.1104   24118666.4994
      3307.3874       2577.1834
  22626400.6284  -24820125.57148 -19053200.37346  22626401.5604   22626409.2664
     -2057.3324      -1603.1164
  22391613.1084  -14475499.43748 -11000415.88346  22391613.3094   22391623.5514
      2853.0364       2223.1424
 97  9 18  0 12  0.0000000  0  7G29G16G14G15G18G25G22
  21352690.4534  -33377145.26649 -25689573.12047  21352691.4144   21352699.6734
      -609.1494       -474.6614
  22217455.0144  -22097678.72348 -16941514.35447  22217455.5074   22217465.9684
      3257.3934       2538.2284
  20418227.1144  -35590851.91449 -27487345.95747  20418227.9154   20418237.2654
      1335.1574       1040.3814
  23075111.1594  -21077924.69248 -16409126.76246  23075111.2354   23075122.3804
     -2829.6304      -2204.9044
  24099761.8594  -10565676.45047  -8208814.48146  24099762.6954   24099773.8044
      3310.0834       2579.2824
  22638149.6714  -24758383.84748 -19005089.95346  22638150.4094   22638158.3144
     -2060.5464      -1605.6214
  22375343.6544  -14560993.96848 -11067034.93446  22375343.6074   22375354.0784
      2844.7674       2216.6994
 97  9 18  0 12 30.0000000  0  7G29G16G14G15G18G25G22
  21356193.0774  -33358739.33549 -25675230.83247  21356194.0534   21356202.4334
      -614.6174       -478.9224
  22198886.0994  -22195260.31448 -17017551.92947  22198886.4804   22198896.8864
      3251.2384       2533.4324
  20410654.0574  -35630648.96249 -27518356.63247  20410654.9264   20410664.4614
      1321.2774       1029.5674
  23091287.6694  -20992916.48348 -16342886.68246  23091287.6504   23091298.8444
     -2834.3444      -2208.5784
  24080875.8584  -10664924.12447  -8286150.21546  24080876.3784   24080887.1344
      3309.7374       2579.0134
  22649942.5234  -24696409.68148 -18956798.41846  22649943.4884   22649951.9064
     -2067.8574      -1611.3174
  22359147.0984  -14646105.16148 -11133355.27046  22359147.3284   22359158.1664
      2832.6014       2207.2204
 97  9 18  0 13  0.0000000  0  7G29G16G14G15G18G25G22
  21359736.1474  -33340120.60349 -25660722.73047  21359737.1104   21359745.3534
      -626.7064       -488.3414
  22180360.1994  -22292613.83248 -17093411.78147  22180360.7444   22180371.4614
      3238.9314       2523.8424
  20403169.5214  -35669980.71049 -27549004.73847  20403170.3194   20403179.7554
      1300.6964       1013.5294
  23107498.9564  -20907725.78748 -16276504.40546  23107499.2354   23107510.7784
     -2845.0574      -2216.9244
  24061999.8224  -10764117.86847  -8363443.95446  24062000.5774   24062010.7434
      3303.0934       2573.8374
  22661786.0544  -24634173.20648 -18908302.48046  22661786.7714   22661795.3054
     -2081.1114      -1621.6444
  22343030.8624  -14730799.08748 -11199350.46946  22343031.0144   22343041.3664
      2813.6164       2192.4254
 97  9 18  0 13 30.0000000  0  7G29G16G14G15G18G25G22
  21363322.1364  -33321275.67649 -25646038.36847  21363323.1544   21363331.3544
      -631.2844       -491.9104
  22161878.3634  -22389737.27848 -17169092.35847  22161878.9014   22161889.1694
      3233.9854       2519.9874
  20395777.1064  -35708828.96349 -27579276.09347  20395777.8374   20395786.9604
      1287.5664       1003.2974
  23123744.7624  -20822354.16348 -16209981.14646  23123745.1194   23123756.6394
     -2848.1724      -2219.3534
  24043136.0584  -10863247.20647  -8440687.49846  24043136.5754   24043146.8884
      3303.6444       2574.2644
  22673676.5414  -24571686.31548 -18859611.41746  22673677.4444   22673686.0954
     -2086.3964      -1625.7644
  22326997.4964  -14815054.13548 -11265003.69346  22326997.8034   22327008.1644
      2801.6004       2183.0644
 97  9 18  0 14  0.0000000  0  7G29G16G14G15G18G25G22
  21366941.4084  -33302255.09449 -25631217.13347  21366942.4564   21366950.9894
      -640.4524       -499.0524
  22143436.3094  -22486651.37648 -17244609.80947  22143436.7074   22143446.6984
      3223.0824       2511.4904
  20388467.4954  -35747241.81749 -27609208.17547  20388468.3024   20388477.3394
      1269.2194        989.0014
  23140017.4184  -20736839.66348 -16143346.56546  23140017.6764   23140029.6384
     -2856.7244      -2226.0154
  24024279.9814  -10962335.80547  -8517899.30046  24024280.7074   24024290.9344
      3298.3114       2570.1084
  22685605.8154  -24508998.54748 -18810763.82346  22685606.5654   22685615.2294
     -2096.7754      -1633.8504
  22311042.8414  -14898895.32148 -11330334.42846  22311043.2874   22311053.5274
      2783.9144       2169.2804
 97  9 18  0 14 30.0000000  0  7G29G16G14G15G18G25G22
  21370603.4144  -33283010.86049 -25616221.62647  21370604.5104   21370612.8714
      -641.1434       -499.5924
  22125048.0424  -22583283.31148 -17319907.40147  22125048.3174   22125058.1414
      3220.1064       2509.1724
  20381256.4894  -35785134.05649 -27638734.58647  20381257.5024   20381266.5294
      1258.1804        980.4014
  23156331.7844  -20651109.65448 -16076544.05346  23156331.7714   23156343.3584
     -2857.4474      -2226.5784
  24005447.2534  -11061304.46648  -8595017.66046  24005447.4954   24005458.1604
      3300.6724       2571.9524
  22697585.4254  -24446044.04948 -18761708.38346  22697586.3534   22697595.2224
     -2098.8914      -1635.4994
  22295182.2714  -14982243.38248 -11395280.90146  22295182.6374   22295192.6614
      2773.9364       2161.5074
 97  9 18  0 15  0.0000000  0  7G29G16G14G15G18G25G22
  21374285.8754  -33263662.16049 -25601144.72047  21374286.7724   21374295.1374
      -649.5284       -506.1264
  22106697.1434  -22679716.66548 -17395050.25047  22106697.5014   22106707.6904
      3208.2214       2499.9114
  20374128.1344  -35822596.12349 -27667925.80047  20374128.8934   20374137.7674
      1238.5754        965.1234
  23172668.4594  -20565260.29948 -16009648.53746  23172668.5424   23172680.2014
     -2866.5294      -2233.6544
  23986620.2054  -11160238.54047  -8672109.05146  23986620.3914   23986630.7614
      3294.3084       2566.9924
  22709595.5064  -24382930.49448 -18712529.00846  22709596.3894   22709605.3954
     -2109.2764      -1643.5894
  22279397.9464  -15065191.50948 -11459915.74146  22279398.0194   22279407.9234
      2755.3314       2147.0084
 97  9 18  0 15 30.0000000  0  7G29G16G14G15G18G25G22
  21377984.0794  -33244226.41049 -25585999.98447  21377985.1474   21377993.4534
      -651.3084       -507.5114
  22088384.0694  -22775950.61848 -17470037.72247  22088384.5874   22088394.7134
      3202.1504       2495.1814
  20367082.1974  -35859623.07949 -27696777.96447  20367082.9534   20367091.7424
      1224.7254        954.3304
  23189025.8584  -20479298.92048 -15942665.73346  23189026.2434   23189037.7474
     -2869.4324      -2235.9154
  23967800.2234  -11259139.36147  -8749174.53346  23967800.5514   23967810.8554
      3293.9934       2566.7464
  22721635.1534  -24319660.49248 -18663227.72846  22721636.2574   22721645.3854
     -2113.9324      -1647.2204
  22263688.9694  -15147740.98948 -11524239.95346  22263689.3094   22263699.2814
      2742.9064       2137.3284
 97  9 18  0 16  0.0000000  0  7G29G16G14G15G18G25G22
  21381705.5354  -33224672.06449 -25570762.83547  21381706.4864   21381714.4024
      -655.6144       -510.8684
  22070119.9614  -22871930.64048 -17544827.31947  22070120.2864   22070130.6204
      3193.4614       2488.4114
  20360129.8754  -35896157.96849 -27725246.69947  20360130.5344   20360139.4154
      1207.6894        941.0564
  23205414.1654  -20393179.87248 -15875560.07346  23205414.4764   23205426.2044
     -2874.8784      -2240.1634
  23948994.6854  -11357961.43347  -8826178.67446  23948995.7084   23949005.3084
      3291.0804       2564.4714
  22733714.6854  -24256181.86348 -18613763.88346  22733716.0294   22733724.7094
     -2121.1844      -1652.8704
  22248063.1814  -15229855.43848 -11588225.18246  22248063.7124   22248073.6344
      2728.3484       2125.9834
 97  9 18  0 16 30.0000000  0  7G29G16G14G15G18G25G22
  21385454.9314  -33204967.94649 -25555408.98047  21385455.9534   21385463.9114
      -658.1614       -512.8534
  22051906.6874  -22967639.67148 -17619405.75847  22051907.0944   22051917.1484
      3186.9464       2483.3334
  20353277.3564  -35932167.98849 -27753306.44647  20353278.0774   20353287.0664
      1192.9964        929.6084
  23221833.7384  -20306893.30248 -15808323.87746  23221834.3084   23221846.3124
     -2877.6104      -2242.2884
  23930205.9784  -11456695.54947  -8903114.27746  23930206.2384   23930217.8724
      3291.0824       2564.4734
  22745838.3924  -24192471.97748 -18564119.83146  22745839.5444   22745848.5274
     -2126.2324      -1656.8064
  22232521.0384  -15311528.20648 -11651866.23246  22232521.4144   22232531.7784
      2716.3684       2116.6474
 97  9 18  0 17  0.0000000  0  7G29G16G14G15G18G25G22
  21389225.9284  -33185150.66549 -25539966.94847  21389226.9814   21389235.0374
      -663.4044       -516.9394
  22033736.5304  -23063124.09848 -17693809.18247  22033737.1094   22033747.1394
      3178.5154       2476.7654
  20346512.0894  -35967719.39649 -27781008.83447  20346512.7254   20346521.9534
      1176.9604        917.1114
  23238274.2234  -20220502.46248 -15741006.43746  23238274.1024   23238286.0404
     -2881.9934      -2245.7054
  23911422.4054  -11555403.89547  -8980029.77046  23911422.8784   23911434.3104
      3289.2444       2563.0464
  22757996.5834  -24128581.67648 -18514335.20946  22757997.7194   22758006.4034
     -2133.1914      -1662.2274
  22217053.0384  -15392813.15448 -11715205.08946  22217053.4334   22217063.1214
      2702.3764       2105.7464
 97  9 18  0 17 30.0000000  0  7G29G16G14G15G18G25G22
  21393035.6504  -33165131.36249 -25524367.49647  21393036.5164   21393044.6964
      -670.6464       -522.5804
  22015622.1304  -23158317.02048 -17767985.45747  22015622.5284   22015632.5504
      3168.0294       2468.5934
  20339844.3004  -36002757.56949 -27808311.29547  20339845.2124   20339853.9264
      1159.4284        903.4504
  23254744.9994  -20133944.57048 -15673558.82846  23254745.7264   23254757.6444
     -2888.1524      -2250.5054
  23892657.0904  -11654018.09447  -9056871.92446  23892657.5664   23892668.5314
      3285.5084       2560.1354
  22770199.0114  -24064457.95648 -18464368.69046  22770200.1084   22770208.8674
     -2141.3184      -1668.5604
  22201671.7294  -15473644.26848 -11778190.31746  22201671.5714   22201681.1974
      2686.7344       2093.5574
 97  9 18  0 18  0.0000000  0  7G29G16G14G15G18G25G22
  21396874.9574  -33144955.42249 -25508645.99347  21396875.8734   21396884.1184
      -676.2924       -526.9814
  21997554.7074  -23253263.19248 -17841969.45547  21997554.9734   21997564.8184
      3159.8474       2462.2174
  20333263.0644  -36037344.61549 -27835262.23347  20333263.6724   20333272.2494
      1144.5004        891.8194
  23271239.9954  -20047267.69248 -15606018.49646  23271240.0094   23271251.5244
     -2892.1844      -2253.6474
  23873900.7524  -11752583.00547  -9133675.67746  23873900.9474   23873910.9674
      3283.7514       2558.7694
  22782433.9954  -24000161.96048 -18414267.93346  22782434.9204   22782444.1224
     -2147.0074      -1672.9924
  22186366.7344  -15554067.90948 -11840858.03446  22186367.3674   22186377.2754
      2672.8504       2082.7394
 97  9 18  0 18 30.0000000  0  7G29G16G14G15G18G25G22
  21400751.6484  -33124582.94249 -25492771.33947  21400752.6104   21400760.4874
      -681.3914       -530.9544
  21979539.3954  -23347932.37448 -17915737.61947  21979539.8554   21979549.4844
      3151.7464       2455.9054
  20326770.5604  -36071463.39149 -27861848.28347  20326771.1614   20326779.7784
      1130.4584        880.8764
  23287762.6974  -19960439.48848 -15538360.25446  23287763.0364   23287774.1154
     -2896.0264      -2256.6394
  23855158.3064  -11851074.41047  -9210422.16646  23855158.4984   23855168.6424
      3282.4864       2557.7794
  22794708.1054  -23935661.77948 -18364008.07146  22794708.7714   22794717.8784
     -2152.6494      -1677.3894
  22171149.8494  -15634036.68348 -11903171.31046  22171149.9374   22171160.2254
      2658.6584       2071.6804
 97  9 18  0 19  0.0000000  0  7G29G16G14G15G18G25G22
  21404662.6684  -33104030.42849 -25476756.39647  21404663.5734   21404671.9534
      -689.5664       -537.3244
  21961575.5684  -23442334.90949 -17989298.00247  21961575.7324   21961585.5154
      3140.9864       2447.5224
  20320361.4664  -36105141.69749 -27888091.11447  20320362.2704   20320371.0494
      1113.8024        867.8974
  23304312.9944  -19873467.12248 -15470589.67446  23304313.2484   23304325.0704
     -2902.8794      -2261.9784
  23836429.9904  -11949492.08447  -9287111.19446  23836430.4254   23836440.5414
      3277.9354       2554.2334
  22807019.5314  -23870964.82348 -18313594.87546  22807020.4994   22807029.5114
     -2161.2564      -1684.0924
  22156017.7914  -15713555.63548 -11965134.06846  22156017.8154   22156028.3004
      2641.9244       2058.6424
 97  9 18  0 19 30.0000000  0  7G29G16G14G15G18G25G22
  21408604.7204  -33083315.59249 -25460614.97047  21408605.5904   21408613.8514
      -693.0234       -540.0184
  21943657.8644  -23536492.60149 -18062667.60747  21943658.0534   21943668.1964
      3134.5104       2442.4734
  20314035.7014  -36138384.15449 -27913994.32147  20314036.4144   20314045.1504
      1100.5314        857.5564
  23320886.9874  -19786368.30748 -15402720.57146  23320887.5614   23320898.9364
     -2905.3794      -2263.9294
  23817711.2154  -12047858.08547  -9363759.96446  23817711.5884   23817720.9904
      3278.2014       2554.4424
  22819366.9074  -23806080.25748 -18263035.50046  22819367.9104   22819376.6934
     -2166.1644      -1687.9194
  22140967.4204  -15792647.07948 -12026763.70146  22140967.4024   22140977.6354
      2629.1234       2048.6664
 97  9 18  0 20  0.0000000  0  7G29G16G14G15G18G25G22
  21412574.0264  -33062455.96949 -25444360.72447  21412575.1234   21412583.4174
      -698.7564       -544.4844
  21925784.4304  -23630418.08649 -18135856.26947  21925784.7384   21925794.9584
      3126.0394       2435.8734
  20307793.8924  -36171187.03249 -27939554.99747  20307794.3674   20307803.1714
      1085.2084        845.6164
  23337482.3814  -19699158.64048 -15334765.08846  23337482.7344   23337494.7314
     -2909.5554      -2267.1824
  23798996.3234  -12146202.77447  -9440392.13646  23798997.3294   23799007.0684
      3277.1034       2553.5874
  22831750.1974  -23741004.26948 -18212326.95246  22831751.3034   22831759.8334
     -2173.2494      -1693.4414
  22125998.6044  -15871306.43848 -12088056.65246  22125998.7924   22126009.1684
      2613.9344       2036.8294
 97  9 18  0 20 30.0000000  0  7G29G16G14G15G18G25G22
  21416578.5024  -33041412.05649 -25427962.87647  21416579.5834   21416587.7204
      -703.3704       -548.0814
  21907962.1124  -23724071.87249 -18208833.21547  21907962.6514   21907973.5014
      3118.2544       2429.8064
  20301641.2484  -36203517.63849 -27964747.67247  20301642.0654   20301650.9194
      1070.9394        834.4974
  23354103.0984  -19611821.25348 -15266710.07746  23354102.9454   23354114.3184
     -2912.1034      -2269.1694
  23780289.2194  -12244510.85648  -9516995.76846  23780290.2664   23780299.8684
      3277.3394       2553.7714
  22844176.1884  -23675707.44548 -18161446.33346  22844176.9974   22844185.4154
     -2178.9574      -1697.8904
  22111117.0454  -15949507.64748 -12148992.60746  22111117.5634   22111128.0354
      2600.3544       2026.2464
 97  9 18  0 21  0.0000000  0  7G29G16G14G15G18G25G22
  21420627.4434  -33020135.63849 -25411383.85447  21420628.4584   21420636.5834
      -710.6724       -553.7704
  21890201.3544  -23817405.90749 -18281561.00847  21890201.8084   21890212.0874
      3108.2504       2422.0124
  20295588.3754  -36235323.87949 -27989531.75547  20295589.3004   20295598.3274
      1053.5534        820.9504
  23370751.5474  -19524329.41248 -15198534.71746  23370751.9534   23370763.5404
     -2916.3214      -2272.4554
  23761596.7994  -12342738.98548  -9593537.09446  23761597.5064   23761608.1264
      3275.5224       2552.3524
  22856647.9804  -23610166.92848 -18110375.81746  22856648.7614   22856657.4074
     -2186.0024      -1703.3804
  22096328.4044  -16027225.70648 -12209552.07346  22096328.5404   22096338.6734
      2585.0814       2014.3464
 97  9 18  0 21 30.0000000  0  7G29G16G14G15G18G25G22
  21424702.8664  -32998719.28649 -25394695.79847  21424703.8534   21424711.9894
      -717.3614       -558.9814
  21872485.7514  -23910503.05049 -18354104.21147  21872486.0824   21872496.0654
      3097.8364       2413.8974
  20289625.4874  -36266660.09549 -28013949.58247  20289626.3144   20289635.2334
      1035.2544        806.6914
  23387411.3864  -19436780.49248 -15130314.87746  23387411.5624   23387423.3694
     -2920.6664      -2275.8404
  23742902.6434  -12440983.19247  -9670090.96446  23742903.0074   23742912.6094
      3273.4514       2550.7394
  22869145.1744  -23544493.07948 -18059201.40746  22869146.1184   22869154.8744
     -2192.6264      -1708.5394
  22081616.0914  -16104537.65448 -12269795.09446  22081616.1764   22081626.7064
      2568.6304       2001.5284
 97  9 18  0 22  0.0000000  0  7G29G16G14G15G18G25G22
  21428815.3274  -32977108.97449 -25377856.59647  21428816.3714   21428824.2044
      -723.1774       -563.5144
  21854829.8514  -24003285.54049 -18426402.23147  21854830.2234   21854840.0414
      3087.8884       2406.1444
  20283765.7884  -36297453.75449 -28037944.63747  20283766.4624   20283775.2704
      1017.8964        793.1654
  23404095.3984  -19349105.70648 -15061996.96546  23404095.8344   23404108.4434
     -2924.1514      -2278.5564
  23724220.4474  -12539152.37647  -9746586.37946  23724221.2814   23724230.9034
      3271.1564       2548.9534
  22881679.1174  -23478626.03948 -18007876.46546  22881680.1524   22881689.0294
     -2198.2434      -1712.9154
  22066995.7804  -16181365.89948 -12329661.20646  22066995.9964   22067006.4054
      2553.5634       1989.7874
 97  9 18  0 22 30.0000000  0  7G29G16G14G15G18G25G22
  21432962.2634  -32955315.63649 -25360874.77347  21432963.2464   21432971.4584
      -729.2524       -568.2494
  21837232.2114  -24095762.42649 -18498462.12047  21837232.5464   21837242.1414
      3077.7764       2398.2674
  20278007.8194  -36327711.52649 -28061522.12447  20278008.5854   20278017.3264
       999.7704        779.0414
  23420802.4404  -19261311.73948 -14993586.19846  23420802.8024   23420814.9184
     -2928.3054      -2281.7944
  23705556.4924  -12637234.25948  -9823013.76646  23705557.3424   23705567.5194
      3267.9834       2546.4754
  22894246.6484  -23412583.44548 -17956414.73046  22894247.8544   22894257.0724
     -2204.1914      -1717.5514
  22052463.4384  -16257735.46948 -12389169.90546  22052463.6154   22052473.5214
      2538.0974       1977.7354
 97  9 18  0 23  0.0000000  0  7G29G16G14G15G18G25G22
  21437144.2684  -32933338.24249 -25343749.52747  21437145.3684   21437153.4544
      -738.5434       -575.4874
  21819691.6534  -24187938.71449 -18570287.77047  21819691.9964   21819701.8374
      3064.7444       2388.1124
  20272354.2854  -36357420.85949 -28084672.25347  20272355.0794   20272363.5494
       978.3234        762.3304
  23437534.6524  -19173385.05348 -14925072.01346  23437534.8724   23437547.0674
     -2936.0304      -2287.8084
  23686912.0214  -12735211.27948  -9899359.43546  23686912.6254   23686923.6284
      3261.2194       2541.2064
  22906850.4304  -23346352.50348 -17904806.22646  22906850.9764   22906860.1534
     -2214.0564      -1725.2364
  22038021.0394  -16333631.17948 -12448309.36246  22038021.1224   22038031.4754
      2518.8234       1962.7174
 97  9 18  0 23 30.0000000  0  7G29G16G14G15G18G25G22
  21441356.6534  -32911201.57949 -25326500.17747  21441357.7884   21441365.9074
      -738.3734       -575.3564
  21802203.1534  -24279840.67449 -18641899.65947  21802203.5624   21802213.7734
      3061.2394       2385.3804
  20266798.1924  -36386618.83449 -28107423.92447  20266798.9004   20266807.3084
       967.4554        753.8624
  23454289.1504  -19085337.77848 -14856463.85046  23454289.4404   23454302.0464
     -2934.6444      -2286.7324
  23668285.2104  -12833096.57648  -9975633.65246  23668285.7694   23668295.4834
      3263.5494       2543.0254
  22919490.4204  -23279927.78348 -17853046.72846  22919491.3684   22919500.5214
     -2215.3494      -1726.2454
  22023668.7614  -16409050.02748 -12507077.23746  22023669.1314   22023679.7234
      2508.1734       1954.4174
 97  9 18  0 24  0.0000000  0  7G29G16G14G15G18G25G22
  21445595.6204  -32888928.12149 -25309144.23147  21445596.4094   21445604.5164
      -744.0154       -579.7524
  21784756.7794  -24371520.57149 -18713338.50947  21784757.2014   21784767.7924
      3053.2724       2379.1724
  20261325.1754  -36415379.96749 -28129835.19047  20261325.8064   20261334.2404
       952.5284        742.2294
  23471059.5794  -18997209.93848 -14787792.92746  23471059.6674   23471072.1654
     -2937.9224      -2289.2834
  23649667.7904  -12930927.39248 -10051865.40646  23649668.7804   23649679.3764
      3261.1444       2541.1514
  22932162.4934  -23213335.21148 -17801156.43446  22932163.3814   22932172.5584
     -2221.4904      -1731.0294
  22009400.1994  -16484031.08648 -12565503.98246  22009400.5974   22009411.3614
      2493.0614       1942.6434
 97  9 18  0 24 30.0000000  0  7G29G16G14G15G18G25G22
  21449874.9394  -32866439.21949 -25291620.41447  21449875.8404   21449884.0574
      -752.2354       -586.1574
  21767363.9734  -24462918.91549 -18784557.96847  21767364.4084   21767375.0034
      3042.6774       2370.9164
  20255943.5254  -36443659.23549 -28151870.98447  20255944.3564   20255953.0314
       935.5574        729.0064
  23487854.8664  -18908949.34448 -14719018.55546  23487855.2584   23487867.8164
     -2943.2314      -2293.4234
  23631071.2074  -13028652.38348 -10128014.69146  23631072.0604   23631084.4124
      3256.5484       2537.5664
  22944878.0184  -23146514.48748 -17749088.36746  22944878.9534   22944888.1254
     -2230.3514      -1737.9344
  21995228.2174  -16558507.09948 -12623537.18946  21995228.3444   21995239.0074
      2474.9074       1928.4984
 97  9 18  0 25  0.0000000  0  7G29G16G14G15G18G25G22
  21454183.9394  -32843796.05649 -25273976.39247  21454184.9264   21454193.0504
      -759.7924       -592.0444
  21750017.7024  -24554074.17049 -18855588.00647  21750018.2334   21750029.0294
      3031.6584       2362.3294
  20250643.8604  -36471508.82049 -28173571.95647  20250644.8004   20250653.2494
       918.3454        715.5944
  23504663.7924  -18820617.89548 -14650188.97146  23504664.0354   23504676.9644
     -2948.1114      -2297.2264
  23612485.8994  -13126316.81648 -10204116.78946  23612487.0094   23612498.9734
      3251.9274       2533.9654
  22957628.3614  -23079510.68748 -17696877.65346  22957629.1364   22957637.8114
     -2239.0534      -1744.7154
  21981144.8344  -16632517.93848 -12681207.92446  21981144.7814   21981154.9154
      2456.5464       1914.1894
 97  9 18  0 25 30.0000000  0  7G29G16G14G15G18G25G22
  21458532.0474  -32820944.72149 -25256170.16447  21458533.1654   21458541.5404
      -762.9734       -594.5224
  21732733.5814  -24644905.37949 -18926365.54147  21732733.8684   21732744.3934
      3024.2854       2356.5854
  20245442.0104  -36498847.72849 -28194874.99647  20245442.5234   20245450.8404
       904.6614        704.9304
  23521497.2524  -18732156.78748 -14581258.36246  23521497.3074   23521510.3934
     -2948.6634      -2297.6564
  23593924.8494  -13223859.67748 -10280124.16946  23593925.4944   23593936.5594
      3251.7474       2533.8284
  22970423.1554  -23012273.68548 -17644485.21146  22970424.1164   22970433.0104
     -2242.5824      -1747.4644
  21967163.1024  -16705990.24248 -12738459.02247  21967163.4494   21967173.7594
      2442.3044       1903.0934
 97  9 18  0 26  0.0000000  0  7G29G16G14G15G18G25G22
  21462913.5464  -32797921.77149 -25238230.20347  21462914.5384   21462922.5124
      -768.3334       -598.7014
  21715507.7824  -24735427.60749 -18996902.31547  21715508.1144   21715518.5044
      3013.7124       2348.3464
  20240334.9224  -36525682.93149 -28215785.54747  20240335.6004   20240344.4264
       887.5594        691.6054
  23538348.0154  -18643607.03748 -14512258.67746  23538348.3024   23538361.3764
     -2951.3134      -2299.7204
  23575377.6974  -13321327.73748 -10356073.25946  23575378.3074   23575388.5644
      3249.4984       2532.0744
  22983251.3684  -22944861.86748 -17591956.53546  22983252.2254   22983260.8544
     -2248.0934      -1751.7604
  21953276.2384  -16778966.43748 -12795323.53147  21953276.6644   21953286.8034
      2426.1734       1890.5244
 97  9 18  0 26 30.0000000  0  7G29G16G14G15G18G25G22
  21467312.5304  -32774803.72949 -25220216.14647  21467313.4294   21467321.7014
      -772.2464       -601.7494
  21698334.6894  -24825672.24549 -19067222.78647  21698335.2774   21698345.2234
      3003.2854       2340.2214
  20235317.7134  -36552050.01249 -28236331.32347  20235318.3964   20235326.7594
       870.6854        678.4564
  23555203.1384  -18555031.74448 -14443239.08646  23555203.4914   23555217.0454
     -2953.1234      -2301.1304
  23556831.0494  -13418789.94148 -10432017.78946  23556831.4474   23556842.5754
      3248.6034       2531.3744
  22996099.3554  -22877344.68448 -17539345.74646  22996100.6244   22996109.1094
     -2252.4364      -1755.1464
  21939472.0834  -16851508.17948 -12851849.50447  21939472.2804   21939482.3784
      2410.5564       1878.3534
 97  9 18  0 27  0.0000000  0  7G29G16G14G15G18G25G22
  21471742.9474  -32751523.01449 -25202075.33247  21471743.8054   21471751.9234
      -776.3574       -604.9534
  21681228.4834  -24915567.69249 -19137271.15847  21681228.7394   21681239.1084
      2993.3944       2332.5154
  20230406.8214  -36577853.55249 -28256437.97847  20230407.7354   20230416.2324
       853.2644        664.8814
  23572077.5304  -18466356.96147 -14374141.97546  23572078.1594   23572090.8444
     -2955.0044      -2302.5954
  23538295.6234  -13516191.70748 -10507915.22246  23538296.4654   23538307.0604
      3248.5474       2531.3294
  23008979.4594  -22809660.70448 -17486604.99446  23008980.6234   23008989.2014
     -2256.2574      -1758.1214
  21925765.4234  -16923537.85348 -12907976.46947  21925765.6784   21925775.5004
      2394.8654       1866.1274
 97  9 18  0 27 30.0000000  0  7G29G16G14G15G18G25G22
  21476191.0514  -32728146.24249 -25183859.67047  21476192.1784   21476200.4084
      -783.0454       -610.1664
  21664171.0714  -25005205.80749 -19207119.01947  21664171.3414   21664181.3644
      2981.6574       2323.3684
  20225586.3894  -36603185.81149 -28276177.39547  20225587.2154   20225595.6234
       834.7714        650.4704
  23588956.0704  -18377664.96647 -14305031.44946  23588955.8074   23588968.5484
     -2958.7774      -2305.5374
  23519753.4874  -13613633.79648 -10583844.06946  23519754.3224   23519764.2764
      3246.4914       2529.7314
  23021872.8574  -22741904.65748 -17433808.09146  23021874.0254   23021883.0284
     -2261.9294      -1762.5424
  21912140.1984  -16995135.73148 -12963766.97347  21912140.4504   21912150.7084
      2377.3934       1852.5134
 97  9 18  0 28  0.0000000  0  7G29G16G14G15G18G25G22
  21480683.5744  -32704538.14749 -25165463.75947  21480684.5654   21480693.0174
      -788.8114       -614.6574
  21647184.2964  -25094469.23049 -19276674.91147  21647184.6494   21647194.9904
      2971.2604       2315.2674
  20220874.3844  -36627946.59849 -28295471.51247  20220875.2624   20220883.7474
       817.9494        637.3634
  23605859.5634  -18288833.51847 -14235812.26546  23605860.1774   23605873.4904
     -2961.3684      -2307.5544
  23501229.6064  -13710976.74848 -10659695.68246  23501229.8924   23501240.3594
      3244.7794       2528.3984
  23034806.8334  -22673937.27648 -17380846.51746  23034807.6154   23034816.5164
     -2267.4214      -1766.8244
  21898619.8464  -17066186.31748 -13019131.01947  21898620.1234   21898629.9524
      2361.1864       1839.8824
 97  9 18  0 28 30.0000000  0  8G 4G29G16G14G15G18G25G22
  24846280.4664   -4143770.91057  -2984705.50145  24846281.8894   24846291.5594
      2583.5304       2013.1384
  21485204.7344  -32680778.88449 -25146950.05747  21485205.7504   21485214.1304
      -795.5694       -619.9234
  21630250.8864  -25183453.78349 -19346013.50247  21630251.2684   21630261.3674
      2960.7564       2307.0834
  20216253.2924  -36652232.75049 -28314395.78247  20216254.0964   20216262.2634
       800.6894        623.9134
  23622774.0404  -18199946.72947 -14166549.97246  23622774.6914   23622787.9984
     -2964.7934      -2310.2264
  23482713.0354  -13808280.59648 -10735516.81946  23482713.4874   23482723.4624
      3241.5484       2525.8834
  23047768.1384  -22605825.35948 -17327772.31246  23047768.9324   23047778.3594
     -2273.9124      -1771.8784
  21885189.5964  -17136765.90348 -13074128.04447  21885189.3364   21885199.1074
      2343.7444       1826.2914
 97  9 18  0 29  0.0000000  0  8G 4G29G16G14G15G18G25G22
  24831563.3174   -4221114.03347  -3044972.88345  24831564.1994   24831572.8224
      2571.9984       2004.1544
  21489755.1234  -32656867.70349 -25128317.97747  21489756.0004   21489764.3804
      -799.1064       -622.6804
  21613366.3974  -25272181.00549 -19415151.57747  21613367.0114   21613377.1154
      2953.4924       2301.4214
  20211720.2414  -36676053.03949 -28332957.04647  20211721.0814   20211729.2164
       786.8624        613.1384
  23639698.8594  -18111009.69447 -14097248.51546  23639698.7944   23639712.6724
     -2964.8644      -2310.2794
  23464207.8384  -13905524.58248 -10811291.31546  23464208.9824   23464218.9184
      3240.6444       2525.1784
  23060757.6964  -22537562.65248 -17274580.63146  23060758.6594   23060768.2414
     -2277.5494      -1774.7114
  21871846.8624  -17206878.83048 -13128761.44847  21871847.3094   21871857.2784
      2329.8184       1815.4414
 97  9 18  0 29 30.0000000  0  8G 4G29G16G14G15G18G25G22
  24816923.0684   -4298045.73247  -3104919.63345  24816923.6594   24816934.1404
      2556.7864       1992.3024
  21494337.1694  -32632790.30349 -25109556.38047  21494337.9284   21494346.3734
      -805.7944       -627.8914
  21596538.9254  -25360611.83049 -19484058.69347  21596539.2234   21596549.6524
      2942.1424       2292.5774
  20207277.8454  -36699397.26449 -28351147.35547  20207278.5494   20207286.7984
       769.5314        599.6334
  23656635.8824  -18022007.38947 -14027896.20846  23656635.6774   23656648.7964
     -2968.4104      -2313.0424
  23445723.2054  -14002663.62648 -10886984.03046  23445723.9214   23445734.4544
      3235.4554       2521.1344
  23073781.3674  -22469122.79548 -17221250.90946  23073782.3904   23073791.9654
     -2284.8844      -1780.4264
  21858595.6954  -17276514.23948 -13183022.75747  21858595.9444   21858605.6684
      2312.6384       1802.0514
 97  9 18  0 30  0.0000000  0  8G 4G29G16G14G15G18G25G22
  24802364.8114   -4374555.03847  -3164537.22145  24802365.3504   24802375.3084
      2544.3674       1982.6254
  21498949.6654  -32608549.46449 -25090667.42647  21498950.6924   21498958.9964
      -809.4064       -630.7064
  21579768.6494  -25448740.36049 -19552730.25147  21579768.8844   21579779.0004
      2933.9224       2286.1734
  20202930.4694  -36722245.73949 -28368951.35747  20202931.0754   20202939.3684
       754.3944        587.8394
  23673585.1524  -17932941.07747 -13958494.01046  23673585.2814   23673597.7764
     -2968.5684      -2313.1654
  23427259.9944  -14099688.29348 -10962587.61646  23427260.9414   23427271.8844
      3233.7324       2519.7894
  23086839.9304  -22400502.61448 -17167780.66446  23086840.6184   23086849.8034
     -2288.8294      -1783.5044
  21845438.0284  -17345660.58248 -13236902.96747  21845438.2464   21845447.7594
      2297.8864       1790.5594
 97  9 18  0 30 30.0000000  0  8G 4G29G16G14G15G18G25G22
  24787889.4994   -4450614.01647  -3223803.92445  24787891.3274   24787901.3304
      2526.5644       1968.7614
  21503596.3584  -32584132.85349 -25071641.50347  21503597.1444   21503605.2694
      -817.9344       -637.3514
  21563057.7064  -25536557.18949 -19621158.92747  21563058.0024   21563068.2144
      2920.8004       2275.9474
  20198682.9534  -36744565.26649 -28386343.19647  20198683.5534   20198692.5314
       733.9254        571.8914
  23690546.5524  -17843804.43147 -13889037.02746  23690546.9094   23690559.3044
     -2973.4614      -2316.9774
  23408819.1414  -14196599.08048 -11038102.45046  23408819.3424   23408829.3984
      3227.6264       2515.0304
  23099929.8394  -22331712.56548 -17114178.04646  23099930.6564   23099939.8744
     -2296.7344      -1789.6624
  21832377.3084  -17414293.44848 -13290383.07447  21832377.6924   21832387.2794
      2278.0754       1775.1234
 97  9 18  0 31  0.0000000  0  8G 4G29G16G14G15G18G25G22
  24773501.2964   -4526232.67147  -3282727.51245  24773501.6854   24773511.2354
      2512.5234       1957.8064
  21508269.0504  -32559576.78449 -25052506.91147  21508269.9924   21508278.2604
      -821.3044       -639.9764
  21546401.6254  -25624084.13949 -19689361.72447  21546402.0654   21546412.2774
      2912.1694       2269.2224
  20194531.4314  -36766380.55949 -28403342.12347  20194532.2864   20194540.9894
       718.3054        559.7184
  23707514.0094  -17754637.19347 -13819556.20945  23707514.4234   23707527.4594
     -2973.1164      -2316.7064
  23390387.5004  -14293451.15748 -11113571.54846  23390388.1464   23390398.1204
      3227.2444       2514.7364
  23113041.4824  -22262809.79948 -17060487.59346  23113042.5914   23113051.4724
     -2298.8244      -1791.2904
  21819407.7644  -17482446.34748 -13343489.17747  21819408.0504   21819417.8654
      2263.2074       1763.5374
 97  9 18  0 31 30.0000000  0  8G 4G29G16G14G15G18G25G22
  24759201.0534   -4601369.76747  -3341275.87045  24759202.7484   24759212.2554
      2496.5154       1945.3414
  21512972.1834  -32534859.82949 -25033246.95547  21512973.1594   21512981.6594
      -826.8094       -644.2674
  21529804.8634  -25711303.23149 -19757324.63447  21529805.2234   21529815.2484
      2902.2694       2261.5084
  20190481.0784  -36787666.04149 -28419928.20447  20190481.9224   20190490.1004
       700.4564        545.8094
  23724490.9404  -17665424.68447 -13750040.09845  23724491.6684   23724503.9864
     -2974.6774      -2317.9284
  23371968.0754  -14390245.08148 -11188995.33746  23371968.9934   23371979.1484
      3225.4934       2513.3684
  23126174.7244  -22193795.61048 -17006710.32346  23126175.6994   23126185.0804
     -2302.4564      -1794.1204
  21806536.7614  -17550087.91848 -13396196.84747  21806536.8224   21806546.4044
      2245.9394       1750.0814
 97  9 18  0 32  0.0000000  0  8G 4G29G16G14G15G18G25G22
  24745009.3414   -4675947.08347  -3399388.01445  24745009.6854   24745020.1994
      2480.9434       1933.1954
  21517723.4014  -32509893.21249 -25013792.44947  21517724.2504   21517732.6104
      -832.0944       -648.3864
  21513279.1484  -25798149.52949 -19824997.05147  21513279.2684   21513288.7694
      2892.8614       2254.1774
  20186548.2624  -36808331.98749 -28436031.54147  20186549.0464   20186557.5684
       682.8214        532.0704
  23741491.9744  -17576085.22947 -13680425.09345  23741492.5604   23741504.4034
     -2975.7574      -2318.7694
  23353573.4104  -14486908.58548 -11264317.50146  23353574.2584   23353585.0694
      3224.1274       2512.3034
  23139344.5374  -22124589.29048 -16952783.34146  23139345.4484   23139354.4494
     -2305.7954      -1796.7254
  21793779.7084  -17617127.03848 -13448435.07047  21793779.8844   21793788.9564
      2229.0424       1736.9164
 97  9 18  0 32 30.0000000  0  8G 4G29G16G14G15G18G25G22
  24730898.1704   -4750109.33047  -3457176.75745  24730898.8354   24730909.8134
      2464.0814       1920.0674
  21522496.0434  -32484814.18349 -24994250.35747  21522496.8664   21522505.1434
      -839.1814       -653.9074
  21496798.5184  -25884752.55749 -19892479.91847  21496798.8294   21496808.7444
      2881.1584       2245.0584
  20182706.7464  -36828521.21349 -28451763.40647  20182707.4414   20182715.5924
       663.7604        517.2174
  23758489.2194  -17486760.01147 -13610821.16545  23758490.0834   23758503.0234
     -2978.5614      -2320.9534
  23335178.6304  -14583576.96448 -11339643.45246  23335179.1894   23335190.3874
      3221.0684       2509.9234
  23152524.7194  -22055325.40748 -16898811.50546  23152525.7134   23152535.2634
     -2311.2544      -1800.9784
  21781107.8134  -17683714.50948 -13500321.35647  21781108.0904   21781117.8544
      2210.7514       1722.6624
 97  9 18  0 33  0.0000000  0  8G 4G29G16G14G15G18G25G22
  24716885.6244   -4823742.44947  -3514553.15745  24716887.1274   24716896.4414
      2449.6634       1908.8284
  21527315.5174  -32459487.04549 -24974514.93247  21527316.5724   21527324.7844
      -844.7114       -658.2184
  21480392.6084  -25970964.43549 -19959657.98247  21480393.2094   21480403.4884
      2870.9414       2237.0964
  20178978.6814  -36848108.57149 -28467026.28047  20178979.6324   20178988.0794
       646.7374        503.9504
  23775510.0654  -17397317.32547 -13541125.71145  23775510.5204   23775523.3294
     -2979.6174      -2321.7744
  23316807.8384  -14680115.80848 -11414868.48546  23316808.9044   23316819.0824
      3219.3424       2508.5754
  23165744.3644  -21985856.45448 -16844679.88546  23165745.3354   23165754.8144
     -2315.5144      -1804.2964
  21768547.6984  -17749718.16948 -13551752.73647  21768548.0644   21768557.8664
      2193.9864       1709.5984
 97  9 18  0 33 30.0000000  0  8G 4G29G16G14G15G18G25G22
  24702949.0914   -4896972.83047  -3571615.75945  24702950.7964   24702961.9204
      2433.2134       1896.0084
  21532164.2954  -32434007.88149 -24954661.03747  21532165.1044   21532173.3694
      -853.0804       -664.7374
  21464041.8364  -26056887.36549 -20026610.89747  21464042.4234   21464052.5234
      2857.8754       2226.9144
  20175344.3064  -36867209.89049 -28481910.42347  20175345.0724   20175353.4304
       627.6334        489.0664
  23792533.4234  -17307863.79847 -13471421.81345  23792533.2384   23792546.4664
     -2983.1774      -2324.5484
  23298445.0094  -14776612.78848 -11490060.89746  23298445.5954   23298455.9924
      3214.4624       2504.7764
  23178986.7204  -21916266.86648 -16790454.25446  23178987.6044   23178996.8984
     -2323.1574      -1810.2524
  21756079.3414  -17815241.50948 -13602809.83547  21756079.4934   21756089.0304
      2175.0444       1694.8384
 97  9 18  0 34  0.0000000  0  8G 4G29G16G14G15G18G25G22
  24689094.3744   -4969778.04147  -3628347.08245  24689096.1524   24689105.8794
      2419.6394       1885.4234
  21537047.0034  -32408348.55749 -24934666.76747  21537047.9714   21537056.2914
      -858.2314       -668.7514
  21447754.9394  -26142475.68649 -20093303.08047  21447755.4094   21447765.4174
      2847.1944       2218.5934
  20171802.7194  -36885818.89849 -28496410.94547  20171803.4944   20171812.3424
       612.2654        477.0904
  23809561.5534  -17218380.08947 -13401694.38945  23809561.8254   23809574.4644
     -2983.1244      -2324.5024
  23280096.9664  -14873033.14348 -11565193.59946  23280097.4934   23280107.8934
      3212.9174       2503.5734
  23192260.3524  -21846513.76748 -16736101.21346  23192261.2984   23192270.6714
     -2327.6804      -1813.7804
  21743704.8514  -17880269.05148 -13653480.59347  21743704.9924   21743714.7914
      2159.4034       1682.6514
 97  9 18  0 34 30.0000000  0  8G 4G29G16G14G15G18G25G22
  24675321.6474   -5042161.31747  -3684749.57445  24675323.1594   24675332.4324
      2404.6334       1873.7294
  21541961.7224  -32382521.69449 -24914541.94447  21541962.6994   21541970.7834
      -864.5774       -673.6964
  21431531.5044  -26227730.30149 -20159735.22947  21431531.9634   21431542.3094
      2835.2544       2209.2884
  20168350.5764  -36903961.31349 -28510547.89147  20168351.1274   20168360.0164
       595.9544        464.3804
  23826591.4584  -17128886.00547 -13331958.89245  23826591.4514   23826604.8584
     -2984.3124      -2325.4324
  23261759.3094  -14969399.08448 -11640283.90146  23261760.0834   23261770.8074
      3210.2424       2501.4854
  23205560.8764  -21776621.20848 -16681639.49846  23205561.4064   23205570.7094
     -2333.0244      -1817.9404
  21731423.0294  -17944810.03348 -13703772.22147  21731423.0054   21731432.6534
      2141.9894       1669.0814
 97  9 18  0 35  0.0000000  0  8G 4G29G16G14G15G18G25G22
  24661633.4884   -5114092.97947  -3740800.21845  24661634.3904   24661645.1774
      2389.6274       1862.0454
  21546911.5754  -32356509.58549 -24894272.77747  21546912.6534   21546920.5474
      -870.4714       -678.2884
  21415376.6684  -26312626.26349 -20225887.90447  21415376.9814   21415387.0314
      2823.6524       2200.2484
  20164990.9764  -36921616.55149 -28524305.21847  20164991.6724   20165000.4844
       580.0694        452.0014
  23843627.8454  -17039359.66547 -13262198.24845  23843628.2324   23843640.7194
     -2985.0794      -2326.0284
  23243436.1644  -15065685.81548 -11715312.47846  23243437.0684   23243448.6484
      3207.9474       2499.6964
  23218890.1364  -21706574.04748 -16627057.32446  23218890.7934   23218900.3434
     -2337.7574      -1821.6274
  21719241.3354  -18008823.15048 -13753652.51447  21719241.7684   21719251.1654
      2124.5854       1655.5184
 97  9 18  0 35 30.0000000  0  8G 4G29G16G14G15G18G25G22
  24648043.5844   -5185514.83747  -3796453.58645  24648044.4494   24648054.7554
      2374.6274       1850.3654
  21551903.3114  -32330277.25549 -24873832.01047  21551904.2004   21551912.5114
      -875.6234       -682.3034
  21399296.3194  -26397127.63949 -20291733.11247  21399296.6544   21399306.6744
      2812.5474       2191.5944
  20161732.1004  -36938743.15149 -28537650.62147  20161732.9264   20161741.5694
       564.3344        439.7414
  23860677.4324  -16949763.84447 -13192383.48345  23860677.5394   23860691.1394
     -2985.2294      -2326.1484
  23225134.4464  -15161863.71148 -11790256.25546  23225135.2404   23225146.1624
      3206.7294       2498.7464
  23232255.1454  -21636340.06548 -16572329.57646  23232255.7934   23232265.4004
     -2341.6344      -1824.6474
  21707167.5064  -18072270.88248 -13803092.25647  21707167.9764   21707177.7474
      2107.8814       1642.5044
 97  9 18  0 36  0.0000000  0  8G 4G29G16G14G15G18G25G22
  24634535.0584   -5256500.42147  -3851767.01945  24634536.5624   24634544.7384
      2358.3274       1837.6594
  21556920.1624  -32303913.30249 -24853288.68347  21556921.1034   21556929.5554
      -881.3354       -686.7554
  21383276.3134  -26481311.31449 -20357330.75847  21383276.9874   21383287.1934
      2800.4184       2182.1434
  20158561.5614  -36955404.64849 -28550633.60647  20158562.2044   20158570.5644
       546.8554        426.1204
  23877724.6404  -16860176.57747 -13122575.37745  23877725.6284   23877738.7944
     -2986.6394      -2327.2504
  23206835.1874  -15258027.23048 -11865188.82446  23206835.8674   23206846.1954
      3204.7494       2497.2054
  23245638.0084  -21566012.34648 -16517528.77846  23245638.8274   23245647.8514
     -2346.2164      -1828.2214
  21695190.6784  -18135211.22748 -13852136.62847  21695190.5334   21695200.3214
      2088.7594       1627.6024
 97  9 18  0 36 30.0000000  0  9G 4G29G16G14G15G18G25G22G19
  24621115.5914   -5327016.00547  -3906714.23945  24621116.4224   24621125.2074
      2344.5324       1826.9114
  21561965.4084  -32277398.76249 -24832628.00947  21561966.6054   21561974.9324
      -884.3824       -689.1304
  21367322.5974  -26565149.03549 -20422658.82947  21367323.3464   21367333.0364
      2790.6714       2174.5484
  20155488.7644  -36971550.62449 -28563214.88447  20155489.5664   20155498.3584
       531.3324        414.0244
  23894778.8864  -16770558.77847 -13052743.47945  23894779.4184   23894792.7224
     -2986.0104      -2326.7554
  23188544.8314  -15354140.84348 -11940082.51546  23188545.7894   23188555.7174
      3204.4214       2496.9494
  23259043.9874  -21495565.25948 -16462634.96246  23259044.5704   23259053.7454
     -2348.4734      -1829.9784
  21683320.4874  -18197587.72848 -13900741.64447  21683320.6824   21683330.4654
      2071.6644       1614.2814
  24708197.6174   -3621238.09957  -2512215.91145  24708198.1504   24708211.0804
      3872.9934       3017.9034
 97  9 18  0 37  0.0000000  0  9G 4G29G16G14G15G18G25G22G19
  24607794.9924   -5397019.64047  -3961262.49845  24607795.8424   24607804.5924
      2321.5484       1808.9914
  21567046.6204  -32250700.19949 -24811823.94047  21567047.5504   21567055.5984
      -896.4234       -698.5104
  21351442.2434  -26648602.88949 -20487687.78547  21351442.5064   21351451.9904
      2772.0764       2160.0604
  20152523.4144  -36987135.38049 -28575358.85647  20152524.2244   20152532.4984
       506.8414        394.9414
  23911846.2864  -16680871.83447 -12982857.69745  23911846.3784   23911859.9294
     -2993.9054      -2332.9074
  23170276.0754  -15450147.59848 -12014892.93546  23170276.4744   23170286.2044
      3195.2264       2489.7874
  23272481.7214  -21424949.00248 -16407609.33246  23272482.5414   23272491.4474
     -2360.0344      -1838.9884
  21671564.0114  -18259368.11248 -13948882.15647  21671564.2024   21671574.0514
      2046.2544       1594.4824
  24686116.7474   -3737270.57447  -2602630.58545  24686116.8694   24686130.1734
      3861.6794       3009.0984
 97  9 18  0 37 29.9990000  0  9G 4G29G16G14G15G18G25G22G19
  24594561.4094   -5466553.28547  -4015444.50645  24594563.2024   24594573.8314
      2312.5904       1802.0154
  21572154.6434  -32223855.63549 -24790906.10547  21572155.5624   21572163.7414
      -894.8744       -697.3044
  21335628.3264  -26731705.73649 -20552443.22947  21335628.7624   21335638.2984
      2766.6944       2155.8654
  20149656.6864  -37002199.53349 -28587097.16147  20149657.5344   20149665.7064
       495.9654        386.4684
  23928915.3764  -16591171.77547 -12912961.72345  23928915.8134   23928928.5854
     -2987.8814      -2328.2214
  23152018.9244  -15546087.59348 -12089651.34446  23152019.4514   23152028.9224
      3199.2914       2492.9524
  23285942.8854  -21354206.45748 -16352485.28846  23285944.1714   23285953.1334
     -2357.8754      -1837.3054
  21659912.2514  -18320600.02548 -13996595.27747  21659912.4014   21659921.6264
      2034.2704       1585.1434
  24664060.5204   -3853173.13447  -2692944.00345  24664061.4814   24664075.1454
      3863.7764       3010.7224
 97  9 18  0 37 59.9990000  0  9G 4G29G16G14G15G18G25G22G19
  24581408.0334   -5535678.85647  -4069308.54945  24581409.5554   24581419.5934
      2295.7604       1788.9024
  21577280.6494  -32196919.39349 -24769916.83847  21577281.5274   21577289.6504
      -900.8014       -701.9244
  21319871.0294  -26814510.77649 -20616966.61447  21319871.5564   21319880.9684
      2753.8154       2145.8304
  20146877.2594  -37016805.77349 -28598478.64947  20146878.1274   20146886.3684
       477.8974        372.3874
  23945976.4044  -16501516.00347 -12843100.22545  23945976.5404   23945991.1264
     -2988.9954      -2329.0824
  23133765.9764  -15642004.58548 -12164391.81746  23133766.7924   23133776.6884
      3195.3124       2489.8524
  23299420.1144  -21283386.81148 -16297301.16846  23299421.0194   23299430.0834
     -2363.2334      -1841.4764
  21648355.6514  -18381331.03148 -14043918.08647  21648355.8094   21648365.1284
      2014.9234       1570.0684
  24642018.1974   -3969006.75747  -2783203.71145  24642018.9424   24642032.5954
      3858.5504       3006.6484
 97  9 18  0 38 29.9990000  0  9G 4G29G16G14G15G18G25G22G19
  24568349.7604   -5604306.94247  -4122784.95445  24568351.2224   24568360.1894
      2279.4794       1776.2194
  21582439.5334  -32169807.50649 -24748790.69647  21582440.4744   21582448.8124
      -906.6424       -706.4734
  21304184.2264  -26896944.72249 -20681200.83447  21304184.6574   21304194.5954
      2741.8414       2136.4974
  20144198.2134  -37030885.10349 -28609449.55747  20144198.9084   20144207.1554
       460.6824        358.9734
  23963041.3284  -16411843.79347 -12773225.95945  23963042.0874   23963055.2004
     -2989.0084      -2329.0944
  23115534.7064  -15737810.53848 -12239045.76346  23115535.5974   23115545.7924
      3191.9354       2487.2214
  23312923.2464  -21212429.29548 -16242009.60946  23312924.0824   23312933.1694
     -2367.1924      -1844.5664
  21636902.1054  -18441518.42248 -14090817.30747  21636902.2904   21636911.9914
      1997.6964       1556.6454
  24620001.6574   -4084701.40447  -2873355.13845  24620002.1774   24620015.5644
      3854.5914       3003.5764
 97  9 18  0 38 59.9990000  0  9G 4G29G16G14G15G18G25G22G19
  24555396.7884   -5672374.06047  -4175824.23545  24555398.0294   24555407.9244
      2259.9474       1760.9904
  21587646.9124  -32142443.06449 -24727467.76347  21587647.7994   21587656.0444
      -916.0564       -713.8094
  21288579.6424  -26978948.83549 -20745100.12347  21288579.8804   21288589.5054
      2726.6364       2124.6504
  20141632.0254  -37044370.37349 -28619957.55847  20141632.8674   20141641.0254
       439.9434        342.8144
  23980117.9594  -16322108.44447 -12703302.47545  23980118.2814   23980132.1334
     -2991.7744      -2331.2444
  23097333.9284  -15833457.60548 -12313575.90846  23097334.6334   23097344.4294
      3186.1664       2482.7274
  23326460.4974  -21141287.80348 -16186574.69846  23326461.9384   23326471.0134
     -2373.8924      -1849.7824
  21625560.4054  -18501121.54648 -14137261.25547  21625560.3414   21625569.8104
      1977.2684       1540.7264
  24598020.9954   -4200213.03147  -2963363.93845  24598022.0074   24598035.5254
      3847.4994       2998.0404
 97  9 18  0 39 29.9990000  0  9G 4G29G16G14G15G18G25G22G19
  24542546.1524   -5739904.59647  -4228445.38645  24542546.3904   24542557.4894
      2246.6844       1750.6614
  21592899.4224  -32114842.43949 -24705960.78947  21592900.3214   21592908.2944
      -919.2404       -716.2904
  21273053.6224  -27060537.30449 -20808675.53047  21273054.0464   21273063.8644
      2717.4304       2117.4774
  20139176.6484  -37057272.95349 -28630011.52347  20139177.4834   20139185.7834
       424.9824        331.1564
  23997201.7974  -16232329.95347 -12633345.38945  23997202.3864   23997215.5574
     -2988.8284      -2328.9494
  23079158.5684  -15928969.91248 -12388001.05146  23079159.6404   23079169.8954
      3185.9514       2482.5564
  23340026.0814  -21069999.88348 -16131025.69846  23340026.8814   23340036.0524
     -2373.9554      -1849.8364
  21614328.2944  -18560146.65648 -14183254.79647  21614328.2574   21614337.7264
      1962.4634       1529.1894
  24576075.0574   -4315537.01447  -3053226.55245  24576075.7704   24576090.0194
      3845.4434       2996.4424
 97  9 18  0 39 59.9990000  0  9G 4G29G16G14G15G18G25G22G19
  24529769.8244   -5807048.39847  -4280765.18745  24529769.9094   24529779.8434
      2229.5534       1737.3114
  21598167.0894  -32087158.11849 -24684388.60047  21598168.3184   21598176.5134
      -926.2864       -721.7814
  21257574.7364  -27141881.07049 -20872060.26347  21257574.9874   21257584.2374
      2705.4724       2108.1604
  20136804.3944  -37069739.08749 -28639725.39747  20136805.2074   20136813.5894
       406.1394        316.4734
  24014266.1494  -16142655.17947 -12563469.10045  24014266.8504   24014281.3774
     -2989.4904      -2329.4654
  23060980.8344  -16024498.02548 -12462438.51146  23060981.2034   23060990.8644
      3182.6384       2479.9774
  23353588.3414  -20998729.63248 -16075490.45246  23353589.3494   23353598.0724
     -2377.4354      -1852.5424
  21603174.6394  -18618754.05348 -14228922.85447  21603175.0534   21603185.0194
      1944.7934       1515.4224
  24554136.2404   -4430822.16947  -3143058.90645  24554137.3374   24554150.8194
      3840.1674       2992.3284
 97  9 18  0 40 29.9990000  0  9G 4G29G16G14G15G18G25G22G19
  24517085.1994   -5873700.90447  -4332702.15445  24517086.4984   24517096.5154
      2214.4864       1725.5694
  21603472.1634  -32059282.72349 -24662667.51647  21603473.0314   21603481.1674
      -931.3674       -725.7404
  21242160.2514  -27222885.69849 -20935180.74047  21242160.4814   21242169.6044
      2695.4034       2100.3144
  20134537.7094  -37081653.49949 -28649009.35647  20134538.2534   20134546.6624
       388.6864        302.8724
  24031331.5824  -16052972.89947 -12493586.97945  24031332.5304   24031346.5064
     -2988.7224      -2328.8674
  23042817.7454  -16119942.87748 -12536811.09146  23042818.5924   23042828.7654
      3180.9734       2478.6804
  23367167.6124  -20927371.40748 -16019886.65146  23367168.5464   23367177.3114
     -2379.3204      -1854.0124
  21592121.4374  -18676843.45148 -14274187.28047  21592121.5294   21592131.1614
      1928.1724       1502.4704
  24532226.2864   -4545958.35947  -3232775.20545  24532227.1704   24532241.0904
      3836.1864       2989.2304
 97  9 18  0 40 59.9990000  0  9G 4G29G16G14G15G18G25G22G19
  24504496.6454   -5939855.40347  -4384251.07345  24504497.8984   24504507.2224
      2194.3954       1709.9074
  21608814.3964  -32031211.27549 -24640793.66547  21608815.1224   21608822.7694
      -941.4074       -733.5644
  21226813.4764  -27303532.48349 -20998022.37647  21226813.9194   21226822.9714
      2679.5244       2087.9404
  20132379.0714  -37092994.19549 -28657846.26647  20132379.8334   20132388.4644
       366.1074        285.2784
  24048403.7894  -15963263.56747 -12423683.76545  24048404.1764   24048418.0014
     -2993.3844      -2332.5054
  23024672.5674  -16215293.19048 -12611110.00446  23024673.4984   23024684.0514
      3174.0364       2473.2744
  23380769.8224  -20855893.97848 -15964189.97746  23380770.6704   23380778.8854
     -2387.4854      -1860.3794
  21581174.6344  -18734367.18748 -14319010.92747  21581174.9174   21581184.3624
      1905.2044       1484.5744
  24510349.2744   -4660924.09347  -3322358.69545  24510350.2474   24510363.4104
      3826.6494       2981.7984
 97  9 18  0 41 29.9990000  0  9G 4G29G16G14G15G18G25G22G19
  24491985.5744   -6005601.35147  -4435481.69045  24491987.4234   24491995.7804
      2184.7974       1702.4334
  21614175.5014  -32003035.95949 -24618838.88147  21614176.3334   21614184.2714
      -940.6944       -733.0104
  21211521.8194  -27383889.69649 -21060638.36947  21211522.1844   21211531.6104
      2673.8154       2083.4914
  20130312.8494  -37103852.94349 -28666307.63047  20130313.4974   20130322.0704
       354.1404        275.9544
  24065465.8994  -15873598.88547 -12353815.37945  24065466.2474   24065481.1554
     -2987.9354      -2328.2544
  23006535.0054  -16310608.21948 -12685381.43046  23006535.6014   23006545.2214
      3176.6504       2475.3124
  23394383.1834  -20784353.40248 -15908444.09046  23394384.1574   23394392.7804
     -2385.8244      -1859.0834
  21570324.2594  -18791384.44448 -14363439.91947  21570324.6304   21570333.9734
      1892.2304       1474.4624
  24488492.7554   -4775785.31347  -3411860.75345  24488492.9934   24488506.0894
      3827.3784       2982.3624
 97  9 18  0 41 59.9990000  0  9G 4G29G16G14G15G18G25G22G19
  24479565.5084   -6070871.91647  -4486341.86145  24479566.0444   24479576.3944
      2167.4024       1688.8804
  21619568.8654  -31974690.58649 -24596751.58547  21619569.9644   21619578.5954
      -947.8384       -738.5754
  21196298.6574  -27463885.53049 -21122972.76647  21196299.1694   21196308.6794
      2659.9604       2072.6954
  20128349.0634  -37114171.26949 -28674347.88447  20128349.8074   20128358.5884
       334.7494        260.8434
  24082532.0404  -15783915.86247 -12283932.68745  24082532.7324   24082548.3434
     -2989.9594      -2329.8304
  22988415.1034  -16405829.05748 -12759579.45846  22988415.7844   22988425.9784
      3172.3094       2471.9274
  23408025.5394  -20712662.75748 -15852581.27646  23408026.3074   23408035.3314
     -2392.5364      -1864.3124
  21559584.6324  -18847821.93148 -14407417.14847  21559584.7874   21559594.5394
      1871.0764       1457.9804
  24466664.7014   -4890492.46347  -3501242.74045  24466664.6134   24466677.4954
      3820.4944       2977.0004
 97  9 18  0 42 29.9990000  0  9G 4G29G16G14G15G18G25G22G19
  24467221.2404   -6135740.42447  -4536888.70045  24467222.2344   24467231.4134
      2154.6734       1678.9654
  21624978.2794  -31946265.72449 -24574602.35347  21624979.3704   21624987.7154
      -949.6374       -739.9764
  21181135.8624  -27543568.94549 -21185063.72247  21181136.1314   21181145.4424
      2649.8034       2064.7814
  20126472.6664  -37124031.10049 -28682030.86647  20126473.5204   20126482.3464
       320.1594        249.4764
  24099587.1254  -15694294.53447 -12214098.09745  24099587.7084   24099601.3704
     -2987.0474      -2327.5594
  22970297.6424  -16501037.29848 -12833767.65646  22970298.0764   22970308.5104
      3172.5164       2472.0874
  23421682.2204  -20640895.71948 -15796658.93446  23421682.8044   23421692.4004
     -2394.1874      -1865.6024
  21548944.8094  -18903735.75248 -14450986.31947  21548944.9894   21548954.7344
      1854.1474       1444.7884
  24444853.9314   -5005105.63047  -3590551.53145  24444854.6134   24444867.1284
      3818.1634       2975.1854
 97  9 18  0 42 59.9990000  0  9G 4G29G16G14G15G18G25G22G19
  24454974.7674   -6200093.00347  -4587033.53245  24454975.7664   24454985.0824
      2134.0504       1662.9034
  21630424.2004  -31917645.92549 -24552301.22147  21630425.3664   21630433.9644
      -959.6884       -747.8084
  21166057.7404  -27622803.18049 -21246804.67047  21166058.2364   21166067.5644
      2631.1264       2050.2284
  20124705.3384  -37133321.15049 -28689269.86747  20124705.9404   20124714.5604
       297.8854        232.1184
  24116650.0264  -15604632.18347 -12144231.50645  24116650.1574   24116662.6844
     -2991.7554      -2331.2344
  22952204.9734  -16596113.35548 -12907852.86746  22952205.9884   22952215.7494
      3164.5054       2465.8444
  23435373.6314  -20568945.32248 -15740593.70846  23435374.7894   23435383.5914
     -2403.7444      -1873.0484
  21538426.2114  -18959010.82948 -14494057.76447  21538426.5484   21538436.0784
      1829.6414       1425.6944
  24423081.5364   -5119522.37147  -3679707.27545  24423082.3514   24423094.0204
      3808.1884       2967.4134
 97  9 18  0 43 29.9990000  0  9G 4G29G16G14G15G18G25G22G19
  24442816.0874   -6263990.44047  -4636823.72245  24442816.4984   24442825.6474
      2123.4094       1654.6034
  21635894.4204  -31888900.83449 -24529902.45947  21635895.2234   21635903.9084
      -959.1434       -747.3844
  21151052.2254  -27701657.96749 -21308249.94247  21151052.4254   21151061.8734
      2623.5984       2044.3614
  20123030.3304  -37142122.26149 -28696127.88047  20123031.1054   20123039.5244
       286.4084        223.1754
  24133704.9124  -15515011.14147 -12074397.11545  24133704.5864   24133718.2274
     -2985.2554      -2326.1734
  22934124.3234  -16691128.72948 -12981890.79846  22934124.7864   22934134.4444
      3167.7384       2468.3684
  23449083.4764  -20496901.99948 -15684456.07446  23449084.1964   23449093.4954
     -2401.4114      -1871.2274
  21528012.2144  -19013737.05248 -14536701.52747  21528012.5224   21528021.6584
      1816.5414       1415.4854
  24401331.1884   -5233817.24047  -3768768.07145  24401332.1894   24401344.6354
      3809.2844       2968.2654
 97  9 18  0 43 59.9990000  0  9G 4G29G16G14G15G18G25G22G19
  24430749.9024   -6327391.58147  -4686227.16245  24430750.3714   24430760.4414
      2105.2354       1640.4454
  21641396.1114  -31859988.23349 -24507373.16747  21641397.2174   21641405.5464
      -966.4404       -753.0704
  21136121.6834  -27780119.00749 -21369388.40147  21136122.0074   21136131.1984
      2609.0594       2033.0324
  20121454.5224  -37150401.70149 -28702579.39347  20121455.2744   20121463.9024
       267.3654        208.3374
  24150753.4924  -15425419.86147 -12004585.89945  24150753.7444   24150766.5854
     -2985.6024      -2326.4434
  22916055.5204  -16786079.58648 -13055878.44146  22916056.2224   22916066.7224
      3164.1484       2465.5684
  23462811.1214  -20424758.02648 -15628240.01046  23462812.0634   23462821.7314
     -2406.0464      -1874.8444
  21517703.9424  -19067908.04848 -14578912.64847  21517704.1504   21517713.3264
      1796.8124       1400.1124
  24379608.1484   -5347975.90447  -3857722.69945  24379608.4234   24379621.3244
      3803.0804       2963.4334
 97  9 18  0 44 29.9990000  0  9G 4G29G16G14G15G18G25G22G19
  24418786.9044   -6390265.80247  -4735220.04345  24418787.8784   24418796.5664
      2087.5294       1626.6464
  21646935.4484  -31830879.87949 -24484691.34347  21646936.4264   21646944.8594
      -973.1494       -758.2974
  21121269.2854  -27858168.35449 -21430206.05947  21121269.6504   21121278.7874
      2595.5564       2022.5094
  20119985.0634  -37158126.66249 -28708598.84747  20119985.7144   20119994.4224
       248.6424        193.7464
  24167798.3014  -15335845.36047 -11934787.78545  24167798.9734   24167813.3644
     -2984.9254      -2325.9114
  22898004.5504  -16880939.26548 -13129795.03946  22898005.3884   22898015.3304
      3160.8924       2463.0304
  23476559.4264  -20352512.89548 -15571945.11546  23476560.2384   23476569.8794
     -2409.3844      -1877.4424
  21507501.1684  -19121523.42348 -14620690.82147  21507501.6434   21507510.8914
      1778.5964       1385.9194
  24357913.4824   -5461976.92747  -3946554.53545  24357914.7724   24357927.9304
      3798.2234       2959.6494
 97  9 18  0 44 59.9990000  0  9G 4G29G16G14G15G18G25G22G19
  24406940.5934   -6452511.93447  -4783723.49645  24406942.4244   24406950.0054
      2068.3424       1611.7014
  21652533.5734  -31801462.48849 -24461768.70647  21652534.4074   21652542.5784
      -981.8484       -765.0764
  21106510.8474  -27935724.59249 -21490639.46947  21106511.2404   21106520.5904
      2581.0144       2011.1794
  20118641.6184  -37165185.32649 -28714099.10647  20118642.4784   20118651.5904
       228.1244        177.7594
  24184858.8764  -15246192.30147 -11864928.46745  24184858.8494   24184873.3084
     -2985.9464      -2326.7094
  22879991.3894  -16975601.14848 -13203557.50146  22879991.9774   22880001.9574
      3156.0464       2459.2554
  23490346.7134  -20280058.71948 -15515487.32846  23490348.1714   23490358.0484
     -2414.8704      -1881.7184
  21497421.5324  -19174491.95848 -14661964.96847  21497421.6434   21497431.0734
      1758.5804       1370.3204
  24336264.3424   -5575741.00047  -4035201.71545  24336265.3984   24336278.8094
      3791.9824       2954.7864
 97  9 18  0 45 29.9990000  0  9G 4G29G16G14G15G18G25G22G19
  24395177.0964   -6514336.24447  -4831898.25745  24395178.0974   24395186.5374
      2052.3844       1599.2564
  21658152.7114  -31771933.34849 -24438758.99147  21658153.5624   21658161.6894
      -987.7234       -769.6554
  21091806.0584  -28013001.52149 -21550855.23747  21091806.2954   21091815.5414
      2569.7814       2002.4274
  20117386.4884  -37171780.76949 -28719238.41147  20117387.1614   20117396.0804
       210.5844        164.0924
  24201896.0134  -15156662.55147 -11795165.22345  24201896.5364   24201910.5084
     -2983.7764      -2325.0234
  22861975.4304  -17070276.76148 -13277330.66746  22861975.7154   22861985.5264
      3154.5444       2458.0854
  23504137.0984  -20207590.34748 -15459018.49446  23504138.3844   23504148.1814
     -2417.4364      -1883.7174
  21487428.0234  -19227008.79148 -14702887.14247  21487428.1284   21487437.3624
      1741.4374       1356.9634
  24314623.3284   -5689463.69547  -4123816.63945  24314624.2494   24314638.3794
      3788.5684       2952.1244
 97  9 18  0 45 59.9990000  0  9G 4G29G16G14G15G18G25G22G19
  24383503.7974   -6575676.27947  -4879695.68845  24383504.2464   24383514.2224
      2036.4744       1586.8594
  21663806.3864  -31742222.88449 -24415607.97747  21663807.2214   21663815.4664
      -993.3214       -774.0164
  21077167.0564  -28089926.29449 -21610796.60147  21077167.4504   21077177.0364
      2557.9504       1993.2074
  20116233.4174  -37177839.67449 -28723959.63647  20116234.1424   20116243.0714
       192.9034        150.3134
  24218922.1184  -15067187.49347 -11725444.60645  24218922.6584   24218936.5074
     -2981.7784      -2323.4534
  22843970.6684  -17164889.71248 -13351055.00046  22843971.3774   22843981.2604
      3152.3734       2456.3894
  23517944.7854  -20135030.99748 -15402478.76846  23517945.7664   23517955.3204
     -2420.1604      -1885.8374
  21477535.1114  -19278994.49848 -14743395.44747  21477535.3544   21477544.8774
      1723.6274       1343.0844
  24293005.4594   -5803071.17847  -4212341.80645  24293006.6234   24293019.6594
      3784.5944       2949.0334
 97  9 18  0 46 29.9990000  0  9G 4G29G16G14G15G18G25G22G19
  24371927.3364   -6636515.37847  -4927102.73645  24371927.6794   24371937.5084
      2020.3954       1574.3304
  21669495.7054  -31712325.57149 -24392311.37147  21669496.6674   21669504.9524
      -998.8924       -778.3584
  21062601.5094  -28166466.45549 -21670438.26647  21062602.1494   21062612.1124
      2545.6034       1983.5864
  20115186.7304  -37183342.31449 -28728247.40347  20115187.3924   20115195.9894
       174.8554        136.2504
  24235942.8754  -14977743.38547 -11655748.08345  24235943.7864   24235958.3364
     -2980.2834      -2322.2934
  22825985.4754  -17259402.50848 -13424701.29846  22825986.3274   22825996.3274
      3149.4904       2454.1484
  23531772.5344  -20062367.27648 -15345857.71146  23531773.2994   23531782.9594
     -2423.2294      -1888.2304
  21467752.1374  -19330405.02248 -14783455.54947  21467752.3474   21467761.8904
      1704.4794       1328.1634
  24271413.4054   -5916536.86847  -4300756.47245  24271414.0584   24271427.2934
      3780.5694       2945.8894
 97  9 18  0 46 59.9990000  0  9G 4G29G16G14G15G18G25G22G19
  24360441.7404   -6696866.60547  -4974129.61945  24360443.4144   24360453.9484
      2003.3834       1561.0834
  21675219.2324  -31682248.28449 -24368874.52047  21675220.1434   21675228.3404
     -1005.9254       -783.8364
  21048108.7674  -28242627.10849 -21729784.21047  21048109.4484   21048118.8554
      2531.7954       1972.8264
  20114242.3724  -37188303.76449 -28732113.46947  20114242.9894   20114251.7914
       156.2704        121.7704
  24252956.6964  -14888339.25647 -11586082.74045  24252956.8344   24252972.0834
     -2979.8354      -2321.9424
  22808018.2844  -17353822.76648 -13498275.48846  22808018.9724   22808028.4134
      3145.5864       2451.1054
  23545618.1644  -19989607.60348 -15289161.88146  23545618.7424   23545628.6904
     -2427.0714      -1891.2254
  21458082.4084  -19381222.05348 -14823053.19247  21458082.4984   21458091.3354
      1683.5644       1311.8674
  24249846.6924   -6029870.45247  -4389068.20345  24249847.7014   24249859.5544
      3774.9694       2941.5294
 97  9 18  0 47 29.9990000  0  9G 4G29G16G14G15G18G25G22G19
  24349049.2444   -6756729.99747  -5020776.37245  24349051.2214   24349062.1124
      1987.6794       1548.8374
  21680977.5164  -31651988.95849 -24345295.82847  21680978.3624   21680986.5794
     -1010.9244       -787.7334
  21033692.2084  -28318388.91949 -21788819.36847  21033692.5304   21033702.4894
      2519.3344       1963.1164
  20113399.0954  -37192734.76049 -28735566.19347  20113399.8414   20113408.5964
       139.3974        108.6204
  24269962.7584  -14798973.75747 -11516447.48345  24269963.0444   24269978.0374
     -2977.5994      -2320.1974
  22790067.7544  -17448153.22448 -13571779.70946  22790068.0544   22790078.0954
      3143.3484       2449.3614
  23559479.2424  -19916766.43948 -15232402.56546  23559480.0404   23559489.5664
     -2428.6574      -1892.4574
  21448526.2224  -19431436.72548 -14862181.46847  21448526.5434   21448535.7384
      1664.3924       1296.9284
  24228308.6064   -6143048.30747  -4477258.58245  24228310.0274   24228323.0844
      3770.5074       2938.0524
 97  9 18  0 47 59.9990000  0  9G 4G29G16G14G15G18G25G22G19
  24337747.8224   -6816117.37647  -5067052.21245  24337748.8614   24337759.6554
      1971.3304       1536.0974
  21686763.0974  -31621585.15149 -24321604.55347  21686764.1334   21686772.2194
     -1016.0674       -791.7414
  21019347.7544  -28393767.56149 -21847555.95347  21019348.3004   21019358.1574
      2505.8524       1952.6124
  20112652.2534  -37196658.32749 -28738623.51547  20112653.0534   20112662.0674
       122.0784         95.1254
  24286957.0054  -14709672.43647 -11446862.24045  24286957.0424   24286970.3734
     -2975.9504      -2318.9214
  22772130.3564  -17542413.30248 -13645229.08546  22772131.0054   22772140.7344
      3140.6764       2447.2774
  23573348.1774  -19843883.23248 -15175610.48846  23573349.3234   23573358.8584
     -2430.3344      -1893.7694
  21439081.2734  -19481071.31648 -14900857.72747  21439081.3384   21439090.6764
      1644.5184       1281.4404
  24206796.7154   -6256093.74647  -4565345.78145  24206798.1044   24206811.3274
      3765.7134       2934.3184
 97  9 18  0 48 29.9990000  0  9G 4G29G16G14G15G18G25G22G19
  24326543.3504   -6875005.20447  -5112938.78745  24326543.7354   24326554.7304
      1953.9584       1522.5664
  21692581.2124  -31591013.58249 -24297782.55947  21692582.0494   21692589.8194
     -1022.5244       -796.7724
  21005082.0144  -28468734.86849 -21905972.01747  21005082.3664   21005092.7434
      2491.4164       1941.3634
  20112006.0964  -37200055.64249 -28741270.77447  20112006.9174   20112015.7854
       103.8464         80.9184
  24303942.2024  -14620410.97047 -11377308.06045  24303942.2324   24303957.6274
     -2975.3954      -2318.4774
  22754209.8404  -17636584.05848 -13718608.85246  22754210.7144   22754220.3654
      3136.7704       2444.2334
  23587229.4184  -19770936.56848 -15118768.96246  23587230.4594   23587240.3054
     -2433.5374      -1896.2634
  21429751.7724  -19530099.62648 -14939061.55847  21429751.7404   21429760.8424
      1623.4974       1265.0614
  24185311.6004   -6368994.85847  -4653320.51545  24185313.1344   24185326.6294
      3760.2484       2930.0594
 97  9 18  0 48 59.9990000  0  9G 4G29G16G14G15G18G25G22G19
  24315438.2544   -6933361.52047  -5158411.20145  24315439.3114   24315449.6194
      1937.3894       1509.6484
  21698436.6834  -31560242.45249 -24273805.06047  21698437.4324   21698445.3634
     -1027.8914       -800.9534
  20990901.1204  -28543255.69449 -21964040.17247  20990901.6564   20990912.1444
      2477.4634       1930.4904
  20111465.0294  -37202899.81549 -28743487.02047  20111465.7174   20111474.3564
        86.6274         67.5024
  24320926.8974  -14531158.32347 -11307760.76345  24320927.3184   24320942.6034
     -2973.8904      -2317.3084
  22736313.8184  -17730629.85648 -13791891.24946  22736314.2604   22736324.0564
      3133.7764       2441.9034
  23601130.8264  -19697885.42047 -15061846.02946  23601131.6624   23601141.6344
     -2435.8494      -1898.0644
  21420541.7034  -19578495.34848 -14976772.46547  21420542.1074   21420551.0284
      1603.8484       1249.7504
  24163862.0124   -6481714.78147  -4741154.07845  24163863.2634   24163876.3884
      3755.0774       2926.0294
 97  9 18  0 49 29.9990000  0  9G 4G29G16G14G15G18G25G22G19
  24304427.3374   -6991217.90247  -5203494.07145  24304429.3114   24304440.3454
      1921.4874       1497.2574
  21704321.0604  -31529319.38049 -24249709.16647  21704322.0284   21704329.7944
     -1031.9014       -804.0784
  20976800.5384  -28617358.11349 -22021782.30347  20976800.6544   20976810.3304
      2464.5394       1920.4194
  20111022.7844  -37205224.12149 -28745298.16747  20111023.4244   20111032.1254
        70.0464         54.5814
  24337903.9154  -14441948.83147 -11238247.09545  24337903.9364   24337917.6694
     -2971.5884      -2315.5204
  22718434.5344  -17824583.71448 -13865102.00246  22718435.3544   22718445.1714
      3131.5844       2440.1964
  23615047.3664  -19624754.06447 -15004860.57146  23615048.2904   23615057.8414
     -2437.8534      -1899.6294
  21411443.6494  -19626307.32948 -15014028.50547  21411443.7014   21411452.9184
      1585.3714       1235.3524
  24142442.8244   -6594279.07447  -4828866.34745  24142443.7654   24142455.3734
      3750.9604       2922.8224
 97  9 18  0 49 59.9990000  0  9G 4G29G16G14G15G18G25G22G19
  24293508.2824   -7048610.38947  -5248215.43145  24293508.2574   24293518.6534
      1905.4004       1484.7314
  21710225.6384  -31498288.84049 -24225529.52547  21710226.6424   21710234.8234
     -1036.3474       -807.5434
  20962769.0344  -28691093.17349 -22079238.18247  20962769.3994   20962779.1914
      2451.7604       1910.4614
  20110671.0184  -37207071.24449 -28746737.48747  20110671.8454   20110680.6244
        53.5064         41.6934
  24354863.4174  -14352828.00447 -11168802.47145  24354862.6434   24354877.2014
     -2969.1614      -2313.6294
  22700565.6074  -17918485.54248 -13938272.20846  22700566.2894   22700576.6564
      3129.1894       2438.3254
  23628972.8344  -19551576.21848 -14947838.90346  23628973.7974   23628983.1784
     -2440.2174      -1901.4684
  21402447.2464  -19673583.17748 -15050866.79147  21402447.4224   21402457.2404
      1566.9794       1221.0234
  24121043.2964   -6706735.02547  -4916494.21245  24121043.9754   24121055.4754
      3746.6554       2919.4684
 97  9 18  0 50 29.9990000  0  9G 4G29G16G14G15G18G25G22G19
  24282674.0514   -7105540.85447  -5292576.86145  24282675.5244   24282684.2844
      1887.4974       1470.7764
  21716155.0614  -31467131.11849 -24201250.78347  21716155.9014   21716164.0184
     -1043.1404       -812.8374
  20948807.5984  -28764460.02249 -22136407.14147  20948807.9584   20948818.0244
      2437.0904       1899.0294
  20110413.7934  -37208422.38949 -28747790.32647  20110414.6664   20110423.5314
        34.1604         26.6184
  24371806.4164  -14263791.10547 -11099423.31945  24371806.8744   24371819.9854
     -2968.8584      -2313.3904
  22682709.4374  -18012321.06048 -14011390.75346  22682710.1654   22682720.5024
      3124.2864       2434.5074
  23642910.5314  -19478334.05047 -14890767.12246  23642910.9464   23642920.6704
     -2444.8744      -1905.0954
  21393553.4254  -19720318.75748 -15087284.08547  21393553.7134   21393563.7654
      1546.4244       1205.0044
  24099667.3764   -6819063.96247  -5004023.13145  24099667.9894   24099679.9574
      3739.3884       2913.8024
 97  9 18  0 50 59.9990000  0  9G 4G29G16G14G15G18G25G22G19
  24271938.4484   -7161954.08847  -5336535.20745  24271939.4774   24271948.6834
      1871.6714       1458.4474
  21722118.3194  -31435794.70149 -24176832.80247  21722119.2134   21722127.2574
     -1047.5604       -816.2814
  20934924.2694  -28837418.59649 -22193257.95847  20934924.6394   20934934.1004
      2425.1634       1889.7374
  20110262.6964  -37209217.85749 -28748410.17447  20110263.2474   20110272.1424
        17.2264         13.4244
  24388741.7664  -14174798.69447 -11030078.77445  24388741.8514   24388754.4274
     -2965.7164      -2310.9434
  22664872.8384  -18106051.00648 -14084427.04646  22664873.4174   22664884.1074
      3122.7304       2433.2954
  23656868.0074  -19404985.14947 -14833612.16645  23656868.9654   23656878.3004
     -2446.7484      -1906.5604
  21384771.0334  -19766473.48048 -15123248.75847  21384771.0434   21384780.2474
      1528.9394       1191.3794
  24078329.6094   -6931197.32147  -5091399.61045  24078330.3554   24078342.4524
      3734.4734       2909.9774
 97  9 18  0 51 29.9990000  0  9G 4G29G16G14G15G18G25G22G19
  24261292.3914   -7217888.24047  -5380120.23545  24261294.7754   24261303.4004
      1855.2814       1445.6774
  21728108.3754  -31404316.58749 -24152304.40947  21728109.3304   21728117.2394
     -1052.8364       -820.3924
  20921109.1414  -28910017.46249 -22249828.49047  20921109.5194   20921119.2244
      2412.9694       1880.2344
  20110208.6134  -37209500.59149 -28748630.49147  20110209.4314   20110218.3424
        -0.1794         -0.1404
  24405658.0574  -14085900.90747 -10960807.96745  24405658.8164   24405672.0764
     -2962.6914      -2308.5904
  22647046.3074  -18199729.39248 -14157423.14646  22647047.1634   22647057.2364
      3120.6524       2431.6744
  23670839.0554  -19331568.42847 -14776404.36146  23670839.6854   23670849.5784
     -2449.3404      -1908.5734
  21376089.9854  -19812092.98848 -15158796.38147  21376089.9364   21376098.9054
      1510.4004       1176.9344
  24057020.1864   -7043180.22047  -5178658.88945  24057020.5174   24057032.5684
      3729.1554       2905.8284
 97  9 18  0 51 59.9990000  0  9G 4G29G16G14G15G18G25G22G19
  24250754.4024   -7273277.52947  -5423280.69845  24250755.4534   24250763.5264
      1837.6234       1431.9124
  21734138.3814  -31372626.14949 -24127610.56047  21734139.4474   21734147.1234
     -1059.5454       -825.6204
  20907373.1554  -28982197.82149 -22306072.90947  20907373.6264   20907383.6604
      2399.3594       1869.6304
  20110263.7714  -37209211.59549 -28748405.29947  20110264.3934   20110273.4994
       -18.9024        -14.7284
  24422566.3634  -13997045.79947 -10891570.46045  24422566.3534   24422580.7784
     -2960.6744      -2307.0134
  22629242.3344  -18293294.01348 -14230330.60546  22629242.8994   22629252.1664
      3117.2584       2429.0334
  23684832.5254  -19258032.40047 -14719103.57946  23684833.6844   23684842.6374
     -2452.6574      -1911.1574
  21367525.3634  -19857099.92048 -15193866.68147  21367525.4694   21367534.6004
      1490.2664       1161.2444
  24035750.0004   -7154953.34847  -5265754.70945  24035751.1714   24035762.4374
      3722.7544       2900.8424
 97  9 18  0 52 29.9990000  0  9G 4G29G16G14G15G18G25G22G19
  24240312.2104   -7328152.30547  -5466040.24445  24240313.6504   24240322.3924
      1820.2574       1418.3774
  21740204.2404  -31340750.28649 -24102772.22947  21740205.1974   21740213.3544
     -1065.8414       -830.5244
  20893712.9814  -29053983.27049 -22362009.60447  20893713.4614   20893723.2674
      2385.8294       1859.0884
  20110421.9034  -37208379.42549 -28747756.85947  20110422.5754   20110431.9414
       -36.8294        -28.6984
  24439459.4134  -13908275.79647 -10822399.23545  24439459.2954   24439473.2064
     -2957.8134      -2304.7844
  22611453.2544  -18386774.57448 -14303172.55646  22611454.1144   22611463.4964
      3114.3964       2426.8044
  23698841.8264  -19184415.07247 -14661739.46646  23698842.7504   23698851.8654
     -2455.5124      -1913.3854
  21359073.1494  -19901514.67548 -15228475.54047  21359073.2884   21359082.5724
      1470.3104       1145.6954
  24014512.7244   -7266557.24447  -5352718.66446  24014513.0014   24014524.8604
      3717.0554       2896.4064
 97  9 18  0 52 59.9990000  0  9G 4G29G16G14G15G18G25G22G19
  24229984.5504   -7382426.86047  -5508332.07945  24229985.3884   24229994.9494
      1802.3254       1404.4084
  21746320.3284  -31308609.62848 -24077727.56447  21746321.2844   21746329.7824
     -1072.6184       -835.8074
  20880144.4194  -29125288.15849 -22417571.83147  20880144.6454   20880154.2014
      2371.7804       1848.1394
  20110696.2144  -37206939.37949 -28746634.75147  20110696.9144   20110706.0764
       -55.0244        -42.8754
  24456349.2314  -13819514.69647 -10753234.94645  24456349.7584   24456364.1804
     -2955.5674      -2303.0374
  22593694.4214  -18480097.98548 -14375892.04346  22593695.0584   22593704.7664
      3111.2064       2424.3134
  23712880.6834  -19110640.46948 -14604252.79346  23712881.7514   23712890.0104
     -2458.6034      -1915.7934
  21350750.1534  -19945252.50048 -15262556.91747  21350750.5224   21350759.5874
      1449.5994       1129.5584
  23993319.3704   -7377926.87747  -5439500.07145  23993320.3164   23993332.1784
      3711.5854       2892.1364
 97  9 18  0 53 29.9990000  0  9G 4G29G16G14G15G18G25G22G19
  24219742.0724   -7436249.08447  -5550271.43445  24219743.0674   24219752.4904
      1785.6334       1391.4054
  21752459.4884  -31276349.40548 -24052589.72747  21752460.3924   21752468.6384
     -1078.3904       -840.3044
  20866642.3444  -29196241.65749 -22472860.25247  20866642.7134   20866652.1814
      2358.1844       1837.5454
  20111059.7604  -37205026.69349 -28745144.35047  20111060.5184   20111070.4064
       -72.8694        -56.7814
  24473211.6384  -13730898.90747 -10684183.92845  24473212.0064   24473227.9714
     -2952.4844      -2300.6264
  22575941.3414  -18573391.88348 -14448588.54646  22575941.9404   22575951.1924
      3108.2044       2421.9774
  23726921.7784  -19036852.72047 -14546755.88746  23726922.6454   23726931.8734
     -2460.7084      -1917.4314
  21342532.3364  -19988439.41848 -15296209.01847  21342532.4354   21342540.9924
      1429.3604       1113.7864
  23972144.1404   -7489203.60447  -5526209.12545  23972144.8314   23972156.9784
      3706.4924       2888.1724
 97  9 18  0 53 59.9990000  0  9G 4G29G16G14G15G18G25G22G19
  24209603.2734   -7489525.75147  -5591785.67445  24209604.6924   24209615.1774
      1765.5224       1375.7314
  21758640.2294  -31243868.70548 -24027280.09147  21758641.2184   21758649.5364
     -1087.5584       -847.4494
  20853227.2744  -29266735.05049 -22527790.15247  20853227.7314   20853237.9644
      2340.8874       1824.0674
  20111535.8664  -37202525.88149 -28743195.67147  20111536.3794   20111546.3234
       -94.4784        -73.6194
  24490066.4634  -13642327.79347 -10615167.67345  24490066.7914   24490082.1744
     -2952.8664      -2300.9244
  22558213.1134  -18666553.54348 -14521182.00846  22558213.8184   22558223.1774
      3101.9754       2417.1244
  23740981.7564  -18962968.16848 -14489183.54346  23740982.8944   23740991.3064
     -2465.5504      -1921.2064
  21334436.9794  -20030982.07548 -15329359.10147  21334437.0624   21334445.8144
      1406.2324       1095.7644
  23951006.3464   -7600281.04447  -5612762.87345  23951007.3084   23951018.4914
      3698.0824       2881.6194
 97  9 18  0 54 29.9990000  0  9G 4G29G16G14G15G18G25G22G19
  24199559.6024   -7542307.71347  -5632914.44245  24199561.2224   24199570.4574
      1751.8844       1365.1134
  21764853.9904  -31211213.45648 -24001834.44947  21764855.1214   21764863.3014
     -1090.5494       -849.7764
  20839892.2364  -29336810.86449 -22582394.65847  20839892.6574   20839903.0314
      2329.5244       1815.2144
  20112115.8814  -37199476.93149 -28740819.87647  20112116.6084   20112126.2554
      -110.0894        -85.7834
  24506904.4504  -13553842.94547 -10546218.64845  24506904.5254   24506921.4664
     -2947.4354      -2296.6804
  22540499.8374  -18759637.16048 -14593714.65046  22540500.4804   22540510.2184
      3102.1514       2417.2604
  23755049.8014  -18889040.48747 -14431577.58446  23755050.7584   23755059.9624
     -2464.2904      -1920.2214
  21326452.9724  -20072935.42148 -15362049.98547  21326453.3724   21326462.8134
      1389.4114       1082.6574
  23929896.5274   -7711210.74347  -5699201.50045  23929897.5244   23929909.5194
      3695.7384       2879.7914
 97  9 18  0 54 59.9990000  0  9G 4G29G16G14G15G18G25G22G19
  24189610.8474   -7594583.78747  -5673649.02645  24189612.0754   24189622.1244
      1734.6514       1351.6674
  21771100.0194  -31178389.70148 -23976257.50247  21771101.0904   21771109.2044
     -1096.2894       -854.2514
  20826638.9574  -29406458.97049 -22636665.88647  20826639.3124   20826649.4564
      2314.9664       1803.8704
  20112803.4124  -37195863.22749 -28738004.01247  20112804.1434   20112813.8404
      -129.3234       -100.7704
  24523730.5794  -13465429.72447 -10477325.44745  24523729.9864   24523745.6514
     -2945.3264      -2295.0544
  22522803.3464  -18852633.40348 -14666179.20046  22522803.7114   22522814.0154
      3098.9024       2414.7274
  23769126.3064  -18815064.48647 -14373933.99046  23769127.7574   23769137.1424
     -2466.0614      -1921.6034
  21318582.1604  -20114295.02248 -15394278.20847  21318582.5664   21318592.0444
      1369.1854       1066.8964
  23908818.7664   -7821973.09547  -5785509.74445  23908819.3784   23908832.6434
      3689.7234       2875.1044
 97  9 18  0 55 29.9990000  0  8G 4G29G16G14G18G25G22G19
  24179754.4754   -7646380.15947  -5714009.80545  24179755.3994   24179766.1074
      1718.2914       1338.9264
  21777373.2054  -31145424.94648 -23950570.67547  21777374.3294   21777382.3444
     -1101.4484       -858.2714
  20813463.1224  -29475696.90449 -22690617.50347  20813463.7044   20813473.9344
      2300.8944       1792.9044
  20113592.8944  -37191716.93649 -28734773.14347  20113593.3674   20113602.9304
      -147.0384       -114.5744
  22505119.0414  -18945562.52148 -14738591.45746  22505119.7034   22505129.7404
      3096.3084       2412.7044
  23783208.5714  -18741064.35647 -14316271.59546  23783209.4514   23783218.8664
     -2467.3054      -1922.5754
  21310820.7044  -20155085.31348 -15426062.81847  21310820.6804   21310829.4814
      1350.0964       1052.0224
  23887769.6914   -7932586.39747  -5871701.80245  23887770.1484   23887783.4014
      3684.6524       2871.1524
 97  9 18  0 55 59.9990000  0  8G 4G29G16G14G18G25G22G19
  24169989.8484   -7697693.50847  -5753994.24045  24169990.7894   24169999.8664
      1701.2154       1325.6254
  21783672.9164  -31112321.21448 -23924775.56247  21783673.8984   21783681.9504
     -1106.7154       -862.3774
  20800365.0314  -29544530.24049 -22744253.85147  20800365.1544   20800374.9774
      2286.7294       1781.8674
  20114477.6174  -37187065.59949 -28731148.73447  20114478.3494   20114488.0184
      -164.2574       -127.9914
  22487446.9724  -19038429.30648 -14810955.14946  22487447.6354   22487457.3294
      3093.4054       2410.4454
  23797294.4534  -18667044.67447 -14258593.96446  23797294.9824   23797304.2684
     -2468.7354      -1923.6874
  21303165.5414  -20195312.82448 -15457408.89047  21303165.6044   21303174.4194
      1330.3244       1036.6144
  23866744.5114   -8043078.75747  -5957799.65146  23866745.0834   23866757.6684
      3680.1354       2867.6324
 97  9 18  0 56 29.9990000  0  8G 4G29G16G14G18G25G22G19
  24160330.7274   -7748455.89347  -5793549.32745  24160331.3714   24160340.7384
      1683.9124       1312.1434
  21790009.6164  -31079021.54448 -23898827.76747  21790010.5524   21790018.3244
     -1112.3074       -866.7334
  20787354.5774  -29612899.58449 -22797528.64847  20787354.9224   20787364.8174
      2272.1194       1770.4814
  20115467.9774  -37181860.35449 -28727092.70647  20115468.6384   20115478.4764
      -181.8234       -141.6804
  22469799.7154  -19131163.36648 -14883215.42246  22469800.5074   22469810.7544
      3089.8594       2407.6804
  23811397.7754  -18592930.89147 -14200842.98246  23811398.3874   23811408.0004
     -2471.2914      -1925.6804
  21295631.6434  -20234901.23548 -15488256.96147  21295631.8824   21295640.8684
      1310.1214       1020.8724
  23845753.3044   -8153387.99147  -6043754.79646  23845753.8364   23845766.6434
      3674.6544       2863.3674
 97  9 18  0 56 59.9990000  0  8G 4G29G16G14G18G25G22G19
  24150769.9254   -7798688.52547  -5832691.63545  24150771.8614   24150782.2044
      1665.4904       1297.7844
  21796379.9504  -31045544.69148 -23872741.91447  21796380.7214   21796388.7934
     -1119.2304       -872.1264
  20774428.8474  -29680823.76949 -22850456.56247  20774429.3634   20774439.4674
      2256.4684       1758.2864
  20116558.7414  -37176126.44149 -28722624.72847  20116559.5744   20116569.5014
      -200.0384       -155.8724
  22452175.3244  -19223781.71148 -14955385.51146  22452176.0994   22452186.1854
      3085.2224       2404.0694
  23825517.4304  -18518731.24847 -14143025.11745  23825518.1224   23825527.9674
     -2474.9204      -1928.5084
  21288214.4564  -20273880.93048 -15518630.70847  21288214.5394   21288223.3904
      1288.8654       1004.3084
  23824794.5864   -8263524.06147  -6129574.99546  23824795.2644   23824807.9424
      3668.1534       2858.2984
 97  9 18  0 57 29.9990000  0  8G 4G29G16G14G18G25G22G19
  24141304.1894   -7848438.01847  -5871457.44745  24141305.2754   24141316.5524
      1649.5284       1285.3464
  21802779.8004  -31011915.94848 -23846537.70547  21802780.3854   21802788.7104
     -1124.1234       -875.9394
  20761583.1034  -29748330.78949 -22903059.41447  20761583.4604   20761593.1324
      2242.4484       1747.3614
  20117743.3994  -37169903.20449 -28717775.46647  20117744.0304   20117753.8824
      -216.6654       -168.8304
  22434566.1744  -19316323.64748 -15027496.07146  22434566.8284   22434576.4464
      3082.6384       2402.0554
  23839645.4984  -18444484.93647 -14085170.87845  23839646.7374   23839656.2574
     -2476.3144      -1929.5964
  21280905.9114  -20312285.84048 -15548556.56947  21280906.2744   21280915.3584
      1269.9314        989.5544
  23803860.3284   -8373531.46247  -6215294.94646  23803861.0164   23803874.0394
      3663.9314       2855.0084
 97  9 18  0 57 59.9990000  0  8G 4G29G16G14G18G25G22G19
  24131939.0514   -7897650.04147  -5909804.47045  24131939.5724   24131950.5464
      1631.6274       1271.3974
  21809215.5064  -30978094.09848 -23820183.02547  21809216.3774   21809224.7504
     -1130.3504       -880.7924
  20748826.5094  -29815366.30849 -22955294.87147  20748827.0434   20748836.8694
      2226.9614       1735.2944
  20119035.2804  -37163113.26149 -28712484.61347  20119036.1004   20119046.1964
      -235.7634       -183.7114
  22416980.4964  -19408733.61948 -15099503.80946  22416981.4004   22416990.8204
      3078.3174       2398.6884
  23853791.5904  -18370147.32447 -14027245.50145  23853792.7054   23853802.8174
     -2479.2234      -1931.8624
  21273716.5424  -20350068.28048 -15577997.39347  21273716.6434   21273725.1364
      1249.2504        973.4414
  23782963.3284   -8483345.39947  -6300864.13846  23782964.5404   23782976.5224
      3657.1464       2849.7214
 97  9 18  0 58 29.9990000  0  8G 4G29G16G14G18G25G22G19
  24122674.2204   -7946342.88047  -5947746.94945  24122675.3514   24122683.4884
      1613.7024       1257.4274
  21815683.3654  -30944105.74048 -23793698.59847  21815684.3064   21815692.7464
     -1136.3204       -885.4444
  20736154.1374  -29881960.40849 -23007186.35647  20736154.4654   20736163.9504
      2211.7534       1723.4434
  20120433.8344  -37155765.30349 -28706758.94447  20120434.6404   20120444.2714
      -254.9904       -198.6934
  22399414.4294  -19501042.79448 -15171433.00446  22399415.2824   22399425.2724
      3074.7074       2395.8734
  23867949.5664  -18295748.07747 -13969272.08846  23867950.8984   23867960.3204
     -2481.5234      -1933.6544
  21266638.4304  -20387261.37948 -15606978.99147  21266638.6564   21266647.3434
      1229.4844        958.0374
  23762102.7094   -8592970.95047  -6386286.53946  23762103.5534   23762114.4834
      3650.5434       2844.5774
 97  9 18  0 58 59.9990000  0  8G 4G29G16G14G18G25G22G19
  24113509.8304   -7994500.57347  -5985272.40745  24113510.9334   24113520.8934
      1596.1424       1243.7494
  21822183.0784  -30909949.24948 -23767083.16247  21822183.8424   21822192.6304
     -1141.3364       -889.3544
  20723568.4874  -29948099.74949 -23058723.48747  20723568.6574   20723578.1074
      2196.8694       1711.8454
  20121940.9484  -37147845.52549 -28700587.69647  20121941.6814   20121951.2424
      -273.6204       -213.2114
  22381870.1144  -19593240.46048 -15243275.31346  22381870.7864   22381880.5844
      3071.1234       2393.0824
  23882118.4014  -18221292.48047 -13911254.77445  23882119.0044   23882128.9544
     -2482.8124      -1934.6584
  21259673.8284  -20423859.93348 -15635497.30847  21259674.0964   21259683.0224
      1209.5014        942.4674
  23741276.8024   -8702411.51247  -6471564.79246  23741277.6484   23741289.0294
      3644.7344       2840.0484
 97  9 18  0 59 29.9990000  0  8G 4G29G16G14G18G25G22G19
  24104447.8834   -8042121.99147  -6022379.99445  24104449.0004   24104459.4104
      1578.0904       1229.6774
  21828711.1154  -30875643.60248 -23740351.49447  21828711.9234   21828720.3494
     -1146.1144       -893.0744
  20711067.3594  -30013790.40449 -23109910.99047  20711067.8854   20711077.7034
      2182.0944       1700.3334
  20123556.2594  -37139356.62649 -28693972.97747  20123557.0364   20123566.2564
      -292.6304       -228.0234
  22364347.3684  -19685321.73348 -15315026.92046  22364348.2324   22364358.2874
      3067.1894       2390.0164
  23896295.3214  -18146795.50247 -13853205.19745  23896296.1874   23896304.5334
     -2484.1184      -1935.6774
  21252825.2344  -20459850.76548 -15663542.07547  21252825.3064   21252834.5754
      1189.4344        926.8314
  23720486.6874   -8811664.89347  -6556697.19545  23720487.7214   23720499.0334
      3638.2294       2834.9814
 97  9 18  0 59 59.9990000  0  8G 4G29G16G14G18G25G22G19
  24095487.0544   -8089212.16147  -6059073.63745  24095488.3464   24095497.5684
      1560.0174       1215.6004
  21835264.2524  -30841207.02148 -23713517.79647  21835265.2424   21835273.5724
     -1150.9754       -896.8654
  20698647.4494  -30079060.41449 -23160770.71947  20698647.8324   20698657.3114
      2168.0124       1689.3594
  20125275.4974  -37130323.66149 -28686934.31647  20125276.2064   20125285.4664
      -310.6824       -242.0894
  22346844.0934  -19777303.03848 -15386700.63946  22346844.7314   22346853.8394
      3063.8304       2387.4004
  23910475.5534  -18072276.71347 -13795138.62045  23910476.1044   23910484.8184
     -2485.0884      -1936.4344
  21246087.5374  -20495255.11648 -15691129.84247  21246087.8164   21246096.9674
      1169.6064        911.3784
  23699730.9414   -8920733.48547  -6641685.62245  23699731.5134   23699742.8804
      3631.9414       2830.0794
 97  9 18  1  0 29.9990000  0  8G 4G29G16G14G18G25G22G19
  24086629.8194   -8135757.04047  -6095342.37845  24086630.6314   24086640.6154
      1538.9214       1199.1574
  21841848.0574  -30806607.31548 -23686556.99647  21841849.0664   21841857.6204
     -1159.8644       -903.7904
  20686310.8384  -30143889.50049 -23211286.87447  20686311.1414   20686320.6424
      2149.5984       1675.0104
  20127098.0864  -37120744.82149 -28679470.29447  20127098.8374   20127108.3804
      -332.0534       -258.7434
  22329360.5254  -19869182.19848 -15458294.76246  22329361.1804   22329370.0514
      3057.2324       2382.2584
  23924664.4094  -17997712.49847 -13737036.64945  23924665.1414   23924674.4144
     -2490.0084      -1940.2624
  21239466.9174  -20530047.60548 -15718240.83647  21239467.1614   21239475.9464
      1145.7144        892.7634
  23679012.0094   -9029611.23347  -6726525.34346  23679012.8444   23679024.7824
      3622.4234       2822.6664
 97  9 18  1  0 59.9990000  0  8G 4G29G16G14G18G25G22G19
  24077877.4664   -8181750.01547  -6131181.02545  24077878.4194   24077888.3014
      1527.0974       1189.9434
  21848470.5294  -30771804.81448 -23659438.16747  21848471.7484   21848480.0034
     -1160.5414       -904.3194
  20674066.9784  -30208232.46849 -23261424.23647  20674067.0004   20674076.6534
      2139.6794       1667.2814
  20129028.2554  -37110601.27449 -28671566.23847  20129029.0054   20129038.4394
      -344.2504       -268.2474
  22311900.2004  -19960934.79848 -15529790.26446  22311900.8454   22311910.1944
      3059.5674       2384.0754
  23938867.6504  -17923070.94847 -13678874.42145  23938868.7234   23938877.6904
     -2486.2714      -1937.3514
  21232970.0134  -20564189.80248 -15744845.11247  21232970.0384   21232979.0574
      1130.2374        880.7024
  23658335.4774   -9138272.15047  -6811196.09546  23658336.0864   23658347.2104
      3621.2874       2821.7794
 97  9 18  1  1 29.9990000  0  8G 4G29G16G14G18G25G22G19
  24069210.1854   -8227295.30547  -6166670.86745  24069211.2604   24069221.6024
      1508.6214       1175.5454
  21855117.9434  -30736874.96048 -23632220.10247  21855118.8764   21855127.0814
     -1168.7144       -910.6864
  20661895.7934  -30272187.33549 -23311259.18447  20661896.4414   20661906.1864
      2123.2114       1654.4504
  20131045.8324  -37100000.09849 -28663305.59047  20131046.5574   20131055.7184
      -363.0624       -282.9054
  22294443.2964  -20052672.44548 -15601274.10846  22294444.0694   22294453.4284
      3055.6244       2381.0034
  23953068.2854  -17848447.07347 -13620725.97945  23953069.2104   23953078.6694
     -2489.3384      -1939.7474
  21226577.6534  -20597780.70548 -15771019.80947  21226577.9264   21226587.1824
      1108.5814        863.8294
  23637681.0154   -9246812.88147  -6895773.20046  23637681.2524   23637691.8244
      3614.0394       2816.1334
 97  9 18  1  1 59.9990000  0  8G 4G29G16G14G18G25G22G19
  24060648.1394   -8272290.82347  -6201732.32445  24060649.0404   24060659.2104
      1492.2054       1162.7554
  21861813.2644  -30701692.00248 -23604804.81647  21861814.3764   21861822.1244
     -1175.7034       -916.1334
  20649821.3914  -30335641.11049 -23360703.67547  20649821.6924   20649831.1314
      2108.1414       1642.7084
  20133169.9904  -37088836.33549 -28654606.56847  20133170.7314   20133180.0194
      -380.0794       -296.1644
  22277008.9414  -20144289.22148 -15672663.77546  22277009.7054   22277019.1354
      3053.2894       2379.1854
  23967287.1474  -17773730.68447 -13562505.45145  23967287.3104   23967297.5044
     -2490.6974      -1940.8034
  21220310.4804  -20630716.14048 -15796683.75547  21220310.5744   21220319.5444
      1088.2284        847.9684
  23617065.5664   -9355147.30947  -6980189.53546  23617066.3334   23617076.7474
      3609.2994       2812.4394
 97  9 18  1  2 29.9990000  0  8G 4G29G16G14G18G25G22G19
  24052189.2784   -8316746.53247  -6236373.12945  24052190.3304   24052199.3434
      1474.0244       1148.5854
  21868557.8984  -30666250.36848 -23577187.96347  21868558.2904   21868566.5864
     -1184.3524       -922.8724
  20637842.7674  -30398587.35049 -23409752.68047  20637843.3224   20637852.9734
      2090.9314       1629.2964
  20135401.5884  -37077112.47749 -28645471.10647  20135402.1374   20135410.8954
      -398.9064       -310.8364
  22259598.2554  -20235782.05648 -15743956.86846  22259599.0024   22259608.3474
      3048.6434       2375.5634
  23981521.4064  -17698928.94147 -13504218.42145  23981522.0464   23981530.7764
     -2493.3684      -1942.8894
  21214168.6374  -20662992.25348 -15821833.93947  21214168.7204   21214177.3924
      1066.2434        830.8374
  23596485.1504   -9463295.12948  -7064460.47346  23596485.9654   23596496.9674
      3602.9374       2807.4784
 97  9 18  1  2 59.9990000  0  8G 4G29G16G14G18G25G22G19
  24043817.6954   -8360735.85247  -6270650.51745  24043818.3994   24043827.8164
      1458.0474       1136.1404
  21875333.0004  -30630642.46848 -23549441.56147  21875334.0584   21875342.5114
     -1189.6934       -927.0334
  20625945.3344  -30461111.35149 -23458472.66747  20625945.6914   20625955.1674
      2077.0004       1618.4414
  20137723.1004  -37064910.01049 -28635962.70147  20137723.9554   20137732.7804
      -415.0184       -323.3894
  22242199.9094  -20327208.51948 -15815198.23846  22242200.5984   22242210.3604
      3046.0944       2373.5794
  23995753.7804  -17624137.77647 -13445939.63145  23995754.8304   23995763.0804
     -2493.1184      -1942.6864
  21208134.5874  -20694701.50948 -15846542.41647  21208134.8134   21208143.4164
      1047.2934        816.0714
  23575926.4224   -9571333.54347  -7148646.15746  23575927.1384   23575937.8504
      3598.9784       2804.3984
 97  9 18  1  3 29.9990000  0  8G 4G29G16G14G18G25G22G19
  24035546.0834   -8404204.49647  -6304522.19545  24035546.9524   24035556.0214
      1441.6954       1123.4024
  21882144.5524  -30594848.87548 -23521550.45447  21882145.5324   21882153.8244
     -1194.6054       -930.8624
  20614134.1054  -30523179.73149 -23506837.63347  20614134.4044   20614143.7364
      2062.7514       1607.3384
  20140146.4994  -37052177.97649 -28626041.64047  20140146.9844   20140155.8344
      -432.0324       -336.6484
  22224824.8214  -20418519.57548 -15886349.67246  22224825.4534   22224835.0044
      3043.1504       2371.2854
  24009992.5244  -17549313.40947 -13387634.95345  24009993.5274   24010001.6904
     -2493.3164      -1942.8464
  21202215.4744  -20725806.69848 -15870780.19647  21202215.6084   21202224.3764
      1028.1364        801.1454
  23555397.8804   -9679210.30648  -7232705.88646  23555398.6414   23555409.2984
      3594.4494       2800.8654
 97  9 18  1  3 59.9990000  0  8G 4G29G16G14G18G25G22G19
  24027373.6734   -8447147.33647  -6337984.13545  24027375.0424   24027384.1664
      1417.8224       1104.7924
  21888989.2514  -30558879.69848 -23493522.52747  21888990.2694   21888998.6914
     -1206.6264       -940.2294
  20602411.7104  -30584781.85749 -23554839.28547  20602412.0454   20602421.0194
      2040.8384       1590.2634
  20142673.1444  -37038899.42549 -28615694.72747  20142673.8794   20142682.8184
      -456.5454       -355.7494
  22207472.6354  -20509705.60148 -15957403.67746  22207473.2424   22207482.8114
      3032.7284       2363.1634
  24024238.3454  -17474451.67547 -13329301.17745  24024238.8834   24024247.4494
     -2500.7124      -1948.6074
  21196413.0374  -20756298.90348 -15894540.32547  21196413.1484   21196421.5914
      1001.4074        780.3164
  23534904.3714   -9786899.93748  -7316619.79946  23534904.8804   23534917.1394
      3581.5034       2790.7754
 97  9 18  1  4 29.9990000  0  8G 4G29G16G14G18G25G22G19
  24019306.9744   -8489542.09447  -6371018.98745  24019308.4124   24019318.1604
      1405.0554       1094.8424
  21895868.1414  -30522732.33048 -23465355.76147  21895868.9964   21895877.3794
     -1206.6434       -940.2424
  20590780.7994  -30645901.99949 -23602465.35647  20590781.1194   20590790.3514
      2030.4684       1582.1834
  20145307.1374  -37025058.38349 -28604909.50647  20145307.7604   20145316.6774
      -469.6934       -365.9934
  22190145.4434  -20600760.91248 -16028355.83046  22190146.1124   22190155.1324
      3034.1754       2364.2904
  24038492.2394  -17399544.67147 -13270932.11745  24038493.3884   24038501.4774
     -2496.4454      -1945.2744
  21190729.4804  -20786165.80748 -15917813.20547  21190729.4244   21190737.9144
       986.2164        768.4794
  23514454.0684   -9894366.96547  -7400360.24646  23514454.6934   23514466.5614
      3579.4694       2789.1964
 97  9 18  1  4 59.9990000  0  8G 4G29G16G14G18G25G22G19
  24011345.5524   -8531381.58847  -6403621.15645  24011346.0964   24011355.8084
      1386.4174       1080.3254
  21902780.1024  -30486409.93548 -23437052.60547  21902781.0094   21902789.3464
     -1212.7294       -944.9854
  20579242.3864  -30706536.94449 -23649713.35347  20579242.6254   20579252.2164
      2013.9174       1569.2854
  20148049.7054  -37010645.55649 -28593678.74047  20148050.3764   20148059.3974
      -488.9924       -381.0334
  22172841.2724  -20691690.93048 -16099210.35146  22172842.1134   22172851.6434
      3030.1314       2361.1394
  24052756.9104  -17324580.89447 -13212518.82445  24052757.7744   24052766.6824
     -2498.9284      -1947.2144
  21185166.7064  -20815396.49548 -15940590.33647  21185166.6994   21185175.6634
       964.4814        751.5454
  23494049.4714  -10001592.77047  -7483912.73146  23494051.0114   23494062.0314
      3571.0514       2782.6294
 97  9 18  1  5 29.9990000  0  8G 4G29G16G14G18G25G22G19
  24003470.6914   -8572758.73047  -6435863.09145  24003471.6144   24003481.1554
      1370.9474       1068.2694
  21909709.6894  -30449993.81648 -23408676.41447  21909710.5734   21909718.9534
     -1216.1954       -947.6844
  20567781.3564  -30766763.93749 -23696643.46647  20567781.7014   20567791.2184
      2000.1744       1558.5774
  20150884.5124  -36995747.97049 -28582070.23947  20150885.1404   20150894.4984
      -505.2304       -393.6864
  22155541.0704  -20782603.83348 -16170051.53946  22155541.8714   22155551.3044
      3029.4534       2360.6104
  24067015.0934  -17249650.80447 -13154131.77645  24067015.8744   24067025.5094
     -2497.5424      -1946.1374
  21179711.5444  -20844060.74648 -15962926.09547  21179711.9904   21179721.2964
       945.2834        736.5834
  23473675.2234  -10108660.42648  -7567341.99746  23473675.9034   23473687.3394
      3565.8024       2778.5424
 97  9 18  1  5 59.9990000  0  8G 4G29G16G14G18G25G22G19
  23995698.1494   -8613601.45547  -6467688.60445  23995699.6084   23995708.5214
      1352.0784       1053.5644
  21916673.3014  -30413400.07248 -23380161.81847  21916674.1554   21916682.4524
     -1223.4054       -953.3024
  20556412.5554  -30826506.42049 -23743196.04147  20556413.0514   20556422.4464
      1982.6874       1544.9514
  20153823.0984  -36980304.96949 -28570036.74447  20153824.0344   20153833.0314
      -524.2894       -408.5364
  22138260.4994  -20873417.40148 -16240815.32146  22138261.1264   22138270.1334
      3024.6994       2356.9064
  24081279.1274  -17174692.40247 -13095722.67345  24081280.3634   24081289.9304
     -2499.7324      -1947.8354
  21174380.6284  -20872081.38849 -15984760.33947  21174380.7134   21174389.1714
       922.7324        719.0104
  23453342.7384  -10215506.93448  -7650598.94746  23453343.7754   23453355.4434
      3557.4574       2772.0444
 97  9 18  1  6 29.9990000  0  8G 4G29G16G14G18G25G22G19
  23988025.7744   -8653923.41647  -6499108.29145  23988027.1494   23988037.1444
      1335.2514       1040.4594
  21923670.3884  -30376630.58748 -23351510.28547  21923671.2844   21923679.3244
     -1228.7024       -957.4304
  20545136.6894  -30885761.80549 -23789369.05747  20545137.0814   20545146.6714
      1966.9044       1532.6544
  20156863.4714  -36964328.10649 -28557587.25147  20156864.2134   20156873.4604
      -541.6554       -422.0694
  22120998.3644  -20964128.53348 -16311499.27146  22120998.8764   22121008.3034
      3021.7694       2354.6234
  24095549.2904  -17099706.06447 -13037291.78945  24095550.0544   24095559.2184
     -2500.1634      -1948.1804
  21169168.7324  -20899466.19849 -16006099.12647  21169169.1054   21169177.6374
       902.1384        702.9644
  23433049.5524  -10322152.71048  -7733699.47046  23433050.0784   23433061.4224
      3551.4834       2767.3854
 97  9 18  1  6 59.9990000  0  8G 4G29G16G14G18G25G22G19
  23980450.6554   -8693732.72147  -6530128.54645  23980451.5284   23980461.6484
      1316.6994       1026.0014
  21930699.7054  -30339692.56448 -23322727.42047  21930700.2504   21930708.2184
     -1235.7324       -962.9084
  20533953.0594  -30944531.97849 -23835163.98047  20533953.5724   20533963.1874
      1949.1164       1518.7924
  20160004.1734  -36947823.58949 -28544726.60347  20160004.8044   20160014.1924
      -560.4944       -436.7494
  22103756.6984  -21054736.09348 -16382102.52246  22103757.2514   22103766.1494
      3016.8264       2350.7754
  24109822.7234  -17024695.71947 -12978842.19745  24109823.9874   24109833.3014
     -2502.4824      -1949.9914
  21164076.7144  -20926224.90348 -16026950.04047  21164076.8754   21164085.7564
       879.9084        685.6414
  23412789.7954  -10428617.44348  -7816658.91746  23412790.2714   23412801.6734
      3544.1784       2761.6954
 97  9 18  1  7 29.9990000  0  8G 4G29G16G14G18G25G22G19
  23972971.3984   -8733033.86847  -6560752.81145  23972972.4334   23972982.7984
      1301.2744       1013.9804
  21937758.7294  -30302594.32848 -23293819.71446  21937759.5614   21937767.8294
     -1239.5894       -965.9134
  20522860.6114  -31002823.69649 -23880586.08647  20522860.9394   20522870.2504
      1934.9864       1507.7794
  20163242.9194  -36930803.21549 -28531463.98447  20163243.6534   20163253.2394
      -576.3294       -449.0894
  22086534.1874  -21145239.20248 -16452624.38046  22086534.9994   22086544.0634
      3014.5254       2348.9774
  24124100.2334  -16949666.09047 -12920377.58445  24124101.0944   24124110.8574
     -2501.6454      -1949.3334
  21159101.3354  -20952371.04948 -16047323.64747  21159101.5774   21159110.2514
       861.2414        671.0954
  23392562.2424  -10534915.00448  -7899488.09946  23392562.8814   23392574.5294
      3540.2754       2758.6514
 97  9 18  1  7 59.9990000  0  8G 4G29G16G14G18G25G22G19
  23965588.1544   -8771836.81947  -6590988.88645  23965588.8534   23965598.9654
      1283.0534        999.7834
  21944847.2644  -30265343.20448 -23264792.87447  21944848.4844   21944856.7214
     -1246.5764       -971.3584
  20511855.0314  -31060660.56449 -23925653.76747  20511855.3754   20511864.4254
      1918.0704       1494.6014
  20166579.3564  -36913270.27849 -28517801.96747  20166579.9794   20166589.3274
      -595.1574       -463.7584
  22069331.6034  -21235637.98348 -16523064.93346  22069332.2024   22069341.9064
      3009.4914       2345.0564
  24138381.7004  -16874614.60247 -12861895.93445  24138382.7524   24138392.4774
     -2504.2144      -1951.3354
  21154238.0984  -20977929.07448 -16067238.97147  21154238.1014   21154246.6294
       840.0204        654.5604
  23372362.9774  -10641063.13948  -7982200.85746  23372363.3704   23372375.2474
      3533.4694       2753.3524
 97  9 18  1  8 29.9990000  0  8G 4G29G16G14G18G25G22G19
  23958303.6084   -8810114.99747  -6620816.05545  23958304.8024   23958314.4444
      1266.6404        986.9924
  21951970.0834  -30227914.18048 -23235627.40447  21951971.0024   21951979.2794
     -1250.7374       -974.6014
  20500938.2784  -31118027.14649 -23970354.99447  20500938.6284   20500947.9884
      1904.3194       1483.8854
  20170018.6964  -36895197.08949 -28503718.97947  20170019.2764   20170028.7834
      -611.7054       -476.6534
  22052150.4134  -21325923.45548 -16593417.20046  22052151.2844   22052160.7324
      3007.4854       2343.4924
  24152670.5094  -16799529.33347 -12803387.96045  24152671.8244   24152681.3824
     -2503.4304      -1950.7264
  21149489.0154  -21002883.97548 -16086684.32347  21149489.0584   21149497.9484
       821.5244        640.1494
  23352196.1734  -10747038.71348  -8064779.13946  23352197.0524   23352208.7464
      3529.2174       2750.0374
 97  9 18  1  8 59.9990000  0  8G 4G29G16G14G18G25G22G19
  23951128.1444   -8847822.42247  -6650198.45245  23951128.8234   23951138.5714
      1238.9434        965.4094
  21959131.9844  -30190278.46848 -23206300.87447  21959133.1324   21959141.0604
     -1266.4674       -986.8584
  20490114.0284  -31174909.43249 -24014678.84547  20490114.3844   20490123.6104
      1879.4714       1464.5224
  20173565.9054  -36876555.50349 -28489193.07547  20173566.6144   20173576.4314
      -639.3104       -498.1654
  22034996.7494  -21416069.63048 -16663660.93246  22034997.3734   22035006.5394
      2993.9724       2332.9624
  24166968.7544  -16724394.39947 -12744841.28545  24166969.5944   24166978.2754
     -2513.7944      -1958.8004
  21144861.6694  -21027197.81748 -16105630.15147  21144861.9224   21144871.1654
       791.0914        616.4334
  23332071.2974  -10852796.51548  -8147187.72546  23332071.6374   23332083.3464
      3512.9374       2737.3514
 97  9 18  1  9 29.9990000  0  8G 4G29G16G14G18G25G22G19
  23944064.8924   -8884942.77647  -6679123.38345  23944065.9814   23944075.2034
      1227.1844        956.2464
  21966338.0014  -30152411.32948 -23176794.01547  21966338.8414   21966347.1854
     -1266.6304       -986.9834
  20479385.0324  -31231291.53649 -24058612.94547  20479385.4424   20479394.5724
      1870.5964       1457.6064
  20177224.8314  -36857326.21049 -28474209.23147  20177225.5884   20177235.5644
      -651.2784       -507.4894
  22017874.2494  -21506048.71348 -16733774.44646  22017874.9284   22017884.0854
      2996.0024       2334.5434
  24181278.3474  -16649197.00247 -12686245.94445  24181279.2544   24181289.0684
     -2507.9294      -1954.2234
  21140363.0974  -21050839.28548 -16124052.04947  21140363.4254   21140372.6004
       776.4424        605.0184
  23311993.5584  -10958302.89148  -8229400.40546  23311994.3084   23312006.4294
      3512.1464       2736.7344
 97  9 18  1  9 59.9990000  0  8G 4G29G16G14G18G25G22G19
  23937089.6824   -8921598.69047  -6707686.43645  23937090.7964   23937099.6904
      1211.7464        944.2214
  21973567.1424  -30114422.32548 -23147192.21547  21973567.9984   21973576.5914
     -1270.5204       -990.0154
  20468730.9564  -31287278.28249 -24102238.97547  20468731.4104   20468740.4834
      1857.0624       1447.0604
  20180973.5104  -36837629.91149 -28458861.48147  20180974.1664   20180983.5464
      -666.3814       -519.2574
  22000762.6554  -21595970.64248 -16803843.43246  22000763.4234   22000772.2014
      2994.1964       2333.1374
  24195575.2144  -16574065.11047 -12627701.65045  24195576.1124   24195586.1654
     -2505.5094      -1952.3494
  21135970.4714  -21073923.26548 -16142039.54247  21135970.8514   21135979.5434
       757.7674        590.4674
  23291943.0114  -11063669.26448  -8311503.99446  23291943.7134   23291955.4314
      3507.5314       2733.1384
 97  9 18  1 10 29.9990000  0  8G 4G29G16G14G18G25G22G19
  23930215.5414   -8957716.85847  -6735830.45245  23930216.4634   23930226.9734
      1195.9544        931.9124
  21980829.0014  -30076260.54948 -23117455.78547  21980829.8944   21980837.9534
     -1273.6514       -992.4554
  20458167.3734  -31342791.38549 -24145495.93047  20458167.8264   20458176.4834
      1843.5814       1436.5564
  20184819.7074  -36817415.96749 -28443110.37047  20184820.4904   20184829.7054
      -681.4774       -531.0214
  21983673.9674  -21685773.56848 -16873819.70046  21983674.6134   21983683.7064
      2992.4214       2331.7564
  24209870.3284  -16498943.61447 -12569165.43745  24209871.8874   24209881.0224
     -2502.9974      -1950.3884
  21131697.3754  -21096378.54048 -16159537.13847  21131697.4854   21131706.4144
       739.0484        575.8824
  23271930.5084  -11168835.18648  -8393451.38446  23271931.4264   23271943.1694
      3503.2974       2729.8364
 97  9 18  1 10 59.9990000  0  8G 4G29G16G14G18G25G22G19
  23923445.8884   -8993291.52747  -6763550.97845  23923447.3814   23923456.3684
      1178.0004        917.9224
  21988124.5744  -30037920.81448 -23087580.67546  21988125.6074   21988133.8324
     -1280.1464       -997.5174
  20447697.2474  -31397812.09249 -24188369.19947  20447697.5034   20447706.6524
      1826.6644       1423.3744
  20188768.0544  -36796669.10449 -28426944.00347  20188768.6094   20188778.1124
      -699.4014       -544.9884
  21966611.2254  -21775437.50448 -16943687.66546  21966611.8734   21966620.9454
      2987.5054       2327.9254
  24224169.6654  -16423802.62547 -12510614.03045  24224169.8214   24224180.0974
     -2504.1614      -1951.2884
  21127547.3214  -21118187.09348 -16176530.79347  21127547.4564   21127556.1464
       717.3484        558.9714
  23251956.7414  -11273798.97848  -8475241.26746  23251957.3524   23251968.6504
      3496.6074       2724.6254
 97  9 18  1 11 29.9990000  0  8G 4G29G16G14G18G25G22G19
  23916775.3314   -9028350.76547  -6790869.86645  23916775.9214   23916785.7334
      1157.8844        902.2484
  21995452.9894  -29999408.11148 -23057570.79546  21995454.0184   21995462.6624
     -1288.6814      -1004.1684
  20437319.4204  -31452346.53549 -24230863.55547  20437319.8734   20437329.4934
      1807.5354       1408.4684
  20192813.7874  -36775405.06549 -28410374.63847  20192814.6794   20192824.8614
      -719.5604       -560.6964
  21949571.9794  -21864978.28348 -17013459.66046  21949572.5264   21949581.9444
      2980.7494       2322.6624
  24238470.6994  -16348650.12747 -12452053.65845  24238471.4514   24238480.7134
     -2507.4564      -1953.8634
  21123514.7584  -21139377.18748 -16193042.52947  21123514.9834   21123523.9564
       694.1074        540.8624
  23232014.7274  -11378594.46548  -8556900.00146  23232015.7654   23232026.5194
      3488.3874       2718.2214
 97  9 18  1 11 59.9990000  0  8G 4G29G16G14G18G25G22G19
  23910208.2314   -9062858.79847  -6817759.22246  23910209.4154   23910219.1914
      1141.6854        889.6284
  22002820.0574  -29960695.83848 -23027405.40146  22002821.1044   22002829.5454
     -1292.8494      -1007.4154
  20427042.1754  -31506352.18449 -24272945.86947  20427042.7394   20427052.2284
      1792.1274       1396.4634
  20196966.0304  -36753588.81549 -28393374.97647  20196966.6364   20196976.2184
      -735.7824       -573.3364
  21932559.8304  -21954379.70348 -17083123.05746  21932560.3964   21932569.0564
      2978.5444       2320.9424
  24252782.1284  -16273441.96847 -12393449.91445  24252782.9314   24252792.3444
     -2507.1544      -1953.6264
  21119604.5014  -21159926.68948 -16209055.10847  21119604.6994   21119613.5584
       674.9684        525.9484
  23212109.0104  -11483200.79148  -8638411.34746  23212109.3424   23212120.7124
      3484.5004       2715.1924
 97  9 18  1 12 29.9990000  0  8G 4G29G16G14G18G25G22G19
  23903739.4594   -9096852.52447  -6844247.83946  23903740.4534   23903749.9804
      1123.6094        875.5424
  22010215.0444  -29921836.09848 -22997125.09046  22010216.0404   22010224.2064
     -1299.0004      -1012.2064
  20416858.2974  -31559870.07449 -24314648.11147  20416858.7444   20416868.2214
      1774.6904       1382.8754
  20201217.5744  -36731245.30649 -28375964.46247  20201218.2964   20201227.8064
      -754.7964       -588.1524
  21915564.3274  -22043690.00948 -17152715.46746  21915564.9884   21915573.2594
      2974.3324       2317.6624
  24267096.7104  -16198221.93747 -12334836.92145  24267097.8984   24267106.8684
     -2508.6114      -1954.7604
  21115808.2704  -21179877.08748 -16224600.84847  21115808.5444   21115816.8874
       653.9734        509.5894
  23192230.2334  -11587663.73748  -8719810.95446  23192230.9174   23192242.3264
      3478.4234       2710.4574
 97  9 18  1 12 59.9990000  0  8G 4G29G16G14G18G25G22G19
  23897380.3494   -9130269.72747  -6870287.20146  23897381.4104   23897391.5284
      1107.2284        862.7784
  22017655.6864  -29882732.87248 -22966655.05846  22017656.7634   22017665.1824
     -1304.6454      -1016.6074
  20406781.9244  -31612822.30349 -24355909.57647  20406782.3754   20406791.9934
      1758.6224       1370.3544
  20205584.9384  -36708293.69449 -28358080.10247  20205585.7914   20205595.5064
      -772.0424       -601.5914
  21898602.1184  -22132826.54448 -17222172.47046  21898603.0414   21898611.1264
      2971.3404       2315.3304
  24281427.6454  -16122912.19947 -12276154.04545  24281428.2584   24281437.6294
     -2508.7634      -1954.8794
  21112139.7854  -21199153.94248 -16239621.74647  21112139.9134   21112148.4144
       634.3314        494.2824
  23172396.8204  -11691887.47648  -8801024.17746  23172397.6494   23172408.3974
      3472.8164       2706.0854
 97  9 18  1 13 29.9990000  0  8G 4G29G16G14G18G25G22G19
  23891112.2134   -9163207.75147  -6895953.19645  23891112.6164   23891123.3834
      1090.6704        849.8724
  22025123.1414  -29843492.41948 -22936078.10346  22025124.2974   22025132.4894
     -1309.1234      -1020.0954
  20396794.3414  -31665309.38149 -24396808.58147  20396794.4844   20396804.0874
      1742.4824       1357.7784
  20210046.3494  -36684849.68349 -28339812.05547  20210047.1954   20210056.7024
      -788.7344       -614.5974
  21881652.2344  -22221899.36348 -17291579.83146  21881652.8404   21881661.4264
      2968.9034       2313.4294
  24295753.6274  -16047628.17647 -12217491.21045  24295754.0074   24295764.2864
     -2508.0764      -1954.3464
  21108579.2684  -21217864.71749 -16254201.54947  21108579.4044   21108588.6054
       615.0224        479.2364
  23152593.8884  -11795953.87448  -8882114.78446  23152594.7494   23152605.8134
      3466.9664       2701.5294
 97  9 18  1 13 59.9990000  0  8G 4G29G16G14G18G25G22G19
  23884939.3424   -9195643.71347  -6921227.95545  23884940.1974   23884951.2524
      1071.6624        835.0634
  22032617.6144  -29804111.95248 -22905392.04646  22032618.4684   22032626.2204
     -1316.2944      -1025.6844
  20386901.2104  -31717294.24649 -24437316.25347  20386901.7284   20386911.8754
      1723.2094       1342.7604
  20214604.4904  -36660899.91749 -28321149.91347  20214605.0254   20214614.0054
      -807.9064       -629.5364
  21864718.4964  -22310886.45448 -17360920.38546  21864719.0914   21864727.8844
      2963.3144       2309.0744
  24310075.7434  -15972362.86547 -12158842.95045  24310076.6084   24310086.1384
     -2509.5624      -1955.4984
  21105131.5604  -21235981.15049 -16268318.23447  21105132.0664   21105141.3814
       592.6174        461.7814
  23132826.6294  -11899829.99048  -8963057.12346  23132827.4844   23132838.0864
      3457.9064       2694.4694
 97  9 18  1 14 29.9990000  0  8G 4G29G16G14G18G25G22G19
  23878875.9884   -9227508.00747  -6946057.26545  23878877.1064   23878887.4194
      1052.3924        820.0454
  22040153.1574  -29764510.93248 -22874534.13146  22040153.8844   22040161.9754
     -1324.1494      -1031.8034
  20377117.4064  -31768709.80449 -24477380.30747  20377117.7854   20377127.6954
      1704.3744       1328.0834
  20219270.1514  -36636380.49249 -28302043.87747  20219270.7424   20219279.7494
      -826.7944       -644.2564
  21847819.0504  -22399694.29348 -17430121.26846  21847819.4844   21847828.8334
      2956.9524       2304.1154
  24324406.4754  -15897054.09947 -12100160.82645  24324407.4684   24324417.1524
     -2511.2824      -1956.8464
  21101812.8774  -21253422.60749 -16281908.96147  21101812.9884   21101821.8644
       569.9374        444.1064
  23113113.4294  -12003422.14448  -9043778.18446  23113113.9904   23113126.1574
      3447.9134       2686.6804
 97  9 18  1 14 59.9990000  0  8G 4G29G16G14G18G25G22G19
  23872906.3684   -9258876.99247  -6970500.62945  23872907.9774   23872917.4474
      1036.6534        807.7834
  22047717.9464  -29724757.13948 -22843557.17846  22047718.8584   22047726.8764
     -1327.9624      -1034.7744
  20367421.7934  -31819659.48649 -24517081.34647  20367422.0134   20367432.1594
      1689.9884       1316.8724
  20224025.0054  -36611394.45749 -28282574.24747  20224025.6744   20224034.2164
      -841.1604       -655.4494
  21830938.1454  -22488400.66948 -17499243.08146  21830938.9694   21830948.2354
      2954.6724       2302.3414
  24338729.5504  -15821782.36547 -12041507.52845  24338730.9734   24338741.1414
     -2508.9564      -1955.0334
  21098607.4274  -21270268.21049 -16295035.38947  21098607.6084   21098615.9894
       550.9424        429.3064
  23093440.0154  -12106804.53848  -9124335.78546  23093440.8974   23093452.7404
      3442.1504       2682.1914
 97  9 18  1 15 29.9990000  0  8G 4G29G16G14G18G25G22G19
  23867040.7934   -9289708.99747  -6994525.56545  23867041.0224   23867050.5694
      1017.9704        793.2224
  22055313.9534  -29684839.33848 -22812452.41246  22055315.1684   22055323.0274
     -1334.2114      -1039.6454
  20357822.3724  -31870104.31349 -24556388.99047  20357822.7564   20357833.0894
      1672.2054       1303.0164
  20228873.2584  -36585913.57449 -28262719.02447  20228874.0574   20228882.6404
      -858.6184       -669.0534
  21814083.9564  -22576972.08048 -17568259.72746  21814084.3844   21814093.2094
      2949.1204       2298.0144
  24353052.9824  -15746517.21147 -11982859.39445  24353054.1064   24353063.5964
     -2509.6534      -1955.5744
  21095521.9894  -21286481.13648 -16307668.81447  21095521.9804   21095530.7854
       528.8934        412.1234
  23073810.8214  -12209959.15848  -9204715.91146  23073811.5184   23073822.2884
      3433.9544       2675.8054
 97  9 18  1 15 59.9990000  0  8G 4G29G16G14G18G25G22G19
  23861275.0294   -9320002.44747  -7018130.83545  23861275.8014   23861285.5784
      1002.3884        781.0824
  22062945.2814  -29644739.28748 -22781205.63446  22062946.1284   22062954.1914
     -1338.3504      -1042.8684
  20348318.1134  -31920048.23249 -24595306.31747  20348318.7934   20348328.7474
      1658.3694       1292.2364
  20233820.7444  -36559917.10449 -28242462.04247  20233821.2434   20233829.6044
      -873.7324       -680.8294
  21797258.1704  -22665388.05748 -17637155.26246  21797259.0784   21797268.4864
      2946.1764       2295.7204
  24367376.4484  -15671250.50247 -11924210.02045  24367376.2484   24367385.4064
     -2507.2114      -1953.6724
  21092558.7404  -21302050.68848 -16319800.91947  21092559.0434   21092567.9654
       509.9444        397.3594
  23054224.0864  -12312888.88048  -9284920.80346  23054224.7504   23054235.7854
      3428.8794       2671.8514
 97  9 18  1 16 29.9990000  0  8G 4G29G16G14G18G25G22G19
  23855606.3794   -9349790.25247  -7041342.10346  23855607.9314   23855616.5744
       984.3154        767.0004
  22070607.0284  -29604473.62348 -22749829.81346  22070608.1714   22070616.6534
     -1345.1134      -1048.1424
  20338898.6954  -31969549.41749 -24633878.65447  20338899.1104   20338909.2094
      1642.4894       1279.8614
  20238861.5824  -36533424.11149 -28221818.16047  20238862.5564   20238871.1764
      -891.6264       -694.7734
  21780456.1974  -22753682.30348 -17705955.93946  21780457.1124   21780466.3634
      2941.2964       2291.9184
  24381694.5064  -15596006.96247 -11865578.68645  24381695.6994   24381704.4884
     -2507.9024      -1954.2144
  21089711.3044  -21317018.21749 -16331463.90547  21089711.3154   21089719.6654
       488.7904        380.8754
  23034671.3294  -12415638.91848  -9364985.67146  23034672.1504   23034683.1904
      3422.0684       2666.5424
 97  9 18  1 16 59.9990000  0  8G 4G29G16G14G18G25G22G19
  23850038.3514   -9379055.69648  -7064146.33746  23850039.0564   23850048.3674
       965.9014        752.6524
  22078303.7644  -29564026.10348 -22718312.27646  22078304.7024   22078313.2024
     -1352.1084      -1053.5914
  20329569.3594  -32018576.99549 -24672081.94847  20329569.5574   20329579.3654
      1624.7824       1266.0634
  20244003.5464  -36506403.98449 -28200763.52347  20244004.1814   20244013.2164
      -910.8214       -709.7314
  21763676.8554  -22841861.21748 -17774666.75446  21763677.5414   21763686.7554
      2936.3164       2288.0384
  24396012.0044  -15520765.57247 -11806949.02945  24396013.8364   24396022.2734
     -2509.2084      -1955.2294
  21086979.8204  -21331371.87149 -16342648.55347  21086979.8524   21086988.2404
       467.1274        363.9944
  23015152.5064  -12518209.23148  -9444910.49146  23015153.2124   23015163.8964
      3414.7964       2660.8764
 97  9 18  1 17 29.9990000  0  7G 4G29G16G14G18G22G19
  23844575.1434   -9407761.87947  -7086514.78846  23844576.4324   23844586.2954
       946.9634        737.8944
  22086043.2194  -29523356.37648 -22686621.59346  22086044.1384   22086052.4754
     -1360.1514      -1059.8574
  20320345.5714  -32067046.63349 -24709850.49147  20320345.8794   20320355.7354
      1605.8744       1251.3294
  20249259.6154  -36478782.83049 -28179240.55247  20249260.4514   20249269.1934
      -931.4124       -725.7774
  21746927.9264  -22929874.70548 -17843248.67646  21746928.7434   21746938.3934
      2930.4684       2283.4804
  21084375.9784  -21345056.00948 -16353311.50147  21084375.8774   21084384.2534
       444.2964        346.2044
  22995679.4024  -12620537.80048  -9524646.95146  22995680.4714   22995690.9644
      3406.1854       2654.1664
 97  9 18  1 17 59.9990000  0  7G 4G29G16G14G18G22G19
  23839206.2524   -9435969.90647  -7108495.06146  23839207.9574   23839218.1754
       933.0164        727.0244
  22093815.4634  -29482513.82248 -22654796.24146  22093816.3394   22093824.4594
     -1363.0954      -1062.1514
  20311216.7964  -32115019.90449 -24747232.25947  20311217.1524   20311226.9124
      1591.6914       1240.2784
  20254621.9444  -36450604.37949 -28157283.32947  20254622.6124   20254631.4804
      -947.4724       -738.2894
  21730199.2714  -23017786.54248 -17911751.38546  21730199.9114   21730209.1084
      2929.9564       2283.0824
  21081889.5264  -21358121.28548 -16363492.21547  21081889.6094   21081897.7174
       426.2704        332.1574
  22976244.5724  -12722671.89648  -9604231.87646  22976244.8154   22976255.6994
      3402.2134       2651.0734
 97  9 18  1 18 29.9990000  0  7G 4G29G16G14G18G22G19
  23833939.5824   -9463655.15947  -7130067.97246  23833940.4234   23833950.0574
       913.5114        711.8334
  22101621.9864  -29441487.94748 -22622828.04246  22101622.8944   22101631.1844
     -1370.9194      -1068.2494
  20302190.0674  -32162455.16049 -24784194.79347  20302190.3994   20302200.1664
      1571.5004       1224.5474
  20260093.4034  -36421851.73149 -28134878.67647  20260094.0644   20260103.2514
      -968.2994       -754.5174
  21713491.3354  -23105589.93548 -17980169.59046  21713491.9484   21713500.7874
      2924.4384       2278.7834
  21079526.7194  -21370537.48549 -16373167.15447  21079526.7914   21079535.2934
       402.3814        313.5434
  22956850.7914  -12824587.12748  -9683646.25046  22956851.2534   22956861.9534
      3392.7184       2643.6744
 97  9 18  1 18 59.9990000  0  7G 4G29G16G14G18G22G19
  23828773.5374   -9490798.43747  -7151218.57345  23828774.4294   23828784.8744
       896.1734        698.3174
  22109464.4704  -29400278.20848 -22590716.56046  22109465.4494   22109473.1424
     -1376.1614      -1072.3324
  20293271.9424  -32209319.28849 -24820712.29147  20293272.2804   20293281.9654
      1553.0144       1210.1404
  20265674.6684  -36392521.81749 -28112024.20547  20265675.4674   20265684.4364
      -986.8004       -768.9354
  21696807.4624  -23193261.43248 -18048485.02446  21696808.2954   21696817.1284
      2920.2084       2275.4874
  21077292.4124  -21382275.68248 -16382313.77847  21077292.4634   21077301.4094
       380.2934        296.3324
  22937505.8854  -12926243.61848  -9762859.00846  22937506.6044   22937517.0814
      3384.5554       2637.3114
 97  9 18  1 19 29.9990000  0  7G 4G29G16G14G18G22G19
  23823700.9324   -9517457.98747  -7171992.24345  23823702.0224   23823711.1954
       881.1114        686.5804
  22117327.0784  -29358959.14648 -22558519.90746  22117328.0664   22117335.9714
     -1378.3944      -1074.0724
  20284448.5584  -32255686.86849 -24856842.86447  20284448.9104   20284458.3034
      1538.2574       1198.6424
  20271349.7924  -36362696.38349 -28088783.61747  20271350.6984   20271360.2174
     -1001.3824       -780.2964
  21680141.0794  -23280844.92448 -18116731.88246  21680141.9294   21680150.6414
      2918.7414       2274.3434
  21075176.1094  -21393398.75949 -16390981.09247  21075176.1174   21075184.8894
       361.4584        281.6554
  22918196.6004  -13027710.55148  -9841924.06946  22918197.5094   22918208.5394
      3380.0884       2633.8334
 97  9 18  1 19 59.9990000  0  7G 4G29G16G14G18G22G19
  23818727.4494   -9543592.28647  -7192356.62545  23818728.7394   23818737.8414
       861.8114        671.5474
  22125214.8354  -29317506.47648 -22526219.13846  22125216.0004   22125223.9094
     -1384.6804      -1078.9744
  20275721.1424  -32301548.42849 -24892579.14447  20275721.6514   20275731.1544
      1519.6334       1184.1314
  20277120.5434  -36332373.33249 -28065155.28047  20277121.2294   20277130.6474
     -1019.4894       -794.4064
  21663496.4014  -23368316.15848 -18184891.27346  21663496.7124   21663505.3474
      2913.2534       2270.0674
  21073177.3484  -21403905.24849 -16399167.94047  21073177.4044   21073185.6394
       339.6714        264.6794
  22898924.8894  -13128986.08048  -9920839.97446  22898925.4914   22898936.3484
      3372.1424       2627.6414
 97  9 18  1 20 29.9990000  0  7G 4G29G16G14G18G22G19
  23813854.9124   -9569198.57347  -7212309.57945  23813855.8164   23813864.6494
       843.3394        657.1524
  22133130.6664  -29275909.99448 -22493806.30646  22133131.8674   22133139.7414
     -1390.3804      -1083.4114
  20267090.6254  -32346903.05049 -24927920.39747  20267091.1404   20267100.7764
      1502.0154       1170.4004
  20282981.4004  -36301574.14549 -28041155.92147  20282982.0224   20282991.0944
     -1035.7744       -807.0974
  21646873.3064  -23455668.25048 -18252957.81046  21646873.9454   21646882.9364
      2908.0964       2266.0494
  21071291.1434  -21413812.99749 -16406888.24247  21071291.4634   21071300.2824
       319.1044        248.6524
  22879688.6704  -13230075.93348  -9999611.20646  22879689.4484   22879699.7844
      3365.1164       2622.1654
 97  9 18  1 20 59.9980000  0  7G 4G29G16G14G18G22G19
  23809088.7094   -9594242.25747  -7231824.14645  23809089.5124   23809099.0284
       825.5614        643.2894
  22141081.3444  -29234130.90848 -22461251.18846  22141082.1364   22141090.2194
     -1395.8374      -1087.6654
  20258563.6104  -32391713.23449 -24962837.41547  20258564.0044   20258573.5614
      1484.6604       1156.8784
  20288937.2654  -36270274.12349 -28016766.30747  20288938.0944   20288947.5124
     -1051.7834       -819.5714
  21630283.5974  -23542845.40248 -18320888.03446  21630284.4314   21630293.5334
      2903.2354       2262.2604
  21069523.1274  -21423102.89449 -16414127.10647  21069523.5154   21069532.1204
       299.5464        233.4114
  22860493.2724  -13330946.34048 -10078211.44746  22860494.0744   22860504.6234
      3359.1944       2617.5504
 97  9 18  1 21 29.9980000  0  7G 4G29G16G14G18G22G19
  23804427.8614   -9618737.32747  -7250911.21945  23804429.0414   23804438.3594
       808.1724        629.7444
  22149067.3354  -29192164.42248 -22428550.03746  22149068.1144   22149076.2854
     -1401.3374      -1091.9514
  20250138.0854  -32435992.12949 -24997340.44047  20250138.2834   20250147.6844
      1467.8604       1143.7884
  20294988.1994  -36238480.30549 -27991991.91447  20294988.7404   20294997.7584
     -1067.2394       -831.6144
  21613722.4194  -23629875.52648 -18388703.69146  21613723.0464   21613732.2674
      2899.4644       2259.3214
  21067868.1634  -21431802.06849 -16420905.65847  21067868.2494   21067876.8124
       281.0254        218.9804
  22841332.9594  -13431633.58648 -10156668.96446  22841333.7714   22841344.6224
      3353.7324       2613.2964
 97  9 18  1 21 59.9980000  0  7G 4G29G16G14G18G22G19
  23799865.2064   -9642710.73147  -7269591.78745  23799866.9894   23799876.5714
       791.3504        616.6384
  22157088.1974  -29150012.06548 -22395704.06146  22157089.3964   22157097.1364
     -1407.6094      -1096.8394
  20241809.8694  -32479755.97149 -25031442.12647  20241810.2004   20241819.5664
      1451.0444       1130.6844
  20301130.3414  -36206201.03849 -27966839.24747  20301131.1664   20301140.2224
     -1083.4944       -844.2804
  21597185.2344  -23716779.00548 -18456420.65546  21597185.9574   21597195.0494
      2895.3934       2256.1494
  21066322.0494  -21439927.33449 -16427237.01147  21066322.0444   21066331.2274
       261.7814        203.9844
  22822206.8004  -13532138.68148 -10234984.53646  22822207.5104   22822219.0994
      3347.7044       2608.5974
 97  9 18  1 22 29.9980000  0  7G 4G29G16G14G18G22G19
  23795406.4744   -9666144.74847  -7287852.05845  23795407.4414   23795416.1344
       773.5174        602.7434
  22165153.5114  -29107631.13748 -22362679.97546  22165154.4004   22165161.6984
     -1415.0064      -1102.6034
  20233584.1164  -32522982.36549 -25065125.01747  20233584.4814   20233593.7814
      1433.3164       1116.8694
  20307372.8664  -36173396.72949 -27941277.46047  20307373.5524   20307382.6074
     -1100.9344       -857.8704
  21580678.2604  -23803523.01448 -18524013.36247  21580679.1774   21580688.3804
      2890.1034       2252.0264
  21064894.8974  -21447426.47849 -16433080.48347  21064895.0144   21064904.0154
       240.6704        187.5354
  22803123.7384  -13632422.61848 -10313127.77646  22803124.7414   22803135.3034
      3340.3994       2602.9034
 97  9 18  1 22 59.9980000  0  7G 4G29G16G14G18G22G19
  23791052.3994   -9689024.00547  -7305680.05045  23791053.5564   23791062.7224
       756.4414        589.4344
  22173263.5754  -29065012.83048 -22329470.92346  22173264.2674   22173272.1894
     -1421.5914      -1107.7334
  20225463.3924  -32565657.25849 -25098378.17047  20225463.7394   20225473.1074
      1416.4594       1103.7354
  20313719.8184  -36140042.42349 -27915287.10647  20313720.6314   20313729.9904
     -1118.0244       -871.1864
  21564205.1184  -23890092.40548 -18591469.99947  21564205.7454   21564214.4434
      2885.8714       2248.7294
  21063592.7164  -21454268.57049 -16438411.97347  21063592.9284   21063601.6704
       219.9664        171.4024
  22784086.0684  -13732469.26648 -10391086.12246  22784086.8204   22784097.2704
      3333.8444       2597.7974
 97  9 18  1 23 29.9980000  0  7G 4G29G16G14G18G22G19
  23786791.0464   -9711418.38347  -7323130.21045  23786792.1244   23786801.9154
       735.7284        573.2984
  22181405.5234  -29022224.82448 -22296129.63646  22181406.7234   22181414.9724
     -1431.6854      -1115.5984
  20217432.3274  -32607860.02549 -25131263.43147  20217432.9404   20217442.1454
      1396.1694       1087.9244
  20320158.1444  -36106209.33849 -27888923.67347  20320158.8194   20320168.4064
     -1138.3744       -887.0434
  21547750.7274  -23976560.27548 -18658847.53047  21547751.3524   21547760.2044
      2877.7454       2242.3984
  21062405.2554  -21460509.05649 -16443274.67247  21062405.4434   21062413.9154
       195.1614        152.0714
  22765081.9024  -13832336.87648 -10468904.95446  22765082.2934   22765092.0994
      3323.1174       2589.4384
 97  9 18  1 23 59.9980000  0  7G 4G29G16G14G18G22G19
  23782629.8964   -9733278.17347  -7340163.80745  23782631.5614   23782641.8224
       720.5514        561.4654
  22189589.2104  -28979218.97648 -22262618.60046  22189590.2684   22189598.6874
     -1436.3414      -1119.2274
  20209501.9184  -32649534.48449 -25163737.02547  20209502.3344   20209511.6624
      1381.0894       1076.1724
  20326697.4454  -36071846.90249 -27862147.76347  20326698.0584   20326707.2344
     -1153.4314       -898.7774
  21531327.6574  -24062862.22348 -18726095.77047  21531328.3274   21531337.6274
      2874.8574       2240.1464
  21061345.6084  -21466077.67549 -16447613.83547  21061345.8224   21061354.3624
       175.1664        136.4924
  22746123.1804  -13931963.26248 -10546535.81146  22746123.6264   22746134.2644
      3317.6464       2585.1754
 97  9 18  1 24 29.9980000  0  7G 4G29G16G14G18G22G19
  23778564.6104   -9754647.76847  -7356815.42745  23778565.6424   23778575.5204
       703.9124        548.5064
  22197802.9704  -28936054.99048 -22228984.34246  22197803.7354   22197812.2834
     -1441.3714      -1123.1464
  20201664.9884  -32690716.21449 -25195826.66947  20201665.4334   20201675.0254
      1364.0594       1062.9034
  20333326.3754  -36037009.45649 -27835001.71147  20333327.1604   20333336.5244
     -1169.2224       -911.0834
  21514926.5074  -24149053.28148 -18793257.61047  21514927.1564   21514936.1964
      2871.0734       2237.1984
  21060404.8204  -21471021.94449 -16451466.49847  21060405.0124   21060413.5614
       154.3454        120.2684
  22727202.8934  -14031390.51348 -10624011.50246  22727203.4004   22727214.4734
      3310.6294       2579.7074
 97  9 18  1 24 59.9980000  0  7G 4G29G16G14G18G22G19
  23774597.0154   -9775498.83247  -7373062.98445  23774597.8124   23774608.7254
       685.0934        533.8394
  22206049.7974  -28892718.02848 -22195215.30046  22206050.8504   22206059.1054
     -1448.9884      -1129.0784
  20193931.5374  -32731359.28349 -25227496.57647  20193931.6394   20193941.0984
      1344.3994       1047.5834
  20340050.2624  -36001676.26749 -27807469.36947  20340051.0174   20340060.2284
     -1187.5684       -925.3774
  21498549.7544  -24235111.11348 -18860315.62747  21498550.4424   21498560.0284
      2864.9144       2232.3994
  21059585.9814  -21475324.29149 -16454818.96647  21059586.1144   21059594.8134
       131.3824        102.3754
  22708326.5574  -14130584.90348 -10701305.74246  22708327.3304   22708338.0164
      3301.1084       2572.2904
 97  9 18  1 25 29.9980000  0  7G 4G29G16G14G18G22G19
  23770736.8694   -9795779.34947  -7388865.97545  23770738.3164   23770748.1664
       666.5544        519.3944
  22214342.1134  -28849140.68648 -22161258.95146  22214343.1334   22214351.7154
     -1456.4774      -1134.9164
  20186311.2634  -32771400.35349 -25258697.39047  20186311.8384   20186321.4354
      1324.5874       1032.1444
  20346880.9154  -35965778.81749 -27779497.33747  20346881.8334   20346891.4274
     -1206.0454       -939.7764
  21482211.0944  -24320971.86048 -18927220.07547  21482211.9094   21482220.7064
      2858.8534       2227.6774
  21058899.4704  -21478933.28149 -16457631.14947  21058899.5504   21058908.0074
       108.8664         84.8294
  22689506.9204  -14229481.09948 -10778367.61946  22689507.6724   22689518.4694
      3291.5434       2564.8344
 97  9 18  1 25 59.9980000  0  7G 4G29G16G14G18G22G19
  23766972.2184   -9815564.62647  -7404283.07645  23766973.2514   23766982.6094
       651.1014        507.3494
  22222665.1724  -28805403.12548 -22127177.76246  22222666.2184   22222674.4164
     -1460.7394      -1138.2364
  20178793.0624  -32810909.53449 -25289483.75047  20178793.5384   20178803.0004
      1308.0874       1019.2884
  20353807.2104  -35929382.90349 -27751136.89747  20353807.8964   20353817.5004
     -1221.7704       -952.0294
  21465894.0384  -24406718.79048 -18994035.83647  21465894.7134   21465903.6304
      2856.2354       2225.6354
  21058328.4014  -21481932.38949 -16459968.09747  21058328.6924   21058337.3514
        89.7204         69.9094
  22670730.0094  -14328153.53748 -10855255.13646  22670730.8464   22670741.3634
      3285.2864       2559.9584
 97  9 18  1 26 29.9980000  0  7G 4G29G16G14G18G22G19
  23763302.2244   -9834852.77047  -7419312.79045  23763303.4284   23763312.7714
       635.7344        495.3764
  22231019.6714  -28761503.15348 -22092970.01346  22231020.2734   22231028.7414
     -1464.9174      -1141.4924
  20171373.8064  -32849898.24249 -25319864.55347  20171374.2184   20171383.5904
      1292.2084       1006.9154
  20360829.5394  -35892481.93349 -27722382.90547  20360830.1404   20360839.3814
     -1237.2134       -964.0614
  21449599.7654  -24492346.69148 -19060758.83147  21449600.0824   21449608.9534
      2853.2164       2223.2844
  21057873.2714  -21484326.38649 -16461833.53047  21057873.3144   21057882.0274
        70.9234         55.2654
  22651993.9854  -14426612.11848 -10931976.01546  22651994.8504   22652005.3054
      3279.7154       2555.6194
 97  9 18  1 26 59.9980000  0  7G 4G29G16G14G18G22G19
  23759726.0644   -9853645.21347  -7433956.24245  23759726.7644   23759736.3684
       617.8394        481.4384
  22239405.0484  -28717436.36248 -22058632.27646  22239405.7624   22239414.5924
     -1471.9734      -1146.9934
  20164051.3514  -32888380.44549 -25349850.67147  20164051.5364   20164060.9324
      1274.0254        992.7474
  20367946.8194  -35855078.78949 -27693237.61147  20367947.4414   20367956.7584
     -1255.5314       -978.3354
  21433329.9604  -24577841.15348 -19127377.85847  21433330.8754   21433339.9334
      2847.1594       2218.5644
  21057532.6334  -21486114.58749 -16463226.92247  21057532.8514   21057541.5834
        49.1514         38.2994
  22633295.3114  -14524873.64448 -11008543.34146  22633295.9754   22633307.0564
      3271.7724       2549.4324
 97  9 18  1 27 29.9980000  0  7G 4G29G16G14G18G22G19
  23756252.7554   -9871895.55347  -7448177.27245  23756254.1644   23756264.2774
       599.4334        467.0934
  22247827.7184  -28673171.89048 -22024140.49646  22247829.0584   22247837.9324
     -1478.3114      -1151.9304
  20156832.0714  -32926317.18149 -25379411.75347  20156832.5074   20156842.0674
      1255.6594        978.4354
  20375167.4354  -35817133.65449 -27663669.98847  20375168.2774   20375177.7144
     -1273.4944       -992.3324
  21417093.3164  -24663163.68948 -19193862.92547  21417094.2084   21417104.0274
      2841.6384       2214.2614
  21057315.0494  -21487258.53349 -16464118.29547  21057315.2354   21057323.6654
        27.6554         21.5484
  22614641.5604  -14622897.49548 -11084925.47046  22614642.5054   22614653.3734
      3263.7074       2543.1454
 97  9 18  1 27 59.9980000  0  7G 4G29G16G14G18G22G19
  23752888.0914   -9889576.48547  -7461954.61045  23752889.4274   23752900.2694
       581.3504        452.9964
  22256289.4044  -28628708.06548 -21989493.38046  22256290.1124   22256299.0274
     -1483.9974      -1156.3604
  20149720.0104  -32963690.19649 -25408533.57547  20149720.3754   20149729.9744
      1237.9284        964.6204
  20382493.0584  -35778638.11049 -27633673.47247  20382493.6454   20382503.0924
     -1290.8324      -1005.8434
  21400891.3254  -24748307.85248 -19260208.99047  21400891.7544   21400901.5134
      2836.5394       2210.2894
  21057222.9914  -21487740.83549 -16464494.10547  21057223.0804   21057231.7764
         6.5014          5.0664
  22596036.2034  -14720673.10048 -11161114.16046  22596036.7934   22596047.3854
      3256.5974       2537.6044
 97  9 18  1 28 29.9980000  0  7G 4G29G16G14G18G22G19
  23749618.8784   -9906757.28647  -7475342.24245  23749620.3414   23749630.1024
       563.9894        439.4744
  22264775.8304  -28584112.63048 -21954743.71546  22264776.5474   22264784.9924
     -1488.9574      -1160.2274
  20142702.1804  -33000568.44649 -25437269.86447  20142702.5024   20142712.1134
      1220.4704        951.0164
  20389908.5394  -35739668.78149 -27603307.77847  20389909.2104   20389918.6914
     -1306.9464      -1018.3994
  21384710.0684  -24833341.26048 -19326468.75847  21384710.7804   21384720.0434
      2832.5094       2207.1494
  21057243.7304  -21487633.48349 -16464410.44347  21057243.8434   21057252.3594
       -13.5304        -10.5444
  22577462.6194  -14818275.24448 -11237167.68046  22577463.3964   22577473.8834
      3250.0314       2532.4864
 97  9 18  1 28 59.9980000  0  7G 4G29G16G14G18G22G19
  23746457.2834   -9923373.15947  -7488289.65845  23746458.2114   23746468.5704
       541.4854        421.9364
  22273298.9784  -28539321.34848 -21919841.44246  22273300.0644   22273308.0164
     -1499.2534      -1168.2484
  20135796.1294  -33036860.59049 -25465549.44747  20135796.4864   20135805.9974
      1196.8204        932.5884
  20397425.3364  -35700168.60749 -27572528.43847  20397425.8944   20397435.2694
     -1328.5864      -1035.2634
  21368559.2524  -24918213.69148 -19392603.09147  21368560.1054   21368569.2334
      2823.4944       2200.1254
  21057386.0704  -21486884.41249 -16463826.74247  21057386.3354   21057394.5714
       -38.6364        -30.1074
  22558938.3884  -14915620.07348 -11313020.68546  22558939.3234   22558950.2044
      3237.2464       2522.5264
 97  9 18  1 29 29.9980000  0  7G 4G29G16G14G18G22G19
  23743393.8574   -9939472.04547  -7500834.24045  23743395.1804   23743405.0414
       527.8284        411.2894
  22281851.7874  -28494378.32348 -21884820.92646  22281852.5494   22281860.7204
     -1501.2084      -1169.7724
  20128994.7694  -33072604.40049 -25493401.76347  20128994.9874   20129004.4434
      1182.0754        921.0974
  20405034.0214  -35660184.87249 -27541372.30247  20405034.7744   20405044.0204
     -1341.1204      -1045.0284
  21352430.6244  -25002973.05048 -19458649.30547  21352431.2634   21352440.4754
      2822.8394       2199.6134
  21057641.0944  -21485544.91449 -16462782.96947  21057641.2164   21057649.5864
       -54.8424        -42.7324
  22540458.7694  -15012734.02648 -11388693.79646  22540459.5134   22540469.8134
      3233.0314       2519.2444
 97  9 18  1 29 59.9980000  0  7G 4G29G16G14G18G22G19
  23740429.9284   -9955048.88447  -7512972.02945  23740430.5384   23740440.8494
       511.0164        398.1954
  22290441.3004  -28449239.11748 -21849647.54146  22290442.5544   22290450.8064
     -1507.7494      -1174.8694
  20122298.6874  -33107790.51749 -25520819.51447  20122299.0524   20122308.6484
      1163.9694        906.9894
  20412737.1424  -35619703.12649 -27509828.10547  20412737.9824   20412747.5414
     -1357.1894      -1057.5494
  21336331.9144  -25087574.43448 -19524572.43247  21336332.5294   21336341.0794
      2817.6384       2195.5624
  21058012.7554  -21483592.33549 -16461261.46847  21058012.8094   21058021.3114
       -74.9184        -58.3784
  22522023.7454  -15109608.30448 -11464180.14546  22522024.4394   22522034.9674
      3225.5664       2513.4254
 97  9 18  1 30 29.9980000  0  7G 4G29G16G14G18G22G19
  23737553.2284   -9970163.89647  -7524749.97645  23737554.4614   23737563.2894
       495.2794        385.9324
  22299061.4884  -28403941.83548 -21814350.97746  22299062.0794   22299070.4804
     -1513.3034      -1179.1984
  20115699.3814  -33142467.94449 -25547840.88247  20115699.9304   20115709.7434
      1146.3834        893.2854
  20420522.5954  -35578792.67349 -27477949.84747  20420523.3544   20420532.5314
     -1371.4864      -1068.6894
  21320254.0194  -25172063.07748 -19590407.70547  21320254.6084   21320263.3994
      2813.5214       2192.3534
  21058489.8874  -21481084.32049 -16459307.15947  21058489.8914   21058498.5884
       -93.6934        -73.0084
  22503624.1184  -15206295.76448 -11539520.91746  22503625.2064   22503636.1504
      3218.8394       2508.1844
 97  9 18  1 30 59.9980000  0  7G 4G29G16G14G18G22G19
  23734779.5654   -9984740.53647  -7536108.38845  23734779.8074   23734790.1554
       478.1544        372.5864
  22307723.4244  -28358415.81948 -21778876.18546  22307724.7324   22307734.1744
     -1519.9774      -1184.3984
  20109214.1084  -33176550.27249 -25574398.54247  20109214.5384   20109224.0054
      1127.4614        878.5404
  20428402.0844  -35537385.73349 -27445684.71947  20428402.8044   20428411.8954
     -1387.4504      -1081.1284
  21304213.2814  -25256353.92148 -19656088.84647  21304214.2084   21304223.0984
      2807.4804       2187.6464
  21059087.4974  -21477943.22049 -16456859.53747  21059087.6484   21059096.2774
      -114.2194        -89.0034
  22485275.7884  -15302718.55948 -11614655.45046  22485276.4924   22485287.2344
      3210.9684       2502.0504
 97  9 18  1 31 29.9980000  0  7G 4G29G16G14G18G22G19
  23732095.5274   -9998843.26647  -7547097.53545  23732096.9614   23732106.3914
       462.3834        360.2944
  22316415.3654  -28312740.03148 -21743284.68446  22316416.5104   22316425.8014
     -1524.7294      -1188.0994
  20102827.3594  -33210113.06149 -25600551.36447  20102827.6684   20102837.1504
      1110.3814        865.2334
  20436364.0884  -35495544.91849 -27413081.50847  20436364.8074   20436373.9604
     -1401.6664      -1092.2064
  21288200.5764  -25340503.21448 -19721659.68747  21288201.4924   21288209.8534
      2802.9234       2184.0954
  21059795.0334  -21474226.43249 -16453963.32747  21059795.1454   21059803.8044
      -133.1404       -103.7464
  22466962.1184  -15398959.71548 -11689648.45346  22466962.6624   22466972.7134
      3205.5634       2497.8384
 97  9 18  1 31 59.9980000  0  7G 4G29G16G14G18G22G19
  23729510.2244  -10012430.44547  -7557684.95845  23729511.7354   23729521.1344
       440.9454        343.5964
  22325141.9024  -28266887.13548 -21707555.16846  22325142.6394   22325150.9284
     -1534.2224      -1195.4994
  20096546.6374  -33243119.02549 -25626270.29247  20096546.9084   20096556.4234
      1087.6694        847.5344
  20444416.4374  -35453228.52949 -27380107.71247  20444417.2204   20444426.8094
     -1421.7474      -1107.8554
  21272219.1454  -25424485.98248 -19787100.76847  21272219.7894   21272228.4684
      2793.8304       2177.0114
  21060617.8174  -21469901.39549 -16450593.15747  21060618.1024   21060626.6064
      -157.4894       -122.7194
  22448686.5794  -15494996.25548 -11764482.02246  22448687.5054   22448697.2234
      3194.3974       2489.1374
 97  9 18  1 32 29.9980000  0  7G 4G29G16G14G18G22G19
  23727037.8594  -10025424.28847  -7567810.03546  23727039.1524   23727048.8244
       424.2954        330.6214
  22333909.1784  -28220813.43248 -21671653.59946  22333910.2864   22333918.2744
     -1538.5104      -1198.8364
  20090386.4994  -33275490.08249 -25651494.49147  20090386.8214   20090396.3344
      1069.2524        833.1834
  20452574.0404  -35410361.86349 -27346705.13347  20452574.7404   20452583.9984
     -1437.3564      -1120.0184
  21256278.0204  -25508256.71648 -19852376.62347  21256278.7604   21256287.4884
      2789.5964       2173.7104
  21061569.4394  -21464901.24049 -16446696.91947  21061569.6084   21061578.1484
      -177.1134       -138.0124
  22430466.1904  -15590745.54548 -11839091.76146  22430466.6574   22430476.7214
      3187.6644       2483.8894
 97  9 18  1 32 59.9980000  0  7G 4G29G16G14G18G22G19
  23724666.7454  -10037883.18647  -7577518.27845  23724667.7424   23724677.6464
       408.9294        318.6464
  22342709.1704  -28174569.44248 -21635619.34346  22342710.1084   22342718.1644
     -1541.8804      -1201.4644
  20084336.9724  -33307279.69249 -25676265.60747  20084337.3664   20084346.9394
      1052.7374        820.3154
  20460830.8664  -35366972.47649 -27312895.24147  20460831.5224   20460840.8704
     -1452.6804      -1131.9594
  21240369.3104  -25591855.46348 -19917518.46947  21240370.1414   21240379.2684
      2786.1894       2171.0554
  21062641.6574  -21459267.03049 -16442306.61647  21062641.8274   21062650.1204
      -195.9174       -152.6624
  22412291.2844  -15686255.25348 -11913514.81346  22412291.9294   22412301.8584
      3182.1664       2479.6074
 97  9 18  1 33 29.9980000  0  7G 4G29G16G14G18G22G19
  23722384.2404  -10049874.05247  -7586861.80545  23722385.5674   23722396.0954
       391.3824        304.9774
  22351532.7504  -28128200.74048 -21599487.90046  22351533.9284   22351541.5984
     -1548.5874      -1206.6914
  20078384.1044  -33338561.09149 -25700640.71747  20078384.7684   20078394.3464
      1033.7354        805.5084
  20469176.8074  -35323112.50249 -27278718.66247  20469177.5154   20469187.0364
     -1470.3644      -1145.7384
  21224484.8914  -25675330.68248 -19982564.06447  21224485.4514   21224494.3714
      2779.7864       2166.0674
  21063825.0084  -21453048.28449 -16437460.83047  21063825.0304   21063833.4314
      -217.6874       -169.6264
  22394151.3874  -15781579.13148 -11987793.07446  22394152.2914   22394162.6474
      3173.6674       2472.9854
 97  9 18  1 33 59.9980000  0  7G 4G29G16G14G18G22G19
  23720192.3874  -10061391.70947  -7595836.60545  23720193.5744   23720204.0184
       375.9244        292.9254
  22360387.1534  -28081671.03048 -21563230.99546  22360388.1254   22360395.9394
     -1553.8784      -1210.8154
  20072529.5244  -33369326.48649 -25724613.74847  20072530.0814   20072539.9174
      1016.7104        792.2414
  20477614.7724  -35278770.11649 -27244166.17147  20477615.5284   20477625.0394
     -1486.2564      -1158.1214
  21208626.6134  -25758665.02848 -20047499.88747  21208627.3284   21208636.2814
      2775.2994       2162.5704
  21065123.0004  -21446225.08049 -16432144.03447  21065123.2374   21065132.2174
      -237.7844       -185.2874
  22376052.2764  -15876691.47748 -12061906.49746  22376052.9444   22376063.3554
      3166.6024       2467.4784
 97  9 18  1 34 29.9980000  0  7G 4G29G16G14G18G22G19
  23718103.0474  -10072376.47947  -7604396.16346  23718103.7874   23718114.3184
       360.1004        280.5994
  22369285.8024  -28034907.52948 -21526791.91246  22369286.6554   22369295.1374
     -1559.9284      -1215.5294
  20066786.3764  -33399507.04949 -25748131.06447  20066786.8234   20066796.6324
       999.1074        778.5244
  20486156.2424  -35233884.48449 -27209190.37747  20486157.0804   20486166.5154
     -1502.3684      -1170.6764
  21192809.3914  -25841785.87148 -20112269.35047  21192809.9284   21192818.9484
      2769.8564       2158.3284
  21066550.1634  -21438726.83849 -16426301.24647  21066550.2944   21066559.2704
      -258.3094       -201.2804
  22358005.3864  -15971527.49248 -12135804.59746  22358006.0914   22358016.2604
      3159.5334       2461.9704
 97  9 18  1 34 59.9980000  0  7G 4G29G16G14G18G22G19
  23716103.8684  -10082884.98747  -7612584.60946  23716104.7794   23716114.5714
       342.0844        266.5574
  22378217.6224  -27987972.70848 -21490219.33046  22378218.5584   22378227.0804
     -1567.1724      -1221.1734
  20061141.6314  -33429171.67349 -25771246.34847  20061142.0554   20061151.4734
       980.2884        763.8614
  20494787.3274  -35188527.74849 -27173847.49147  20494788.2684   20494797.6034
     -1519.5484      -1184.0624
  21177021.2264  -25924750.49448 -20176917.08247  21177022.1244   21177031.4504
      2763.0144       2152.9984
  21068091.8434  -21430623.05549 -16419986.60247  21068092.3704   21068100.8944
      -280.1924       -218.3324
  22339998.1044  -16066157.50848 -12209542.18946  22339998.7064   22340008.2124
      3150.8644       2455.2164
 97  9 18  1 35 29.9980000  0  7G 4G29G16G14G18G22G19
  23714194.7634  -10092908.26947  -7620394.96345  23714196.2414   23714207.2594
       326.7404        254.6024
  22387178.2884  -27940885.58848 -21453528.09046  22387179.0684   22387187.0994
     -1571.1754      -1224.2944
  20055594.8774  -33458321.03049 -25793960.12947  20055595.3084   20055604.3754
       963.7114        750.9444
  20503504.7114  -35142718.11049 -27138151.69447  20503505.2934   20503514.7534
     -1533.7174      -1195.1034
  21161260.5614  -26007574.44048 -20241455.18747  21161261.3484   21161270.5054
      2759.4164       2150.1924
  21069747.3654  -21421924.74849 -16413208.69447  21069747.6564   21069756.2984
      -298.8484       -232.8684
  22322028.5014  -16160587.06648 -12283123.57946  22322029.3674   22322039.3104
      3145.2464       2450.8374
 97  9 18  1 35 59.9980000  0  7G 4G29G16G14G18G22G19
  23712384.7444  -10102422.23247  -7627808.45445  23712386.1724   23712396.2944
       309.7284        241.3444
  22396168.3054  -27893639.41648 -21416712.91646  22396169.5344   22396177.5004
     -1576.1424      -1228.1624
  20050150.3094  -33486931.77849 -25816254.21247  20050150.6744   20050160.3584
       945.8714        737.0414
  20512311.7494  -35096435.65949 -27102087.46447  20512312.7134   20512321.9594
     -1549.3124      -1207.2574
  21145527.0614  -26090254.41548 -20305881.10947  21145527.7354   21145537.0344
      2754.8764       2146.6544
  21071516.2654  -21412631.04149 -16405966.83647  21071516.2784   21071525.1524
      -318.3654       -248.0774
  22304097.6714  -16254812.53348 -12356545.93646  22304098.4014   22304108.7954
      3138.6324       2445.6854
 97  9 18  1 36 29.9980000  0  7G 4G29G16G14G18G22G19
  23710673.7794  -10111415.29247  -7634816.04545  23710675.0374   23710685.3624
       292.0684        227.5844
  22405188.4744  -27846240.72348 -21379778.88346  22405189.4004   22405197.7994
     -1581.7584      -1232.5374
  20044810.2454  -33514993.99749 -25838120.86447  20044810.6834   20044820.3024
       927.1524        722.4564
  20521208.8134  -35049682.94049 -27065656.79147  20521209.5364   20521218.5864
     -1565.3764      -1219.7734
  21129821.1784  -26172788.95148 -20370193.71347  21129822.1894   21129830.6604
      2749.5544       2142.5094
  21073398.2884  -21402740.15249 -16398259.64147  21073398.2654   21073407.0784
      -338.7454       -263.9584
  22286207.3944  -16348828.05948 -12429804.71546  22286208.2864   22286218.2764
      3131.1314       2439.8404
 97  9 18  1 36 59.9980000  0  7G 4G29G16G14G18G22G19
  23709058.1334  -10119910.22747  -7641435.49645  23709058.9344   23709068.8184
       274.9144        214.2194
  22414237.8464  -27798688.59248 -21342725.29146  22414238.6974   22414246.8924
     -1587.8844      -1237.3104
  20039572.0344  -33542522.81649 -25859571.88347  20039572.4054   20039581.5044
       908.5474        707.9594
  20530192.0604  -35002476.69549 -27028872.72547  20530192.8114   20530201.3354
     -1581.2124      -1232.1124
  21114142.3124  -26255185.44548 -20434398.74747  21114142.8534   21114151.1024
      2744.0674       2138.2334
  21075391.2374  -21392265.33849 -16390097.44147  21075391.2474   21075400.2324
      -359.0734       -279.7964
  22268356.4544  -16442638.00148 -12502903.30846  22268356.9064   22268366.6564
      3123.3254       2433.7594
 97  9 18  1 37 29.9980000  0  7G 4G29G16G14G18G22G19
  23707536.2664  -10127902.13047  -7647662.93345  23707537.3724   23707547.4324
       258.1824        201.1784
  22423323.5364  -27750939.54348 -21305518.26846  22423324.3294   22423332.8724
     -1595.1124      -1242.9404
  20034440.6404  -33569486.26249 -25880582.36047  20034441.2084   20034450.6264
       889.3894        693.0304
  20539266.2264  -34954791.83249 -26991715.71247  20539266.8794   20539275.4864
     -1597.3454      -1244.6854
  21098493.6104  -26337418.20748 -20498476.19847  21098494.2434   21098502.5184
      2738.3824       2133.8034
  21077500.5394  -21381182.49649 -16381461.45347  21077500.5594   21077508.6474
      -379.2894       -295.5514
  22250549.8384  -16536209.61148 -12575816.18346  22250550.6334   22250560.6624
      3115.0794       2427.3334
 97  9 18  1 37 59.9980000  0  7G 4G29G16G14G18G22G19
  23706108.9824  -10135397.88747  -7653503.77545  23706110.3574   23706121.6154
       241.7914        188.4054
  22432451.8454  -27702968.13548 -21268137.96946  22432452.9134   22432461.8514
     -1602.6534      -1248.8164
  20029417.6384  -33595882.22249 -25901150.63547  20029418.1994   20029427.5824
       870.5014        678.3134
  20548430.4914  -34906632.35749 -26954188.86347  20548431.2414   20548439.8604
     -1612.8954      -1256.8004
  21082877.4804  -26419480.79848 -20562421.04847  21082878.3724   21082886.7554
      2732.6224       2129.3154
  21079723.0864  -21369500.20649 -16372358.35847  21079723.3374   21079732.0804
      -399.2234       -311.0834
  22232791.0354  -16629532.40848 -12648535.18746  22232791.7014   22232801.5094
      3106.4164       2420.5824
 97  9 18  1 38 29.9980000  0  7G 4G29G16G14G18G22G19
  23704779.7044  -10142384.25447  -7658947.70645  23704781.0394   23704791.5924
       224.9674        175.2994
  22441627.6644  -27654750.00148 -21230565.41446  22441628.4404   22441637.6624
     -1610.8724      -1255.2234
  20024508.3774  -33621683.40549 -25921255.45047  20024508.5054   20024517.8064
       850.7044        662.8854
  20557686.6644  -34857990.66349 -26916286.25747  20557687.4134   20557696.3154
     -1629.0314      -1269.3754
  21067297.6664  -26501350.80048 -20626215.82947  21067298.4874   21067307.2864
      2726.2764       2124.3704
  21082063.2094  -21357203.18049 -16362776.25047  21082063.5804   21082072.1074
      -419.5224       -326.9024
  22215086.5954  -16722567.65048 -12721030.12746  22215087.4944   22215097.1904
      3096.9764       2413.2264
 97  9 18  1 38 59.9980000  0  7G 4G29G16G14G18G22G19
  23703543.8904  -10148882.71847  -7664011.46145  23703544.9144   23703555.8114
       204.7074        159.5124
  22450844.2454  -27606316.20348 -21192824.81746  22450845.5494   22450854.1994
     -1621.3184      -1263.3624
  20019706.3134  -33646914.23249 -25940915.83047  20019706.8124   20019716.4974
       827.7904        645.0304
  20567031.1754  -34808883.49449 -26878020.94847  20567031.9174   20567041.0804
     -1648.3604      -1284.4354
  21051752.1994  -26583043.09248 -20689872.12647  21051753.0764   21051761.9764
      2716.4524       2116.7174
  21084514.9704  -21344320.37849 -16352737.69147  21084515.0794   21084523.6814
      -442.9324       -345.1424
  22197432.5264  -16815340.43748 -12793320.56246  22197433.3864   22197443.0554
      3084.3114       2403.3604
 97  9 18  1 39 29.9980000  0  7G 4G29G16G14G18G22G19
  23702413.8574  -10154825.08747  -7668641.88045  23702414.6714   23702424.9704
       191.7794        149.4384
  22460108.9784  -27557630.39748 -21154887.84946  22460110.1304   22460118.6714
     -1623.7624      -1265.2674
  20015026.4754  -33671509.12249 -25960080.67247  20015026.6794   20015036.2084
       812.4554        633.0824
  20576476.8934  -34759245.50949 -26839342.01847  20576477.7104   20576486.8444
     -1660.2784      -1293.7214
  21036251.8724  -26664498.74248 -20753344.04747  21036252.6894   21036261.3324
      2714.3764       2115.0974
  21087089.6984  -21330788.46249 -16342193.32847  21087089.9874   21087098.5464
      -458.7664       -357.4794
  22179839.6954  -16907790.71848 -12865359.68746  22179840.5234   22179850.2004
      3079.5474       2399.6474
 97  9 18  1 39 59.9980000  0  7G 4G29G16G14G18G22G19
  23701364.8084  -10160331.32747  -7672932.45145  23701366.0144   23701376.6204
       175.4144        136.6874
  22469392.9424  -27508843.30348 -21116871.95046  22469393.8244   22469402.3474
     -1628.4004      -1268.8824
  20010440.4694  -33695608.59649 -25978859.47247  20010440.7824   20010450.2784
       794.2294        618.8794
  20585998.1124  -34709211.59449 -26800354.56947  20585999.0354   20586008.2984
     -1675.2004      -1305.3514
  21020770.9714  -26745850.52248 -20816735.02547  21020771.7604   21020780.6144
      2709.2054       2111.0684
  21089765.9874  -21316725.40749 -16331235.09347  21089766.1924   21089774.6864
      -478.7094       -373.0214
  22162280.5004  -17000066.44348 -12937262.80046  22162281.1304   22162290.8904
      3072.2714       2393.9764
 97  9 18  1 40 29.9980000  0  7G 4G29G16G14G18G22G19
  23700412.2744  -10165343.04247  -7676837.69745  23700412.8114   23700422.6944
       156.5224        121.9684
  22478701.1004  -27459927.37848 -21078755.66346  22478701.9234   22478710.7434
     -1634.9114      -1273.9534
  20005957.7214  -33719163.48049 -25997213.92547  20005958.1494   20005967.8064
       773.8854        603.0274
  20595604.9144  -34658728.72249 -26761017.28247  20595605.6954   20595615.0494
     -1692.5444      -1318.8654
  21005319.6754  -26827050.77748 -20880007.93347  21005320.2994   21005328.8184
      2701.8314       2105.3224
  21092557.0224  -21302057.34649 -16319805.43147  21092557.4754   21092565.9394
      -501.4644       -390.7524
  22144760.0744  -17092135.20648 -13009004.64146  22144760.8544   22144770.4864
      3063.5384       2387.1704
 97  9 18  1 40 59.9980000  0  7G 4G29G16G14G18G22G19
  23699559.8264  -10169820.53947  -7680326.67945  23699560.8634   23699570.1044
       140.9754        109.8514
  22488041.5104  -27410844.36548 -21040509.17546  22488042.2304   22488050.9334
     -1638.3834      -1276.6614
  20001586.3714  -33742136.23949 -26015114.77147  20001586.8774   20001596.2814
       756.5824        589.5454
  20605304.1934  -34607757.66249 -26721299.58847  20605304.9244   20605314.9204
     -1706.5294      -1329.7614
  20989904.8994  -26908054.93148 -20943128.03147  20989905.6354   20989914.2244
      2697.4374       2101.8994
  21095473.7544  -21286730.97849 -16307862.79547  21095473.9744   21095482.3944
      -521.2884       -406.1984
  22127283.5314  -17183978.01048 -13080570.41846  22127284.0314   22127293.1324
      3058.1444       2382.9694
 97  9 18  1 41 29.9980000  0  7G 4G29G16G14G18G22G19
  23698801.3114  -10173807.25447  -7683433.22645  23698801.7834   23698811.1204
       123.9834         96.6114
  22497407.8264  -27361622.01148 -21002154.11946  22497409.0644   22497417.7844
     -1643.9854      -1281.0264
  19997318.6084  -33764564.54349 -26032591.36447  19997319.0194   19997328.4634
       737.7544        574.8744
  20615088.8464  -34556341.35249 -26681234.94747  20615089.3694   20615099.1874
     -1721.9594      -1341.7864
  20974519.3974  -26988905.28648 -21006128.28447  20974520.0174   20974529.0164
      2691.6974       2097.4254
  21098506.1114  -21270795.07649 -16295445.19447  21098506.3774   21098515.2094
      -541.8744       -422.2384
  22109840.1804  -17275639.93148 -13151995.24646  22109841.0214   22109850.6794
      3051.6474       2377.9054
 97  9 18  1 41 59.9980000  0  7G 4G29G16G14G18G22G19
  23698137.8864  -10177287.43647  -7686145.07145  23698139.7804   23698148.8634
       109.2054         85.0964
  22506806.7184  -27312231.24148 -20963667.82446  22506807.7534   22506816.2554
     -1647.7124      -1283.9304
  19993158.1994  -33786426.37049 -26049626.54847  19993158.6034   19993168.3234
       720.6524        561.5484
  20624959.4134  -34504471.32649 -26640816.76447  20624960.1334   20624969.6894
     -1735.0754      -1352.0064
  20959167.2494  -27069582.66248 -21068993.74847  20959167.7544   20959176.5844
      2687.8734       2094.4454
  21101654.1554  -21254251.10149 -16282553.77547  21101654.5114   21101663.0854
      -559.8214       -436.2254
  22092434.7824  -17367107.06348 -13223268.27646  22092435.5314   22092445.4614
      3046.8964       2374.2044
 97  9 18  1 42 29.9980000  0  7G 4G29G16G14G18G22G19
  23697572.6524  -10180256.23347  -7688458.43545  23697574.8054   23697583.7404
        90.5354         70.5434
  22516242.7574  -27262646.47048 -20925030.36346  22516243.9044   22516251.8004
     -1656.4184      -1290.7134
  19989111.3334  -33807691.50549 -26066196.78047  19989111.8864   19989121.3954
       698.5874        544.3544
  20634920.9094  -34452121.95949 -26600025.07147  20634921.6774   20634931.2394
     -1753.2444      -1366.1634
  20943852.1874  -27150062.73648 -21131705.47047  20943852.9604   20943861.5214
      2678.9274       2087.4774
  21104916.6094  -21237109.51149 -16269196.67647  21104916.7024   21104925.3354
      -581.2954       -452.9594
  22075074.7164  -17458335.66248 -13294355.43746  22075075.5354   22075084.9194
      3036.5224       2366.1184
 97  9 18  1 42 59.9980000  0  7G 4G29G16G14G18G22G19
  23697097.3494  -10182759.74347  -7690409.23345  23697098.4724   23697108.4614
        75.8374         59.0964
  22525713.5094  -27212878.58148 -20886250.20846  22525714.5754   22525722.4514
     -1661.7254      -1294.8514
  19985174.8994  -33828377.76449 -26082315.93847  19985175.3294   19985184.9324
       680.1674        530.0014
  20644969.8734  -34399312.74849 -26558875.05547  20644970.7124   20644980.5934
     -1767.7664      -1377.4794
  20928572.5104  -27230358.33648 -21194273.44647  20928573.0674   20928581.6884
      2673.7314       2083.4264
  21108282.2874  -21219421.07649 -16255413.46347  21108282.5684   21108291.1164
      -598.3224       -466.2254
  22057759.4424  -17549327.54648 -13365258.15346  22057760.0454   22057769.9114
      3029.0094       2360.2674
 97  9 18  1 43 29.9980000  0  7G 4G29G16G14G18G22G19
  23696710.1104  -10184798.89447  -7691998.18445  23696710.9994   23696720.6564
        60.6154         47.2324
  22535218.5744  -27162927.68148 -20847327.44046  22535219.2704   22535227.7944
     -1667.8854      -1299.6504
  19981349.0664  -33848485.22949 -26097984.09347  19981349.4034   19981358.9974
       660.7574        514.8754
  20655106.6244  -34346044.02149 -26517366.97747  20655107.6324   20655117.3764
     -1782.9494      -1389.3094
  20913326.1374  -27310476.12848 -21256702.86447  20913326.9584   20913336.1264
      2667.9144       2078.8944
  21111748.6334  -21201203.94749 -16241218.28947  21111748.8524   21111757.9794
      -615.9174       -479.9354
  22040492.7354  -17640065.08948 -13435962.67646  22040493.3644   22040503.4234
      3020.4844       2353.6224
 97  9 18  1 43 59.9980000  0  7G 4G29G16G14G18G22G19
  23696409.9674  -10186366.38447  -7693219.60545  23696411.9534   23696422.5684
        41.0094         31.9574
  22544760.8074  -27112779.21748 -20808250.72746  22544761.8064   22544771.3164
     -1678.2464      -1307.7254
  19977635.5034  -33867998.53349 -26113189.26947  19977635.8504   19977646.0184
       637.3894        496.6664
  20665332.0024  -34292313.29149 -26475498.90047  20665332.4724   20665341.8404
     -1802.0534      -1404.1974
  20898116.3484  -27390402.89648 -21318983.43247  20898117.1424   20898126.5864
      2657.5854       2070.8444
  21115322.0314  -21182427.78049 -16226587.49747  21115322.3084   21115330.9954
      -638.8484       -497.8054
  22023278.2344  -17730524.91248 -13506450.79146  22023278.9684   22023289.2354
      3007.2824       2343.3344
 97  9 18  1 44 29.9980000  0  7G 4G29G16G14G18G22G19
  23696214.5144  -10187404.88347  -7694028.82945  23696215.4514   23696225.0194
        25.7434         20.0574
  22554353.6164  -27062370.93748 -20768971.56146  22554354.5064   22554363.6034
     -1684.6844      -1312.7414
  19974043.6174  -33886874.31049 -26127897.66247  19974043.8894   19974053.7634
       618.6774        482.0864
  20675654.3614  -34238067.01649 -26433229.09347  20675655.0774   20675664.0794
     -1816.5634      -1415.5034
  20882957.0714  -27470068.66648 -21381060.62747  20882957.8984   20882966.8694
      2651.0754       2065.7714
  21119016.8764  -21163012.48749 -16211458.67947  21119017.0084   21119025.3944
      -658.0984       -512.8064
  22006128.2594  -17820647.92048 -13576676.45346  22006129.0904   22006139.4264
      2998.6064       2336.5734
 97  9 18  1 44 59.9980000  0  7G 4G29G16G14G18G22G19
  23696098.3734  -10188008.24747  -7694499.01445  23696099.4674   23696110.3174
        14.2674         11.1214
  22563976.8374  -27011803.69548 -20729568.53946  22563977.3754   22563986.0544
     -1686.4834      -1314.1404
  19970551.2044  -33905226.86049 -26142198.35547  19970551.6394   19970561.2504
       604.8064        471.2784
  20686051.0774  -34183430.78449 -26390655.42047  20686052.0484   20686061.1424
     -1826.0174      -1422.8694
  20867825.7654  -27549584.25548 -21443020.80147  20867826.4264   20867835.1094
      2649.9984       2064.9344
  21122815.0544  -21143051.82549 -16195904.90247  21122815.3224   21122824.0254
      -672.8424       -524.2924
  21989019.7614  -17910555.79348 -13646734.47246  21989020.3294   21989030.3334
      2995.2194       2333.9354
 97  9 18  1 45 29.9980000  0  7G 4G29G16G14G18G22G19
  23696084.6834  -10188083.47647  -7694557.64545  23696085.3684   23696095.6704
        -5.7244         -4.4614
  22573643.7764  -26961000.11848 -20689981.34746  22573644.7964   22573653.3804
     -1696.9314      -1322.2864
  19967173.3794  -33922978.87249 -26156031.10247  19967173.8884   19967183.2664
       582.1014        453.5864
  20696536.6584  -34128329.79149 -26347719.60247  20696537.3754   20696547.0484
     -1844.0234      -1436.9014
  20852735.2334  -27628885.63548 -21504814.04647  20852735.8894   20852744.3814
      2640.1554       2057.2624
  21126734.2144  -21122455.00949 -16179855.42847  21126734.4354   21126743.6984
      -696.8914       -543.0324
  21971964.5554  -18000180.77848 -13716572.06146  21971965.2494   21971974.9794
      2983.3364       2324.6754
 97  9 18  1 45 59.9980000  0  7G 4G29G16G14G18G22G19
  23696170.4794  -10187635.81047  -7694208.82945  23696171.3734   23696180.3934
       -20.5074        -15.9784
  22583353.8534  -26909973.85348 -20650220.64546  22583354.6374   22583363.8874
     -1701.3324      -1325.7134
  19963908.3384  -33940136.54849 -26169400.72447  19963908.7224   19963918.5674
       565.2844        440.4814
  20707109.2044  -34072770.27049 -26304426.49547  20707110.0074   20707119.6114
     -1856.6184      -1446.7154
  20837686.5524  -27707966.12248 -21566435.16847  20837687.1954   20837695.3114
      2635.3754       2053.5374
  21130776.5834  -21101212.54049 -16163302.84747  21130776.7424   21130785.6334
      -715.4864       -557.5224
  21954959.2074  -18089541.81448 -13786203.97346  21954960.0184   21954969.9424
      2977.5574       2320.1734
 97  9 18  1 46 29.9980000  0  7G 4G29G16G14G18G22G19
  23696329.4604  -10186796.66047  -7693554.97445  23696330.3934   23696340.6214
       -36.4194        -28.3804
  22593080.2254  -26858858.29648 -20610390.36546  22593081.5024   22593090.1644
     -1707.2614      -1330.3324
  19960732.3094  -33956824.93349 -26182404.66647  19960732.8164   19960742.5864
       546.1944        425.6064
  20717747.8144  -34016865.08749 -26260864.03647  20717748.6594   20717757.9974
     -1871.3224      -1458.1734
  20822656.3484  -27786951.41548 -21627982.11047  20822656.9554   20822664.8724
      2629.4764       2048.9414
  21134913.4844  -21079472.14449 -16146362.26947  21134913.7794   21134922.3784
      -734.7084       -572.5004
  21937980.2534  -18178768.86748 -13855731.47746  21937981.0494   21937990.8274
      2969.9824       2314.2694
 97  9 18  1 46 59.9980000  0  7G 4G29G16G14G18G22G19
  23696588.6104  -10185427.81847  -7692488.35145  23696590.5284   23696601.3594
       -54.0404        -42.1064
  22602850.0984  -26807523.75348 -20570389.43846  22602850.7784   22602859.3234
     -1714.3244      -1335.8364
  19957677.5064  -33972879.26549 -26194914.54447  19957677.8334   19957687.4594
       524.8434        408.9684
  20728481.7544  -33960459.03449 -26216911.29447  20728482.5084   20728491.6434
     -1888.4184      -1471.4954
  20807666.5454  -27865721.58448 -21689361.42847  20807667.2644   20807675.7634
      2622.3814       2043.4124
  21139168.7134  -21057108.61048 -16128936.14047  21139169.1674   21139178.2434
      -755.5754       -588.7584
  21921053.0734  -18267723.11148 -13925046.41346  21921053.8074   21921063.5414
      2960.9124       2307.2014
 97  9 18  1 47 29.9980000  0  7G 4G29G16G14G18G22G19
  23696933.8734  -10183620.41047  -7691079.98045  23696935.1274   23696945.9264
       -68.7724        -53.5914
  22612642.9294  -26756057.77848 -20530286.10146  22612644.0314   22612653.2044
     -1718.9464      -1339.4404
  19954728.7094  -33988374.03249 -26206988.40047  19954729.0344   19954739.0544
       505.8434        394.1644
  20739296.8544  -33903624.41149 -26172624.59647  20739297.5934   20739306.7434
     -1902.7414      -1482.6554
  20792705.9294  -27944340.10248 -21750622.56647  20792706.6984   20792714.9244
      2616.4564       2038.7954
  21143530.1024  -21034192.78348 -16111079.65147  21143530.2574   21143538.6014
      -774.3714       -603.4074
  21904162.4974  -18356481.01948 -13994208.35046  21904163.1374   21904173.2644
      2953.9534       2301.7794
 97  9 18  1 47 59.9980000  0  7G 4G29G16G14G18G22G19
  23697364.7524  -10181355.83247  -7689315.39345  23697365.5434   23697376.1024
       -84.0794        -65.5114
  22622464.1434  -26704447.23648 -20490070.10446  22622465.0994   22622474.1324
     -1723.7964      -1343.2194
  19951890.4164  -34003290.55949 -26218611.67747  19951890.7224   19951900.5134
       486.6624        379.2184
  20750194.7144  -33846356.44849 -26128000.22947  20750195.4324   20750204.4844
     -1917.0174      -1493.7784
  20777782.5824  -28022762.77948 -21811731.11447  20777783.2934   20777791.7514
      2609.8004       2033.6104
  21147999.1484  -21010708.58749 -16092780.26347  21147999.2874   21148007.6584
      -793.0224       -617.9394
  21887313.7414  -18445021.45848 -14063200.83746  21887314.5744   21887324.5844
      2946.5844       2296.0394
 97  9 18  1 48 29.9980000  0  8G 4G29G16G14G18G22G13G19
  23697895.1264  -10178564.69747  -7687140.51545  23697896.4964   23697907.4994
      -101.8164        -79.3384
  22632328.5644  -26652609.05448 -20449676.74046  22632329.9824   22632338.6844
     -1731.7234      -1349.3954
  19949174.6864  -34017559.78949 -26229730.56647  19949175.0914   19949184.9544
       465.0414        362.3694
  20761187.4634  -33788588.77549 -26082986.47747  20761188.1404   20761197.6074
     -1933.6294      -1506.7234
  20762910.3554  -28100916.35648 -21872629.97347  20762910.9394   20762919.4384
      2600.7404       2026.5494
  21152587.4224  -20986596.23049 -16073991.39747  21152587.5874   21152596.4624
      -814.3784       -634.5814
  24253858.0424   -2995152.85957  -2065425.63745  24253859.0724   24253869.5144
      3436.4904       2677.7774
  21870522.6574  -18533259.28648 -14131957.52346  21870523.0804   21870533.6034
      2936.3024       2288.0244
 97  9 18  1 48 59.9980000  0  8G 4G29G16G14G18G22G13G19
  23698508.2144  -10175348.83647  -7684634.67045  23698509.3174   23698519.1334
      -114.6374        -89.3284
  22642217.7704  -26600643.48948 -20409184.11346  22642218.8124   22642227.0374
     -1734.8054      -1351.7974
  19946559.8534  -34031302.81549 -26240439.42447  19946560.1044   19946569.8384
       449.1194        349.9634
  20772251.7224  -33730444.12749 -26037678.98247  20772252.5164   20772262.4144
     -1944.7784      -1515.4104
  20748069.5454  -28178903.03948 -21933398.78447  20748070.2854   20748078.9994
      2596.2034       2023.0144
  21157279.1924  -20961941.18749 -16054779.66747  21157279.2154   21157288.1784
      -831.4494       -647.8854
  24234222.7164   -3098342.09947  -2145832.74545  24234224.2814   24234232.0814
      3440.6364       2681.0114
  21853767.5574  -18621305.31948 -14200564.75846  21853768.3224   21853778.8954
      2931.1424       2284.0034
 97  9 18  1 49 29.9980000  0  8G 4G29G16G14G18G22G13G19
  23699212.0964  -10171654.57147  -7681756.02345  23699212.7234   23699223.1754
      -129.6514       -101.0254
  22652141.2284  -26548500.14348 -20368552.95446  22652141.8144   22652149.8684
     -1739.3744      -1355.3574
  19944050.5864  -34044490.53749 -26250715.58347  19944050.8814   19944060.5244
       431.9354        336.5734
  20783395.0154  -33671884.88449 -25992048.42747  20783395.9814   20783405.9414
     -1957.3874      -1525.2364
  20733273.4864  -28256661.00749 -21993989.37947  20733274.1444   20733282.6784
      2589.8774       2018.0864
  21162084.0804  -20936692.32649 -16035105.21947  21162084.1154   21162092.4234
      -849.7734       -662.1624
  24214579.6174   -3201564.47247  -2226265.69145  24214581.5994   24214590.5374
      3442.9284       2682.8044
  21837058.9164  -18709107.87848 -14268982.27546  21837059.8124   21837070.0044
      2924.1974       2278.5924
 97  9 18  1 49 59.9980000  0  8G 4G29G16G14G18G22G13G19
  23700001.2874  -10167503.35147  -7678521.32645  23700002.0204   23700012.3584
      -146.4214       -114.0934
  22662092.8864  -26496199.93748 -20327799.57946  22662093.8364   22662102.2734
     -1746.6984      -1361.0634
  19941640.8074  -34057154.07949 -26260583.28947  19941641.1424   19941650.8514
       412.8054        321.6674
  20794615.0794  -33612922.45549 -25946103.69347  20794616.0914   20794625.6534
     -1972.9524      -1537.3644
  20718511.2254  -28334235.58349 -22054437.07847  20718511.8804   20718520.6504
      2582.3844       2012.2474
  21166994.8364  -20910886.29749 -16014996.61047  21166994.8334   21167003.2364
      -869.9804       -677.9084
  24194928.0004   -3304839.30047  -2306739.47345  24194927.7494   24194937.8664
      3442.7424       2682.6504
  21820392.9594  -18796691.83148 -14337229.45046  21820393.6294   21820403.2484
      2915.0774       2271.4874
 97  9 18  1 50 29.9980000  0  8G 4G29G16G14G18G22G13G19
  23700881.1574  -10162874.85547  -7674914.73645  23700882.4944   23700891.6944
      -162.7924       -126.8504
  22672084.0814  -26443696.19248 -20286887.60146  22672084.8654   22672093.0754
     -1754.1034      -1366.8294
  19939337.4844  -34069258.33749 -26270015.19047  19939337.7424   19939347.2284
       393.3754        306.5244
  20805922.3684  -33553504.66249 -25899804.13747  20805922.9994   20805932.9694
     -1988.8204      -1549.7304
  20703786.5464  -28411614.28949 -22114732.14847  20703787.1714   20703796.1644
      2575.5834       2006.9474
  21172017.6054  -20884488.15849 -15994426.62747  21172017.8164   21172027.0244
      -890.5954       -693.9704
  24175272.3774   -3408126.82047  -2387223.20045  24175273.5894   24175284.1614
      3442.2784       2682.2854
  21803775.9404  -18884013.95948 -14405272.60347  21803776.7064   21803786.3224
      2905.8164       2264.2684
 97  9 18  1 50 59.9980000  0  8G 4G29G16G14G18G22G13G19
  23701854.8804  -10157757.35847  -7670927.08645  23701856.3304   23701865.9354
      -182.0664       -141.8694
  22682114.4034  -26390985.83448 -20245814.62346  22682115.0184   22682124.0764
     -1763.6744      -1374.2904
  19937145.5124  -34080774.88049 -26278989.12347  19937145.9924   19937155.5034
       370.5924        288.7734
  20817319.2664  -33493614.60349 -25853136.57947  20817319.7314   20817329.8844
     -2007.6594      -1564.4074
  20689099.6084  -28488794.93449 -22174872.89247  20689100.2954   20689109.0494
      2566.0664       1999.5324
  21177155.7704  -20857487.84348 -15973387.42747  21177155.8904   21177164.8774
      -913.0194       -711.4434
  24155619.7654   -3511405.65347  -2467700.13145  24155620.9544   24155628.4094
      3439.3284       2679.9914
  21787210.1594  -18971068.48948 -14473107.24447  21787211.0174   21787220.4904
      2893.9764       2255.0444
 97  9 18  1 51 29.9980000  0  8G 4G29G16G14G18G22G13G19
  23702910.4024  -10152216.36747  -7666609.45945  23702911.3944   23702919.6034
      -190.1394       -148.1594
  22692170.8974  -26338137.87248 -20204634.40446  22692172.0464   22692180.6674
     -1762.3774      -1373.2784
  19935056.7654  -34091752.18549 -26287542.87447  19935057.2384   19935066.6024
       358.3374        279.2244
  20828795.2974  -33433305.80549 -25806142.72647  20828796.1974   20828806.2404
     -2015.7994      -1570.7524
  20674437.9654  -28565841.41349 -22234909.08847  20674438.7094   20674447.6224
      2567.4574       2000.6154
  21182391.2964  -20829975.48948 -15951949.23047  21182391.4494   21182400.0954
      -924.0974       -720.0764
  24135953.6134   -3614751.46347  -2548229.27645  24135954.8244   24135961.9334
      3447.5874       2686.4284
  21770684.5664  -19057912.77748 -14540778.05947  21770685.2684   21770695.1184
      2892.6864       2254.0404
 97  9 18  1 51 59.9980000  0  8G 4G29G16G14G18G22G13G19
  23704050.9434  -10146220.22547  -7661937.15745  23704051.8494   23704062.2084
      -207.5154       -161.7024
  22702262.4494  -26285105.40048 -20163310.41446  22702263.7404   22702272.3204
     -1771.0334      -1380.0214
  19933080.0524  -34102141.24149 -26295638.25047  19933080.4784   19933089.7234
       336.3694        262.1074
  20840359.8074  -33372533.94848 -25758788.05347  20840360.6974   20840370.3284
     -2033.2404      -1584.3414
  20659811.9634  -28642703.80249 -22294801.84047  20659812.4664   20659820.5824
      2558.6474       1993.7504
  21187733.6504  -20801903.95749 -15930075.30147  21187733.5354   21187741.9524
      -945.1554       -736.4854
  24116280.6004   -3718130.95947  -2628784.66745  24116282.2514   24116288.5484
      3446.5254       2685.6024
  21754208.4524  -19144494.14648 -14608244.00947  21754209.2084   21754219.1414
      2881.5274       2245.3444
 97  9 18  1 52 29.9980000  0  8G 4G29G16G14G18G22G13G19
  23705279.8224  -10139756.72947  -7656900.69445  23705281.7164   23705292.0974
      -225.5234       -175.7284
  22712390.8934  -26231882.90648 -20121838.36146  22712391.6664   22712400.0844
     -1779.1544      -1386.3534
  19931217.8684  -34111926.99849 -26303263.51547  19931218.2214   19931227.4274
       313.9344        244.6244
  20852009.7734  -33311314.49448 -25711084.60747  20852010.2834   20852019.8254
     -2050.0484      -1597.4384
  20645225.4554  -28719352.91149 -22354528.40647  20645226.3034   20645234.8204
      2549.2374       1986.4184
  21193183.1794  -20773264.63148 -15907758.93947  21193183.2374   21193192.0314
      -966.2334       -752.9094
  24096602.8794   -3821536.04447  -2709359.97445  24096604.1184   24096612.8234
      3445.0824       2684.4704
  21737783.1444  -19230806.22448 -14675500.12147  21737783.8814   21737794.1134
      2870.6834       2236.8944
 97  9 18  1 52 59.9980000  0  8G 4G29G16G14G18G22G13G19
  23706595.5014  -10132849.84847  -7651518.72345  23706596.4794   23706605.9784
      -236.2454       -184.0914
  22722545.7314  -26178518.74348 -20080255.92546  22722546.7624   22722555.2934
     -1779.9404      -1386.9654
  19929464.3944  -34121139.33049 -26310441.95947  19929464.8684   19929474.2784
       298.9844        232.9754
  20863735.3014  -33249693.82448 -25663068.52447  20863736.1044   20863745.9984
     -2059.2974      -1604.6464
  20630676.2474  -28795811.23249 -22414106.30647  20630676.9874   20630686.0444
      2546.5964       1984.3594
  21198732.9704  -20744098.04448 -15885031.72547  21198733.3734   21198742.2214
      -979.7244       -763.4214
  24076914.0264   -3924997.70247  -2789979.37045  24076915.2634   24076924.8814
      3451.0074       2689.0934
  21721400.2994  -19316899.72848 -14742585.91747  21721401.0824   21721410.5964
      2867.3374       2234.2854
 97  9 18  1 53 29.9980000  0  8G 4G29G16G14G18G22G13G19
  23707993.8654  -10125499.58047  -7645791.26445  23707995.1544   23708005.9194
      -253.3644       -197.4264
  22732730.2134  -26124998.12948 -20038551.57146  22732730.8374   22732740.0914
     -1787.6934      -1393.0074
  19927818.8044  -34129787.70949 -26317180.95847  19927819.2074   19927828.8114
       278.0374        216.6524
  20875537.2914  -33187676.97248 -25614743.72847  20875537.9394   20875547.5664
     -2074.6834      -1616.6364
  20616166.2994  -28872061.36949 -22473521.98447  20616166.9654   20616176.0614
      2537.2624       1977.0854
  21204387.7174  -20714383.86348 -15861877.81247  21204387.9664   21204396.5054
     -1000.8314       -779.8694
  24057217.4984   -4028502.94847  -2870632.72245  24057218.4404   24057228.4334
      3449.7994       2688.1444
  21705061.7794  -19402757.30648 -14809487.87747  21705062.7244   21705072.5724
      2857.0534       2226.2754
 97  9 18  1 53 59.9980000  0  8G 4G29G16G14G18G22G13G19
  23709484.2454  -10117669.56247  -7639689.97646  23709485.8274   23709495.9274
      -268.7144       -209.3844
  22742951.9084  -26071280.74948 -19996693.90646  22742953.4224   22742962.1454
     -1793.4324      -1397.4764
  19926285.6974  -34137844.73849 -26323459.16547  19926286.3224   19926295.5504
       259.0494        201.8574
  20887416.7364  -33125248.09248 -25566097.87047  20887417.6444   20887427.3334
     -2087.1424      -1626.3444
  20601702.1944  -28948071.48049 -22532750.62647  20601702.8034   20601711.4784
      2530.1124       1971.5154
  21210155.2594  -20684073.70848 -15838259.50547  21210155.5564   21210164.4154
     -1019.7404       -794.6034
  24037522.7904   -4132006.15747  -2951284.54445  24037523.2814   24037532.7284
      3450.4774       2688.6744
  21688773.4234  -19488354.75348 -14876187.13647  21688774.0434   21688784.0974
      2849.5894       2220.4564
 97  9 18  1 54 29.9980000  0  8G 4G29G16G14G18G22G13G19
  23711057.6464  -10109398.56947  -7633245.06745  23711059.0164   23711069.6724
      -284.6474       -221.8024
  22753203.2254  -26017412.23448 -19954718.47946  22753204.6724   22753212.9074
     -1799.9074      -1402.5234
  19924858.7884  -34145346.21449 -26329304.47447  19924859.1034   19924867.9704
       239.0144        186.2454
  20899363.5354  -33062468.96748 -25517179.09647  20899364.0904   20899373.6794
     -2100.3474      -1636.6344
  20587273.5384  -29023893.23649 -22591832.50247  20587274.2814   20587282.9254
      2522.6244       1965.6794
  21216026.1854  -20653223.79749 -15814220.61047  21216026.1724   21216034.9444
     -1038.9894       -809.6014
  24017819.3404   -4235552.59347  -3031970.05645  24017820.2754   24017828.9794
      3450.5464       2688.7364
  21672522.9714  -19573752.82348 -14942731.04047  21672523.6304   21672533.4604
      2841.3534       2214.0394
 97  9 18  1 54 59.9980000  0  8G 4G29G16G14G18G22G13G19
  23712724.6344  -10100642.65147  -7626422.28745  23712725.5154   23712735.1964
      -299.1914       -233.1374
  22763497.4734  -25963319.98148 -19912568.70746  22763497.9794   22763506.2784
     -1806.3734      -1407.5644
  19923547.2174  -34152237.16649 -26334674.05047  19923547.8154   19923556.5964
       220.2864        171.6524
  20911388.1774  -32999277.54548 -25467939.05347  20911389.0444   20911398.6124
     -2112.6624      -1646.2294
  20572890.1504  -29099478.14949 -22650729.81947  20572890.8194   20572899.2124
      2516.1014       1960.5994
  21222009.6974  -20621780.87549 -15789719.63247  21222009.7934   21222018.7154
     -1057.3734       -823.9264
  23998116.4744   -4339089.45047  -3112648.08445  23998117.5144   23998126.3354
      3451.7544       2689.6724
  21656324.6184  -19658877.18648 -15009061.66347  21656325.2894   21656334.6604
      2833.2134       2207.6974
 97  9 18  1 55 29.9980000  0  8G 4G29G16G14G18G22G13G19
  23714476.0214  -10091434.40347  -7619247.05945  23714476.8274   23714487.6574
      -314.4754       -245.0474
  22773829.9424  -25909017.00948 -19870254.72846  22773831.0544   22773839.8024
     -1813.4014      -1413.0414
  19922345.7034  -34158553.57249 -26339595.92847  19922346.0644   19922354.6784
       201.0294        156.6464
  20923487.4874  -32935697.49948 -25418396.18147  20923488.2764   20923497.6744
     -2125.7794      -1656.4524
  20558547.2684  -29174850.51949 -22709461.51847  20558547.8834   20558556.2934
      2508.9644       1955.0364
  21228100.2834  -20589772.86449 -15764778.32947  21228100.3304   21228109.5334
     -1076.0604       -838.4884
  23978408.3914   -4442648.72147  -3193343.55545  23978409.1384   23978420.1004
      3452.4614       2690.2284
  21640175.8124  -19743738.01748 -15075186.93647  21640176.5504   21640186.0514
      2824.6334       2201.0104
 97  9 18  1 55 59.9980000  0  8G 4G29G16G14G18G22G13G19
  23716313.4114  -10081781.10547  -7611725.04245  23716314.7154   23716325.3884
      -329.1774       -256.4994
  22784200.9044  -25854520.35248 -19827789.83446  22784201.5334   22784210.3954
     -1819.8914      -1418.0954
  19921252.5164  -34164294.85149 -26344069.65347  19921253.0634   19921262.2904
       181.6124        141.5174
  20935658.4214  -32871735.11448 -25368555.39147  20935659.3104   20935669.2504
     -2138.5674      -1666.4134
  20544244.5704  -29250010.68149 -22768027.86747  20544245.4034   20544253.5794
      2501.5254       1949.2414
  21234293.6464  -20557226.64649 -15739417.64647  21234293.6964   21234302.2544
     -1093.8914       -852.3824
  23958694.1834   -4546242.65147  -3274066.04845  23958695.3214   23958705.4144
      3453.5644       2691.0844
  21624072.6594  -19828361.55348 -15141127.30547  21624073.4864   21624082.3714
      2816.5454       2194.7104
 97  9 18  1 56 29.9980000  0  8G 4G29G16G14G18G22G13G19
  23718233.6844  -10071691.84547  -7603863.30545  23718234.5134   23718244.4334
      -343.8164       -267.9074
  22794608.6234  -25799827.64048 -19785172.15746  22794609.5704   22794618.1954
     -1826.7214      -1423.4194
  19920269.2714  -34169465.14049 -26348098.45247  19920269.5454   19920278.3674
       162.6804        126.7634
  20947904.6294  -32807382.08348 -25318410.20147  20947905.5494   20947915.3604
     -2152.1994      -1677.0374
  20529984.2854  -29324949.49549 -22826421.74447  20529985.0574   20529993.0294
      2493.9934       1943.3724
  21240588.2144  -20524149.34549 -15713643.13347  21240588.2794   21240596.7474
     -1111.7344       -866.2874
  23938974.9374   -4649874.14847  -3354817.79745  23938976.5474   23938986.2244
      3454.6704       2691.9484
  21608016.7504  -19912734.42748 -15206872.35447  21608017.5324   21608026.9494
      2807.7434       2187.8494
 97  9 18  1 56 59.9980000  0  8G 4G29G16G14G18G22G13G19
  23720229.2744  -10061198.54247  -7595686.74645  23720230.6234   23720241.6884
      -356.6874       -277.9374
  22805047.5664  -25744971.60548 -19742427.22546  22805048.3224   22805056.8644
     -1831.0594      -1426.8044
  19919385.8564  -34174107.75749 -26351716.07247  19919386.0954   19919394.7834
       145.9614        113.7374
  20960223.7144  -32742646.08348 -25267966.58947  20960224.5374   20960234.1514
     -2164.3774      -1686.5274
  20515760.9844  -29399694.00049 -22884664.21247  20515761.7414   20515769.5614
      2488.0384       1938.7294
  21246978.3754  -20490567.62749 -15687475.57047  21246978.6874   21246987.4574
     -1127.8794       -878.8674
  23919243.5024   -4753569.71747  -3435619.49445  23919245.1114   23919253.3834
      3457.5214       2694.1694
  21592003.6554  -19996883.51248 -15272443.02247  21592004.5594   21592013.8974
      2801.4414       2182.9394
 97  9 18  1 57 29.9980000  0  8G 4G29G16G14G18G22G13G19
  23722315.5404  -10050240.06747  -7587147.70845  23722316.5394   23722326.7074
      -373.6294       -291.1394
  22815522.4674  -25689923.95348 -19699532.96546  22815523.1704   22815531.8934
     -1838.4664      -1432.5684
  19918611.9864  -34178171.63249 -26354882.73447  19918612.3594   19918621.7304
       125.2414         97.5924
  20972627.1084  -32677467.17648 -25217177.85247  20972627.6944   20972636.9564
     -2180.3984      -1699.0104
  20501586.3894  -29474181.11449 -22942706.09247  20501587.0064   20501595.6344
      2478.1604       1931.0334
  21253475.1474  -20456428.84749 -15660873.92547  21253475.3454   21253483.7054
     -1147.6254       -894.2534
  23899507.8614   -4857275.33847  -3516429.02845  23899509.4804   23899517.3364
      3456.5714       2693.4274
  21576038.4284  -20080783.03548 -15337819.22647  21576039.2674   21576048.3194
      2792.1564       2175.7064
 97  9 18  1 57 59.9980000  0  8G 4G29G16G14G18G22G13G19
  23724488.6944  -10038826.19847  -7578253.82845  23724489.4344   23724498.4224
      -394.9604       -307.7614
  22826031.4664  -25634700.66748 -19656501.84746  22826032.4474   22826040.2234
     -1850.7624      -1442.1534
  19917947.7614  -34181663.07049 -26357603.33747  19917948.1134   19917957.3264
        99.9394         77.8764
  20985110.6524  -32611864.84948 -25166059.18147  20985111.2894   20985120.7474
     -2200.6884      -1714.8204
  20487458.0724  -29548427.06649 -23000560.06047  20487458.6914   20487467.3884
      2464.1124       1920.0864
  21260074.5664  -20421747.94848 -15633849.85847  21260074.5054   21260083.2014
     -1172.1204       -913.3394
  23879768.3774   -4961006.73447  -3597258.63445  23879769.6484   23879778.7614
      3451.2524       2689.2834
  21560117.0914  -20164449.56448 -15403013.87447  21560117.6544   21560126.9494
      2777.7234       2164.4584
 97  9 18  1 58 29.9980000  0  8G 4G29G16G14G18G22G13G19
  23726752.8054  -10026925.86747  -7568980.87345  23726753.3274   23726764.5624
      -406.0064       -316.3704
  22836581.6984  -25579255.27247 -19613297.67446  22836583.0054   22836591.1714
     -1853.0614      -1443.9394
  19917397.9744  -34184552.37549 -26359854.74447  19917398.4344   19917407.1904
        84.8924         66.1484
  20997682.3754  -32545800.89148 -25114580.80247  20997683.1234   20997692.8474
     -2211.1994      -1723.0094
  20473378.0714  -29622416.88349 -23058214.44747  20473379.0834   20473387.5034
      2460.9944       1917.6594
  21266784.1214  -20386486.76048 -15606373.61847  21266784.5824   21266793.1134
     -1186.1324       -924.2584
  23860030.5774   -5064730.48247  -3678082.27145  23860031.8524   23860040.0574
      3456.0044       2692.9804
  21544250.0304  -20247830.55248 -15467986.02747  21544250.5874   21544259.9134
      2773.3994       2161.0904
 97  9 18  1 58 59.9980000  0  8G 4G29G16G14G18G22G13G19
  23729105.6314  -10014561.41247  -7559346.25445  23729106.6154   23729116.3654
      -418.4444       -326.0624
  22847170.1114  -25523612.95547 -19569940.05646  22847171.0674   22847180.2384
     -1856.6094      -1446.7064
  19916961.6044  -34186845.42949 -26361641.54447  19916962.0424   19916970.9934
        67.7954         52.8274
  21010338.5584  -32479294.16048 -25062757.40647  21010339.0064   21010348.2474
     -2222.5594      -1731.8634
  20459342.0014  -29696176.56949 -23115689.51447  20459342.9114   20459351.2654
      2456.1094       1913.8504
  21273599.8094  -20350671.73148 -15578465.80847  21273599.8634   21273608.4134
     -1201.5924       -936.3074
  23840292.5764   -5168457.45847  -3758908.44045  23840293.6504   23840301.2384
      3458.9824       2695.3044
  21528432.9394  -20330950.50448 -15532754.77747  21528433.6634   21528443.0174
      2767.7314       2156.6724
 97  9 18  1 59 29.9980000  0  8G 4G29G16G14G18G22G13G19
  23731543.1674  -10001749.21147  -7549362.76445  23731544.1484   23731554.5154
      -431.4954       -336.2324
  22857794.1994  -25467786.51947 -19526438.95646  22857794.6714   22857803.5564
     -1861.0544      -1450.1734
  19916638.8204  -34188543.83149 -26362964.98047  19916639.0984   19916648.0484
        49.6554         38.6934
  21023071.6194  -32412381.37548 -25010617.59147  21023072.2824   21023081.5794
     -2233.9534      -1740.7414
  20445348.0634  -29769715.98349 -23172992.93547  20445348.9174   20445357.4514
      2450.8704       1909.7674
  21280516.6314  -20314324.05748 -15550142.94247  21280516.6774   21280525.2454
     -1217.4284       -948.6474
  23820551.4854   -5272196.21047  -3839743.77045  23820552.4974   23820561.0054
      3461.1364       2696.9864
  21512663.8424  -20413816.94648 -15597325.97847  21512664.6034   21512674.0534
      2760.6764       2151.1744
 97  9 18  1 59 59.9980000  0  8G 4G29G16G14G18G22G13G19
  23734046.4094   -9988592.49447  -7539110.82945  23734047.2244   23734058.0134
      -447.4104       -348.6284
  22868434.8514  -25411865.94047 -19482864.49546  22868436.0654   22868445.0394
     -1868.5194      -1455.9864
  19916410.5244  -34189741.76649 -26363898.43747  19916410.9854   19916419.9734
        28.4974         22.2064
  21035860.0114  -32345177.75248 -24958251.15447  21035860.5934   21035870.0204
     -2248.0694      -1751.7424
  20431374.2284  -29843151.03349 -23230215.03847  20431374.8084   20431383.1774
      2442.9184       1903.5724
  21287515.3594  -20277543.90748 -15521483.08647  21287515.6164   21287524.5604
     -1236.4294       -963.4504
  23800789.5604   -5376045.77247  -3920665.46345  23800790.8734   23800799.1404
      3460.2874       2696.3214
  21496928.1344  -20496506.13048 -15661759.06147  21496928.9004   21496938.6364
      2750.1904       2143.0034
 97  9 18  2  0 29.9980000  0  8G 4G29G16G14G18G22G13G19
  23736638.5714   -9974969.00347  -7528495.14845  23736639.9184   23736651.1454
      -460.9324       -359.1694
  22879114.6064  -25355745.09447 -19439133.97646  22879115.5064   22879124.3974
     -1872.9014      -1459.4004
  19916300.7054  -34190318.18949 -26364347.60447  19916300.9454   19916310.0794
         9.8234          7.6544
  21048727.2424  -32277558.35448 -24905560.74047  21048728.1824   21048737.5894
     -2259.8584      -1760.9284
  20417445.6204  -29916344.93549 -23287249.23647  20417446.3244   20417454.8964
      2436.5844       1898.6374
  21294620.2424  -20240206.75848 -15492389.20747  21294620.4524   21294629.2654
     -1252.9094       -976.2954
  23781031.5824   -5479873.25247  -4001569.95345  23781033.2954   23781042.1364
      3461.5544       2697.3154
  21481249.3554  -20578898.87148 -15725961.14647  21481250.0234   21481259.7804
      2742.5474       2137.0474
 97  9 18  2  0 59.9980000  0  8G 4G29G16G14G18G22G13G19
  23739312.1744   -9960918.51547  -7517546.74145  23739313.7874   23739324.2814
      -475.2114       -370.2924
  22889821.1544  -25299483.46447 -19395293.77446  22889821.7014   22889830.2854
     -1877.4664      -1462.9574
  19916300.9204  -34190314.19349 -26364344.49747  19916301.4944   19916310.8354
        -9.4164         -7.3374
  21061664.0874  -32209575.19148 -24852586.87247  21061664.9554   21061674.7324
     -2271.7674      -1770.2074
  20403557.6104  -29989325.11649 -23344116.89447  20403558.2294   20403567.1474
      2429.2074       1892.8874
  21301824.4324  -20202349.26848 -15462889.86047  21301824.7804   21301832.9964
     -1270.3484       -989.8814
  23761269.6604   -5583727.01847  -4082494.92645  23761269.8284   23761279.0894
      3462.6104       2698.1344
  21465616.9094  -20661048.13348 -15789973.51147  21465617.5494   21465626.8624
      2734.4934       2130.7734
 97  9 18  2  1 29.9980000  0  8G 4G29G16G14G18G22G13G19
  23742076.1984   -9946404.30247  -7506237.01145  23742076.8134   23742086.8464
      -494.9514       -385.6754
  22900560.3744  -25243047.81947 -19351317.97146  22900561.2534   22900570.0454
     -1887.5634      -1470.8284
  19916415.8824  -34189712.35249 -26363875.53247  19916416.3074   19916425.4204
       -33.3344        -25.9744
  21074675.1324  -32141202.49748 -24799309.47747  21074675.9204   21074685.7044
     -2289.0204      -1783.6494
  20389717.7334  -30062053.10949 -23400788.03747  20389718.6234   20389727.2684
      2416.8304       1883.2434
  21309134.1864  -20163936.62348 -15432957.92247  21309134.3744   21309142.8374
     -1293.2354      -1007.7154
  23741503.7644   -5687586.53547  -4163424.37745  23741504.9284   23741515.0564
      3458.7164       2695.0994
  21450037.3024  -20742919.39048 -15853769.25547  21450038.0104   21450047.6264
      2720.8594       2120.1484
 97  9 18  2  1 59.9980000  0  8G 4G29G16G14G18G22G13G19
  23744921.6644   -9931446.89947  -7494581.91745  23744922.7414   23744933.6884
      -506.1974       -394.4374
  22911331.7014  -25186445.24148 -19307212.09946  22911332.5154   22911341.3614
     -1890.1024      -1472.8094
  19916640.0234  -34188534.00649 -26362957.34347  19916640.2564   19916649.8034
       -49.4344        -38.5194
  21087757.8574  -32072453.64048 -24745738.96647  21087758.5534   21087768.1144
     -2298.4494      -1791.0004
  20375923.0344  -30134546.28649 -23457276.21047  20375923.7044   20375932.0334
      2411.8614       1879.3714
  21316548.3754  -20124975.10448 -15402598.29347  21316548.5714   21316557.0404
     -1308.2504      -1019.4164
  23721735.8284   -5791470.97647  -4244373.26945  23721736.9394   23721745.4104
      3462.6144       2698.1364
  21434507.4464  -20824528.96648 -15917361.09547  21434508.4294   21434518.0894
      2715.7194       2116.1424
 97  9 18  2  2 29.9980000  0  8G 4G29G16G14G18G22G13G19
  23747846.6574   -9916077.13647  -7482605.52345  23747847.4804   23747858.5964
      -517.7434       -403.4354
  22922134.5684  -25129676.41148 -19262976.66946  22922135.0724   22922144.2364
     -1894.0664      -1475.8964
  19916971.9774  -34186788.63649 -26361597.32247  19916972.3854   19916981.9174
       -66.3924        -51.7344
  21100910.2684  -32003336.56048 -24691881.52747  21100910.9154   21100920.5674
     -2308.6934      -1798.9824
  20362172.3894  -30206805.69649 -23513582.22847  20362173.0974   20362181.7694
      2406.1764       1874.9424
  21324064.1164  -20085482.59448 -15371824.90747  21324063.9264   21324072.4434
     -1324.0554      -1031.7324
  23701962.7084   -5895381.11147  -4325342.19145  23701963.6134   23701972.6254
      3465.2734       2700.2044
  21419021.7144  -20905907.11248 -15980772.60447  21419022.4494   21419032.2374
      2709.9234       2111.6284
 97  9 18  2  2 59.9980000  0  8G 4G29G16G14G18G22G13G19
  23750850.5214   -9900293.82747  -7470306.85545  23750851.3264   23750860.6664
      -532.6044       -415.0174
  22932974.5164  -25072709.28447 -19218586.72846  22932975.6244   22932985.0054
     -1902.0054      -1482.0854
  19917415.9434  -34184456.23849 -26359779.87147  19917416.2744   19917425.8814
       -87.2484        -67.9864
  21114134.1714  -31933844.36448 -24637731.79147  21114134.9164   21114144.4914
     -2322.4364      -1809.6904
  20348468.1624  -30278821.29949 -23569698.26947  20348469.1034   20348477.5284
      2396.5074       1867.4084
  21331682.3704  -20045445.43048 -15340627.11747  21331682.5574   21331691.2314
     -1343.1404      -1046.6044
  23682189.1294   -5999294.14747  -4406313.35645  23682190.0904   23682197.3784
      3463.7494       2699.0224
  21403583.3924  -20987034.87748 -16043989.01047  21403584.0784   21403593.7844
      2700.1924       2104.0444
 97  9 18  2  3 29.9980000  0  8G 4G29G16G14G18G22G13G19
  23753929.1424   -9884116.40947  -7457701.11845  23753930.1374   23753939.4654
      -545.3914       -424.9834
  22943852.9114  -25015542.46247 -19174041.17646  22943853.6464   22943863.3374
     -1908.4684      -1487.1194
  19917969.2754  -34181547.65049 -26357513.44547  19917969.6524   19917979.6084
      -106.3734        -82.8874
  21127426.7424  -31863991.04948 -24583300.65947  21127427.3884   21127437.2454
     -2334.0964      -1818.7744
  20334810.1474  -30350595.95949 -23625626.56547  20334810.8674   20334819.2784
      2388.9674       1861.5324
  21339400.2644  -20004886.68848 -15309022.90447  21339400.3784   21339408.7894
     -1360.3824      -1060.0384
  23662417.0074   -6103196.17747  -4487275.93445  23662418.7144   23662426.9244
      3463.3884       2698.7444
  21388193.9044  -21067907.34948 -16107006.49147  21388194.7534   21388204.3074
      2691.6444       2097.3834
 97  9 18  2  3 59.9980000  0  8G 4G29G16G14G18G22G13G19
  23757081.6204   -9867546.42047  -7444789.49045  23757082.7294   23757093.3204
      -558.9174       -435.5164
  22954769.7444  -24958175.73547 -19129339.85746  22954770.8014   22954780.0414
     -1915.3164      -1492.4534
  19918636.5844  -34178039.96449 -26354780.18847  19918637.0914   19918646.9084
      -126.9424        -98.9164
  21140789.8774  -31793768.14548 -24528581.53847  21140790.6414   21140800.4434
     -2347.0494      -1828.8694
  20321198.5744  -30422125.88649 -23681364.15447  20321199.3074   20321207.8594
      2380.1084       1854.6284
  21347219.7644  -19963797.31148 -15277005.20247  21347219.8064   21347227.9854
     -1378.3774      -1074.0584
  23642651.8624   -6207060.92947  -4568209.42745  23642653.0324   23642662.8074
      3461.3344       2697.1434
  21372855.1744  -21148511.68548 -16169815.03447  21372855.9604   21372866.0054
      2682.3534       2090.1444
 97  9 18  2  4 29.9970000  0  8G 4G29G16G14G18G22G13G19
  23760305.8304   -9850604.68347  -7431588.16345  23760306.4424   23760317.0624
      -572.4964       -446.0964
  22965716.5874  -24900650.70747 -19084515.21046  22965717.3254   22965726.6264
     -1921.5124      -1497.2844
  19919413.4204  -34173958.66949 -26351599.96847  19919413.8924   19919423.3844
      -146.7824       -114.3764
  21154219.6964  -31723194.42448 -24473589.05647  21154220.2804   21154230.1754
     -2359.7044      -1838.7284
  20307631.0634  -30493424.16649 -23736921.24047  20307631.7344   20307640.4174
      2371.5574       1847.9664
  21355133.0824  -19922211.42748 -15244600.61447  21355133.1644   21355141.5544
     -1395.9164      -1087.7254
  23622891.1484   -6310900.58247  -4649123.38045  23622892.6214   23622902.2124
      3459.9864       2696.0914
  21357563.8864  -21228868.29948 -16232430.55247  21357564.6654   21357574.3444
      2673.0694       2082.9104
 97  9 18  2  4 59.9970000  0  8G 4G29G16G14G18G22G13G19
  23763612.5934   -9833221.86547  -7418043.13445  23763614.2944   23763624.0184
      -589.6744       -459.4894
  22976700.1514  -24842930.85447 -19039538.73646  22976700.9214   22976709.6834
     -1929.8574      -1503.7854
  19920306.4864  -34169267.54749 -26347944.56347  19920306.7014   19920316.1474
      -169.1464       -131.8034
  21167725.5434  -31652220.02548 -24418284.35247  21167726.5134   21167736.1554
     -2375.2904      -1850.8744
  20294115.7004  -30564446.09049 -23792262.98047  20294116.3104   20294125.3204
      2359.9254       1838.9024
  21363149.2284  -19880085.75848 -15211775.41047  21363149.2364   21363157.9234
     -1415.6254      -1103.0854
  23603138.3704   -6414699.59947  -4730005.63545  23603139.8564   23603148.8564
      3456.6984       2693.5274
  21342328.9554  -21308929.06348 -16294815.53347  21342329.8174   21342339.0994
      2661.0114       2073.5134
 97  9 18  2  5 29.9970000  0  8G 4G29G16G14G18G22G13G19
  23767004.9974   -9815399.09347  -7404155.28245  23767005.9624   23767015.0884
      -597.2174       -465.3654
  22987716.2534  -24785039.48147 -18994428.59246  22987717.3434   22987726.7264
     -1928.2524      -1502.5334
  19921309.3874  -34163993.72349 -26343835.09947  19921309.9794   19921319.6644
      -181.2574       -141.2394
  21181304.8554  -31580860.85248 -24362679.82847  21181305.4534   21181315.3854
     -2380.8004      -1855.1684
  20280649.3104  -30635211.55349 -23847404.87847  20280650.1384   20280659.1284
      2358.9884       1838.1724
  21371262.5884  -19837448.91448 -15178551.89447  21371262.7094   21371271.6564
     -1425.7224      -1110.9534
  23583388.6144   -6518492.55447  -4810883.17645  23583389.7874   23583397.6474
      3464.1904       2699.3664
  21327146.5894  -21388714.65448 -16356986.09947  21327147.2754   21327156.5504
      2659.4234       2072.2764
 97  9 18  2  5 59.9970000  0  8G 4G29G16G14G18G22G13G19
  23770463.2424   -9797228.98847  -7389996.80045  23770463.9824   23770473.6844
      -613.6724       -478.1874
  22998745.8924  -24727078.68947 -18949264.35346  22998747.2294   22998755.9784
     -1935.5734      -1508.2374
  19922403.4084  -34158247.23549 -26339357.31647  19922403.7084   19922413.1654
      -201.4264       -156.9554
  21194937.8084  -31509217.05548 -24306853.52046  21194938.6164   21194948.9374
     -2394.9504      -1866.1964
  20267211.3174  -30705829.54949 -23902431.87047  20267212.0414   20267220.7094
      2349.1614       1830.5134
  21379455.9784  -19794393.24848 -15145002.02247  21379456.1744   21379464.7044
     -1444.1244      -1125.2924
  23563614.8634   -6622409.88547  -4891857.63645  23563615.8924   23563623.2324
      3464.0874       2699.2834
  21311991.7444  -21468351.70548 -16419040.91747  21311992.5624   21312002.4694
      2650.1014       2065.0124
 97  9 18  2  6 29.9970000  0  8G 4G29G16G14G18G22G13G19
  23774005.1264   -9778613.62247  -7375491.37945  23774006.4004   23774015.9444
      -627.8724       -489.2504
  23009810.0064  -24668937.48547 -18903959.54046  23009810.8204   23009820.3364
     -1941.1464      -1512.5814
  19923602.1684  -34151945.88249 -26334447.17447  19923602.6804   19923612.0534
      -219.3824       -170.9474
  21208641.9844  -31437203.03748 -24250738.72346  21208642.6714   21208652.8444
     -2406.4784      -1875.1764
  20253821.2244  -30776198.10449 -23957264.49447  20253821.7904   20253830.1934
      2341.4984       1824.5444
  21387745.6484  -19750831.87848 -15111058.08947  21387745.6774   21387753.8244
     -1460.5764      -1138.1134
  23543829.1504   -6726382.62047  -4972875.28045  23543830.2494   23543837.8484
      3466.7454       2701.3574
  21296881.3854  -21547756.36348 -16480914.65147  21296882.3074   21296892.3134
      2642.8244       2059.3434
 97  9 18  2  6 59.9970000  0  8G 4G29G16G14G18G22G13G19
  23777641.4284   -9759503.92847  -7360600.75445  23777643.1994   23777653.5424
      -643.9154       -501.7494
  23020918.4684  -24610559.07347 -18858469.89645  23020919.2744   23020929.2554
     -1948.7704      -1518.5194
  19924917.6154  -34145033.15349 -26329060.63647  19924918.0364   19924927.6514
      -239.5924       -186.6954
  21222423.4324  -31364782.21348 -24194306.93646  21222423.9374   21222433.9604
     -2419.5744      -1885.3824
  20240487.3244  -30846268.12249 -24011864.49447  20240487.8674   20240496.4784
      2331.8044       1816.9904
  21396141.5434  -19706711.05548 -15076678.21547  21396141.5424   21396149.6064
     -1478.7504      -1152.2744
  23524042.8984   -6830357.53347  -5053894.61745  23524044.1744   23524052.4524
      3466.6504       2701.2854
  21281826.5564  -21626871.09348 -16542562.47147  21281827.3904   21281837.0924
      2633.3934       2051.9934
 97  9 18  2  7 29.9970000  0  8G 4G29G16G14G18G22G13G19
  23781360.5664   -9739961.63347  -7345373.02145  23781361.6174   23781371.2014
      -659.0124       -513.5164
  23032065.6654  -24551981.23047 -18812824.85445  23032066.5244   23032075.8794
     -1956.4994      -1524.5484
  19926342.6624  -34137546.05649 -26323226.54247  19926343.0304   19926352.6584
      -259.8564       -202.4854
  21236270.7394  -31292011.53448 -24137602.53446  21236271.6614   21236281.5994
     -2432.0074      -1895.0704
  20227201.7984  -30916083.91849 -24066266.39947  20227202.5144   20227210.8624
      2322.2624       1809.5554
  21404635.8244  -19662074.27248 -15041896.29447  21404635.8624   21404643.8764
     -1497.2594      -1166.6964
  23504253.5934   -6934351.67947  -5134928.95645  23504254.5084   23504263.1394
      3466.0104       2700.7864
  21266820.0514  -21705731.62548 -16604012.21147  21266820.7214   21266830.2454
      2623.6764       2044.4234
 97  9 18  2  7 59.9970000  0  8G 4G29G16G14G18G22G13G19
  23785151.0894   -9720041.88847  -7329851.18345  23785151.9104   23785162.4164
      -669.9694       -522.0554
  23043244.2134  -24493239.11347 -18767051.80245  23043245.5644   23043253.1224
     -1960.5974      -1527.7384
  19927872.3784  -34129508.02649 -26316963.14847  19927872.7534   19927882.0364
      -277.1234       -215.9394
  21250177.7884  -31218932.92048 -24080658.18846  21250178.2164   21250187.5844
     -2441.0144      -1902.0894
  20213960.7984  -30985663.61149 -24120484.32447  20213961.6014   20213970.3294
      2315.4104       1804.2154
  21413220.9374  -19616958.18148 -15006740.88747  21413220.8874   21413229.3954
     -1511.5074      -1177.7984
  23484457.2614   -7038379.76947  -5215989.73845  23484458.5374   23484466.2694
      3468.0244       2702.3544
  21251857.7274  -21784359.76548 -16665280.86247  21251858.6304   21251867.5974
      2616.9634       2039.1904
 97  9 18  2  8 29.9970000  0  8G 4G29G16G14G18G22G13G19
  23789013.0384   -9699747.55447  -7314037.43245  23789013.7784   23789023.1674
      -683.6734       -532.7324
  23054453.5444  -24434334.37747 -18721152.03445  23054454.3104   23054461.8424
     -1967.0394      -1532.7594
  19929511.8644  -34120894.22149 -26310251.10347  19929512.2124   19929521.0124
      -297.7964       -232.0484
  21264146.1724  -31145526.31248 -24023458.25646  21264147.0884   21264156.3664
     -2453.3954      -1911.7374
  20200768.4274  -31054991.17349 -24174505.78847  20200769.0934   20200777.8904
      2305.8264       1796.7464
  21421897.1894  -19571363.99348 -14971212.93347  21421897.3664   21421905.6574
     -1528.8694      -1191.3284
  23464662.8434   -7142403.52047  -5297047.15145  23464663.2904   23464671.1804
      3466.1394       2700.8844
  21236945.8494  -21862722.40348 -16726342.63547  21236946.6614   21236955.6294
      2606.5604       2031.0864
 97  9 18  2  8 59.9970000  0  8G 4G29G16G14G18G22G13G19
  23792971.0184   -9678948.51847  -7297830.43845  23792971.8014   23792981.0884
      -696.6274       -542.8284
  23065718.1514  -24375136.40747 -18675023.75845  23065719.1644   23065727.9274
     -1973.2644      -1537.6074
  19931285.4034  -34111572.39449 -26302987.34447  19931285.8114   19931294.7644
      -317.3654       -247.2984
  21278203.6684  -31071652.52648 -23965894.28846  21278204.7824   21278214.3644
     -2465.4244      -1921.1084
  20187648.9194  -31123933.16449 -24228226.80147  20187649.8324   20187658.4034
      2296.5314       1789.5034
  21430689.4274  -19525158.06548 -14935208.30147  21430689.7984   21430698.3044
     -1545.3344      -1204.1574
  23444896.8354   -7246267.88747  -5377980.38445  23444898.0364   23444907.0734
      3464.5394       2699.6404
  21222111.2324  -21940679.96048 -16787088.75547  21222111.9284   21222120.7674
      2596.9344       2023.5844
 97  9 18  2  9 29.9970000  0  8G 4G29G16G14G18G22G13G19
  23796972.0724   -9657922.88447  -7281446.86245  23796972.9044   23796983.5454
      -707.2964       -551.1424
  23076989.9554  -24315901.37547 -18628866.60945  23076991.3904   23077000.2384
     -1977.7114      -1541.0784
  19933141.0494  -34101821.48749 -26295389.24747  19933141.4994   19933150.6594
      -334.7904       -260.8754
  21292303.2984  -30997560.93648 -23908160.60546  21292303.8394   21292313.7004
     -2476.2104      -1929.5144
  20174554.7204  -31192747.23749 -24281848.14147  20174555.3414   20174563.7864
      2289.0144       1783.6474
  21439548.2174  -19478604.72548 -14898932.96347  21439548.3864   21439557.0184
     -1560.3834      -1215.8834
  23425110.7664   -7350243.10847  -5459000.00645  23425112.2744   23425120.9764
      3465.2194       2700.1714
  21207301.0144  -22018507.06748 -16847733.23247  21207301.7234   21207311.0394
      2589.6754       2017.9284
 97  9 18  2  9 59.9970000  0  8G 4G29G16G14G18G22G13G19
  23801046.4644   -9636513.15347  -7264763.97645  23801047.7784   23801058.2464
      -719.8014       -560.8864
  23088298.9634  -24256471.65347 -18582557.76045  23088299.6724   23088309.3054
     -1983.8944      -1545.8984
  19935107.6204  -34091489.05149 -26287338.01347  19935107.8294   19935116.7784
      -353.6204       -275.5484
  21306476.9124  -30923076.74748 -23850121.00346  21306477.6654   21306487.9594
     -2489.0504      -1939.5194
  20161512.9054  -31261278.06449 -24335248.76547  20161513.7484   20161522.4534
      2280.2484       1776.8174
  21448504.1134  -19431542.62448 -14862261.18847  21448504.3354   21448512.9924
     -1576.9244      -1228.7724
  23405330.5574   -7454190.27047  -5539997.76545  23405331.7064   23405340.1304
      3464.8994       2699.9204
  21192540.3744  -22096073.13348 -16908174.29647  21192541.1344   21192550.7924
      2581.6904       2011.7064
 97  9 18  2 10 29.9970000  0  8G 4G29G16G14G18G22G13G19
  23805194.8434   -9614713.61847  -7247777.37845  23805195.5254   23805205.7584
      -732.4314       -570.7224
  23099644.8364  -24196847.54047 -18536097.42445  23099646.8574   23099654.7504
     -1989.9664      -1550.6224
  19937181.4254  -34080589.57349 -26278844.91947  19937181.7764   19937190.7594
      -371.7824       -289.7014
  21320723.3184  -30848208.53248 -23791782.16746  21320724.2614   21320734.4864
     -2500.8654      -1948.7244
  20148520.6674  -31329552.42649 -24388449.54947  20148521.3244   20148529.9244
      2272.4094       1770.7064
  21457556.8314  -19383968.16348 -14825190.18247  21457557.1044   21457566.4114
     -1593.6444      -1241.8004
  23385551.1014   -7558127.30747  -5620987.62745  23385552.1074   23385561.1264
      3465.2864       2700.2164
  21177826.3544  -22173397.20448 -16968426.80047  21177827.0204   21177836.1874
      2574.3224       2005.9644
 97  9 18  2 10 59.9970000  0  8G 4G29G16G14G18G22G13G19
  23809414.2294   -9592536.53547  -7230496.57545  23809414.9624   23809426.5804
      -745.4744       -580.8864
  23111027.2474  -24137036.33147 -18489491.30145  23111028.8774   23111036.9864
     -1996.5834      -1555.7804
  19939357.1654  -34069156.27649 -26269935.85847  19939357.5664   19939366.3784
      -389.8834       -303.8054
  21335034.9964  -30772999.09148 -23733177.42746  21335036.0904   21335046.1074
     -2512.4424      -1957.7484
  20135574.3334  -31397587.62749 -24441463.97047  20135574.8974   20135583.3644
      2263.9274       1764.0974
  21466705.8414  -19335892.63048 -14787728.72647  21466705.9934   21466714.3434
     -1610.6614      -1255.0614
  23365769.8384   -7662084.90247  -5701993.51945  23365771.0414   23365779.0954
      3465.8774       2700.6854
  21163153.2354  -22250505.38848 -17028511.07447  21163153.9014   21163162.7004
      2566.7184       2000.0394
 97  9 18  2 11 29.9970000  0  8G 4G29G16G14G18G22G13G19
  23813713.8094   -9569944.32447  -7212892.30545  23813714.8904   23813724.9484
      -760.0984       -592.2894
  23122447.9264  -24077023.84147 -18442728.33945  23122448.5164   23122457.7764
     -2003.4814      -1561.1554
  19941640.2604  -34057159.57449 -26260587.78847  19941640.6144   19941649.2804
      -409.3234       -318.9524
  21349414.8444  -30697435.67148 -23674296.86146  21349415.5054   21349425.2834
     -2524.3274      -1967.0094
  20122677.8794  -31465358.66749 -24494272.55347  20122678.5774   20122686.8114
      2254.8824       1757.0514
  21475954.1164  -19287292.70648 -14749858.63947  21475954.0684   21475962.3974
     -1628.5644      -1269.0104
  23345986.1564   -7766048.15647  -5783003.83045  23345987.6354   23345994.9184
      3465.6784       2700.5294
  21148526.1734  -22327369.44148 -17088405.11047  21148526.9064   21148535.6914
      2558.0214       1993.2624
 97  9 18  2 11 59.9970000  0  8G 4G29G16G14G18G22G13G19
  23818085.3494   -9546968.69647  -7194989.25445  23818086.3234   23818098.0214
      -771.8614       -601.4484
  23133895.1794  -24016871.95547 -18395856.75945  23133895.4864   23133904.5924
     -2006.8814      -1563.8044
  19944022.2994  -34044642.06349 -26250833.88947  19944022.6424   19944031.5164
      -425.4874       -331.5494
  21363847.6194  -30621592.50248 -23615198.31646  21363848.1084   21363857.7114
     -2532.1344      -1973.0914
  20109819.8404  -31532930.05549 -24546925.55947  20109820.2894   20109828.6104
      2249.4604       1752.8254
  21485290.5224  -19238227.60148 -14711626.08847  21485290.8444   21485299.4904
     -1642.7054      -1280.0314
  23326191.6704   -7870071.78247  -5864061.17645  23326192.4304   23326200.7284
      3468.7134       2702.8914
  21133939.3444  -22404023.70248 -17148135.67847  21133940.1064   21133949.3524
      2551.6304       1988.2814
 97  9 18  2 12 29.9970000  0  8G 4G29G16G14G18G22G13G19
  23822534.2474   -9523596.13147  -7176776.91945  23822534.4974   23822544.8144
      -786.2624       -612.6704
  23145367.7744  -23956575.64547 -18348872.63745  23145369.1034   23145378.2304
     -2012.9194      -1568.5064
  19946506.1634  -34031588.47649 -26240662.26347  19946506.5364   19946515.4994
      -444.8774       -346.6584
  21378332.5934  -30545473.51248 -23555884.84446  21378333.2494   21378342.8724
     -2542.6834      -1981.3094
  20097003.2404  -31600277.77349 -24599404.28347  20097004.0154   20097012.4114
      2240.0524       1745.4944
  21494718.0334  -19188687.78148 -14673023.63047  21494718.1514   21494726.6604
     -1659.8584      -1293.3944
  23306389.9454   -7974127.37947  -5945143.43245  23306390.8764   23306400.3944
      3468.1034       2702.4174
  21119401.8214  -22480418.36048 -17207663.95047  21119402.6464   21119411.7844
      2541.1794       1980.1384
 97  9 18  2 12 59.9970000  0  8G 4G29G16G14G18G22G13G19
  23827062.3294   -9499799.84747  -7158234.43145  23827063.2344   23827072.7694
      -799.0634       -622.6504
  23156876.2374  -23896098.76347 -18301747.81845  23156877.5624   23156886.4884
     -2017.7224      -1572.2504
  19949101.3824  -34017949.68849 -26230034.63847  19949101.8574   19949110.9624
      -463.4824       -361.1564
  21392880.1614  -30469028.33448 -23496317.19546  21392880.8364   21392890.4734
     -2552.8144      -1989.2054
  20084243.2274  -31667332.09049 -24651654.38847  20084244.0514   20084252.4554
      2231.3324       1738.6984
  21504241.3924  -19138640.70048 -14634025.90647  21504241.6574   21504250.4314
     -1675.4344      -1305.5344
  23286592.2064   -8078162.99147  -6026210.12446  23286593.7564   23286602.5944
      3468.5684       2702.7834
  21104923.5044  -22556503.39048 -17266950.96147  21104924.3004   21104932.8934
      2532.1964       1973.1394
 97  9 18  2 13 29.9970000  0  8G 4G29G16G14G18G22G13G19
  23831663.9714   -9475622.25847  -7139394.83145  23831664.5414   23831673.3574
      -809.9814       -631.1524
  23168415.2344  -23835465.16647 -18254500.86145  23168416.2224   23168424.3744
     -2021.9644      -1575.5584
  19951807.2854  -34003729.42949 -26218953.92147  19951807.7714   19951817.0794
      -481.9364       -375.5354
  21407490.0084  -30392253.29048 -23436492.50346  21407490.5654   21407500.2834
     -2562.9524      -1997.1064
  20071535.9314  -31734112.90149 -24703691.36247  20071536.3614   20071544.5314
      2223.2984       1732.4394
  21513855.3344  -19088118.08748 -14594657.63647  21513855.6664   21513864.0804
     -1690.2564      -1317.0844
  23266796.9884   -8182190.03347  -6107270.12646  23266798.0224   23266806.6524
      3469.1134       2703.2044
  21090498.0114  -22632307.48748 -17326019.05147  21090498.9574   21090507.5714
      2524.0504       1966.7914
 97  9 18  2 13 59.9970000  0  8G 4G29G16G14G18G22G13G19
  23836323.6454   -9451129.92747  -7120309.92445  23836324.6034   23836334.1464
      -824.6184       -642.5574
  23179979.5184  -23774695.08547 -18207147.56245  23179979.9094   23179989.0164
     -2031.1444      -1582.7104
  19954620.7284  -33988946.59549 -26207434.83947  19954620.8724   19954629.9474
      -505.3404       -393.7714
  21422159.2544  -30315163.53848 -23376422.58946  21422160.0594   21422170.1664
     -2578.1974      -2008.9844
  20058875.8434  -31800641.92249 -24755532.13147  20058876.5624   20058884.2864
      2210.0304       1722.1004
  21523554.7654  -19037146.33048 -14554939.38047  21523555.1624   21523564.1524
     -1709.6534      -1332.1994
  23246999.8624   -8286223.05647  -6188334.79146  23247001.3424   23247010.1524
      3464.4604       2699.5714
  21076119.1214  -22707870.25848 -17384899.10047  21076119.8374   21076128.5224
      2511.7454       1957.2034
 97  9 18  2 14 29.9970000  0  8G 4G29G16G14G18G22G13G19
  23841050.8344   -9426293.49147  -7100956.90945  23841051.3484   23841061.2974
      -834.1174       -649.9594
  23191580.5054  -23713728.03347 -18159640.77845  23191581.8544   23191590.8474
     -2036.1924      -1586.6434
  19957552.2774  -33973541.24149 -26195430.66947  19957552.5884   19957561.4044
      -524.4124       -408.6344
  21436901.4634  -30237692.44948 -23316055.53346  21436902.1724   21436912.7064
     -2589.2334      -2017.5834
  20046277.0164  -31866847.24349 -24807120.67447  20046277.8174   20046285.9064
      2200.9414       1715.0184
  21533349.9164  -18985673.88248 -14514830.97846  21533350.1344   21533359.0574
     -1724.5384      -1343.7984
  23227214.7654   -8390194.94047  -6269351.81046  23227216.0904   23227224.9364
      3464.3454       2699.4874
  21061792.3124  -22783157.47948 -17443564.43447  21061792.9384   21061802.2004
      2504.8214       1951.8084
 97  9 18  2 14 59.9970000  0  8G 4G29G16G14G18G22G13G19
  23845834.2684   -9401151.87047  -7081366.08945  23845835.4944   23845844.9064
      -844.2964       -657.8964
  23203215.7354  -23652585.04147 -18111996.90245  23203216.7744   23203225.6444
     -2042.1304      -1591.2704
  19960594.8814  -33957548.31649 -26182968.65647  19960595.3804   19960604.7284
      -543.7764       -423.7214
  21451710.3024  -30159871.07648 -23255415.52946  21451711.2574   21451721.3424
     -2600.7944      -2026.5924
  20033732.5524  -31932768.90449 -24858488.17847  20033733.3284   20033741.3114
      2191.8964       1707.9694
  21543231.8284  -18933742.63748 -14474365.07446  21543232.0594   21543240.7174
     -1739.5564      -1355.5004
  23207431.8604   -8494150.51747  -6350356.11645  23207433.4334   23207442.6594
      3463.9764       2699.1994
  21047505.6464  -22858232.99048 -17502064.79747  21047506.5854   21047516.2174
      2498.0124       1946.5044
 97  9 18  2 15 29.9970000  0  8G 4G29G16G14G18G22G13G19
  23850678.7294   -9375689.79647  -7061525.55145  23850680.5444   23850690.8134
      -852.2414       -664.0844
  23214886.0194  -23591258.76447 -18064210.18445  23214886.7334   23214895.7534
     -2045.0874      -1593.5754
  19963747.8904  -33940981.52649 -26170059.47647  19963748.2054   19963757.5254
      -559.4244       -435.9154
  21466583.9234  -30081712.77148 -23194512.97746  21466584.7304   21466594.0114
     -2608.3514      -2032.4824
  20021240.1544  -31998415.54149 -24909641.37947  20021241.0044   20021248.8324
      2185.7334       1703.1684
  21553199.4524  -18881364.05548 -14433550.59646  21553199.7714   21553208.0714
     -1751.1824      -1364.5594
  23187652.3454   -8598096.74447  -6431353.13846  23187652.9884   23187662.5814
      3466.9424       2701.5104
  21033259.5234  -22933096.95248 -17560400.31847  21033260.4514   21033270.3394
      2493.9504       1943.3364
 97  9 18  2 15 59.9970000  0  8G 4G29G16G14G18G22G13G19
  23855588.7414   -9349890.05847  -7041421.91045  23855590.1024   23855600.3144
      -865.5754       -674.4764
  23226589.0614  -23529759.23247 -18016288.48545  23226589.2814   23226598.2984
     -2052.3974      -1599.2684
  19967004.9204  -33923866.52049 -26156723.11747  19967005.2454   19967014.3794
      -579.0184       -451.1824
  21481513.6794  -30003256.85448 -23133378.52346  21481514.2604   21481524.0644
     -2619.5234      -2041.1854
  20008798.9514  -32063794.41449 -24960585.93047  20008799.6814   20008807.7264
      2175.3534       1695.0794
  21563247.4474  -18828561.25348 -14392405.55446  21563247.7014   21563256.2424
     -1766.5454      -1376.5284
  23167870.2724   -8702052.55547  -6512357.61045  23167871.4674   23167880.2854
      3465.9544       2700.7414
  21019053.0604  -23007752.68148 -17618573.57547  21019053.9124   21019063.5414
      2485.4034       1936.6764
 97  9 18  2 16 29.9970000  0  8G 4G29G16G14G18G22G13G19
  23860568.5544   -9323719.80147  -7021029.57145  23860570.4174   23860581.1334
      -877.8994       -684.0714
  23238324.9214  -23468084.28947 -17968230.09345  23238325.6934   23238334.2134
     -2057.8814      -1603.5394
  19970363.8174  -33906212.56349 -26142966.79247  19970364.3754   19970373.9374
      -596.6154       -464.8944
  21496497.6114  -29924512.59548 -23072019.38846  21496498.4424   21496508.6634
     -2628.7604      -2048.3824
  19996409.0404  -32128904.88349 -25011321.33647  19996409.7034   19996417.6444
      2166.7014       1688.3384
  21573375.2524  -18775338.07148 -14350932.95246  21573375.6084   21573384.3074
     -1780.4944      -1387.4014
  23148083.7854   -8806029.18347  -6593378.30545  23148085.0664   23148093.1114
      3467.0434       2701.5914
  21004888.5174  -23082187.08948 -17676574.37047  21004889.4594   21004898.9874
      2478.0744       1930.9664
 97  9 18  2 16 59.9970000  0  8G 4G29G16G14G18G22G13G19
  23865625.4634   -9297150.37247  -7000326.17945  23865626.2124   23865636.4544
      -892.8174       -695.7024
  23250094.3554  -23406237.62747 -17920037.90245  23250094.1534   23250103.2974
     -2064.6994      -1608.8634
  19973826.6404  -33888016.50149 -26128788.05047  19973826.9854   19973836.8394
      -615.9644       -479.9724
  21511536.4714  -29845481.92748 -23010437.06946  21511537.5834   21511547.6594
     -2639.5464      -2056.7874
  19984070.6184  -32193743.37849 -25061844.82047  19984071.2974   19984079.3364
      2156.4074       1680.3164
  21583585.4064  -18721685.77048 -14309125.96647  21583585.6724   21583593.9394
     -1796.0444      -1399.5164
  23128295.4524   -8910015.07547  -6674406.22245  23128296.7484   23128305.5464
      3465.8294       2700.6444
  20990772.1674  -23156371.10248 -17734380.05747  20990772.9214   20990782.1694
      2467.8234       1922.9774
 97  9 18  2 17 29.9970000  0  8G 4G29G16G14G18G22G13G19
  23870765.9094   -9270136.49147  -6979276.44445  23870766.7054   23870776.3184
      -906.7434       -706.5514
  23261899.8154  -23344199.74747 -17871696.71545  23261900.9954   23261908.8614
     -2070.0024      -1612.9934
  19977399.4334  -33869240.02449 -26114157.03547  19977399.9264   19977409.4534
      -634.7684       -494.6254
  21526636.2874  -29766134.75448 -22948608.13246  21526636.8924   21526647.2094
     -2649.2074      -2064.3154
  19971789.7334  -32258279.05749 -25112132.34147  19971790.5014   19971798.4834
      2147.1814       1673.1264
  21593885.6484  -18667558.30248 -14266948.72047  21593885.6914   21593894.3184
     -1811.3774      -1411.4624
  23108514.8534   -9013964.30947  -6755405.57345  23108515.9564   23108524.2404
      3465.2304       2700.1794
  20976713.9984  -23230247.49349 -17791946.03747  20976714.8304   20976724.0414
      2458.2884       1915.5484
 97  9 18  2 17 59.9970000  0  9G 4G29G16G14G 3G18G22G13G19
  23875979.2574   -9242745.05147  -6957932.50545  23875980.0244   23875989.8144
      -920.1094       -716.9644
  23273728.7104  -23282034.62747 -17823256.36845  23273730.1174   23273738.1134
     -2075.3114      -1617.1304
  19981076.1134  -33849919.62349 -26099102.17847  19981076.5504   19981086.0474
      -654.1364       -509.7174
  21541786.3254  -29686520.86148 -22886571.35946  21541786.9354   21541797.2674
     -2659.3754      -2072.2394
  24042147.9774   -2054603.46257  -1379951.94645  24042148.7304   24042158.7114
      2816.1134       2194.3704
  19959555.3354  -32322572.00449 -25162230.71547  19959556.0984   19959564.2014
      2138.0144       1665.9854
  21604268.6854  -18612994.27948 -14224431.30447  21604268.7344   21604277.9424
     -1827.2594      -1423.8384
  23088732.8344   -9117922.18547  -6836411.65246  23088733.9984   23088742.0414
      3464.3894       2699.5234
  20962706.3534  -23303857.70148 -17849304.60347  20962706.9284   20962716.4794
      2448.0804       1907.5934
 97  9 18  2 18 29.9970000  0  9G 4G29G16G14G 3G18G22G13G19
  23881261.9404   -9214972.65547  -6936291.73445  23881263.5974   23881275.4654
      -939.3234       -731.9384
  23285587.4464  -23219719.90047 -17774699.44345  23285587.5584   23285597.2724
     -2086.9644      -1626.2014
  19984860.7644  -33830030.40849 -26083604.09847  19984861.3034   19984870.8994
      -679.8004       -529.7154
  21556992.3134  -29606612.74648 -22824305.32446  21556993.2634   21557003.4144
     -2675.7834      -2085.0264
  24026084.4144   -2139021.10147  -1445731.86145  24026084.6714   24026096.1004
      2803.7114       2184.7084
  19947372.1134  -32386594.39949 -25212118.26847  19947372.8074   19947380.9964
      2122.1944       1653.6574
  21614742.8584  -18557952.84748 -14181541.88747  21614743.0614   21614751.6874
     -1850.0794      -1441.6194
  23068953.1494   -9221863.74848  -6917405.02946  23068954.6654   23068963.3984
      3456.9884       2693.7584
  20948755.8244  -23377168.58948 -17906429.93447  20948756.3954   20948765.7824
      2431.2704       1894.4964
 97  9 18  2 18 59.9970000  0  9G 4G29G16G14G 3G18G22G13G19
  23886616.5214   -9186832.15647  -6914364.08845  23886617.7714   23886629.4724
      -943.3884       -735.1084
  23297474.3504  -23157255.41347 -17726025.84545  23297475.4274   23297483.9944
     -2084.1804      -1624.0314
  19988752.5294  -33809578.66049 -26067667.67647  19988753.0714   19988762.3934
      -690.3704       -537.9494
  21572253.0204  -29526416.76448 -22761814.96946  21572253.8824   21572264.1364
     -2677.4654      -2086.3374
  24010051.7374   -2223271.45447  -1511381.40445  24010053.0434   24010062.3174
      2806.1224       2186.5884
  19935238.9454  -32450354.89449 -25261801.74047  19935239.7254   19935248.0884
      2121.6704       1653.2484
  21625306.3244  -18502438.85748 -14138284.23546  21625306.5964   21625315.1364
     -1857.5974      -1447.4784
  23049176.0864   -9325789.72847  -6998386.25946  23049177.5134   23049185.9634
      3464.7874       2699.8344
  20934861.0694  -23450184.29448 -17963325.25147  20934861.8654   20934871.3564
      2429.8324       1893.3744
 97  9 18  2 19 29.9970000  0  9G 4G29G16G14G 3G18G22G13G19
  23892040.5804   -9158336.23947  -6892159.50445  23892041.8044   23892052.7614
      -960.6174       -748.5384
  23309393.3234  -23094621.08447 -17677219.89745  23309394.3004   23309403.7794
     -2095.8284      -1633.1134
  19992750.3514  -33788572.58549 -26051299.31247  19992750.6624   19992759.8544
      -714.4504       -556.7144
  21587569.9814  -29445922.61848 -22699092.28546  21587571.2294   21587582.0474
     -2693.2204      -2098.6124
  23994054.2974   -2307339.80947  -1576889.16145  23994055.0404   23994063.9304
      2794.0144       2177.1504
  19923157.2254  -32513843.53649 -25311273.38247  19923157.9554   19923166.7294
      2106.3984       1641.3484
  21635960.0564  -18446455.18748 -14094660.60346  21635960.2084   21635968.8124
     -1878.8024      -1464.0014
  23029401.1384   -9429711.52147  -7079364.24046  23029402.0904   23029410.2584
      3458.8894       2695.2364
  20921018.7624  -23522926.96049 -18020007.81647  20921019.5394   20921028.8484
      2415.2904       1882.0424
 97  9 18  2 19 59.9970000  0  9G 4G29G16G14G 3G18G22G13G19
  23897523.5554   -9129522.84847  -6869707.57345  23897524.8284   23897536.1144
      -965.0634       -751.9974
  23321341.4324  -23031830.51647 -17628292.19145  23321342.3174   23321352.0924
     -2095.0444      -1632.5124
  19996846.5064  -33767046.36849 -26034525.64647  19996846.9104   19996856.3444
      -725.3494       -565.2064
  21602940.1984  -29365155.05248 -22636156.54646  21602941.0624   21602951.5584
     -2696.0874      -2100.8464
  23978088.3664   -2391237.99047  -1642264.29945  23978089.7434   23978098.3284
      2794.4844       2177.5234
  19911126.5274  -32577066.85049 -25360538.27447  19911127.2184   19911135.6014
      2103.6494       1639.2064
  21646693.9674  -18390047.83448 -14050706.83646  21646694.3054   21646702.8664
     -1886.5144      -1470.0134
  23009621.2904   -9533657.00148  -7160360.66346  23009621.7234   23009629.9824
      3466.0374       2700.8044
  20907221.4024  -23595433.45048 -18076506.35247  20907222.1044   20907231.0004
      2413.8624       1880.9314
 97  9 18  2 20 29.9970000  0  9G 4G29G16G14G 3G18G22G13G19
  23903067.4724   -9100390.01847  -6847006.72345  23903068.3024   23903079.7724
      -978.0164       -762.0924
  23333319.9084  -22968884.93047 -17579243.67845  23333320.4234   23333329.9134
     -2102.2484      -1638.1194
  20001038.4764  -33745019.31849 -26017361.71747  20001038.7914   20001048.0094
      -744.2474       -579.9334
  21618360.2674  -29284123.98448 -22573015.48246  21618360.8614   21618371.0814
     -2706.9954      -2109.3454
  23962155.8724   -2474970.83447  -1707510.59145  23962156.3194   23962166.5914
      2786.6754       2171.4394
  19899144.8724  -32640028.69849 -25409599.43247  19899145.5814   19899154.0044
      2092.8844       1630.8184
  21657504.6984  -18333235.07248 -14006437.17046  21657505.0804   21657513.7454
     -1901.9214      -1482.0174
  22989835.6104   -9637632.17448  -7241380.22046  22989836.2864   22989844.2314
      3464.6044       2699.6904
  20893462.7194  -23667734.47348 -18132844.77747  20893463.3724   20893472.4914
      2405.1254       1874.1214
 97  9 18  2 20 59.9970000  0  9G 4G29G16G14G 3G18G22G13G19
  23908685.1714   -9070869.96347  -6824004.12945  23908685.6534   23908697.3284
      -988.2334       -770.0524
  23345339.4504  -22905722.51747 -17530026.20945  23345340.0774   23345349.2404
     -2107.0034      -1641.8244
  20005339.7534  -33722417.15849 -25999749.65147  20005340.0154   20005348.9574
      -760.9994       -592.9864
  21633844.1484  -29202756.65448 -22509612.39646  21633844.3644   21633854.8794
     -2715.8644      -2116.2564
  23946267.7894   -2558461.19347  -1772567.93245  23946268.3974   23946278.0464
      2780.9704       2166.9804
  19887226.3644  -32702662.30649 -25458404.80947  19887227.1264   19887235.1614
      2084.1944       1624.0464
  21668403.9114  -18275963.11248 -13961809.68546  21668403.8124   21668412.4384
     -1914.6684      -1491.9464
  22970059.2204   -9741552.39347  -7322356.98846  22970060.5704   22970068.9454
      3464.9664       2699.9734
  20879754.8154  -23739770.65548 -18188976.83947  20879755.5354   20879764.1834
      2398.8564       1869.2384
 97  9 18  2 21 29.9970000  0  9G 4G29G16G14G 3G18G22G13G19
  23914364.6154   -9041027.04447  -6800749.93445  23914365.3684   23914374.8434
      -998.4244       -777.9924
  23357388.1944  -22842404.02047 -17480687.12545  23357389.4044   23357397.9044
     -2111.3434      -1645.2074
  20009741.0334  -33699288.02949 -25981726.96747  20009741.3624   20009750.2684
      -778.1794       -606.3734
  21649380.7944  -29121107.24848 -22445989.51046  21649381.4394   21649392.2164
     -2724.4834      -2122.9724
  23930417.1714   -2641752.88647  -1837470.49245  23930417.2294   23930427.3854
      2774.7734       2162.1614
  19875363.4184  -32765003.24349 -25506982.13747  19875364.0214   19875371.6594
      2074.8314       1616.7514
  21679379.0394  -18218286.73548 -13916867.07646  21679379.1764   21679387.7214
     -1927.5514      -1501.9894
  22950287.0154   -9845455.49847  -7403320.39146  22950288.3844   22950296.8174
      3464.7434       2699.7994
  20866087.1324  -23811592.80048 -18244942.11847  20866087.8574   20866097.0944
      2391.9044       1863.8204
 97  9 18  2 21 59.9970000  0  9G 4G29G16G14G 3G18G22G13G19
  23920104.2124   -9010857.81747  -6777241.49845  23920106.0304   23920117.4514
     -1010.2204       -787.1864
  23369466.3514  -22778930.60747 -17431227.33845  23369467.5844   23369476.2874
     -2117.5514      -1650.0494
  20014246.4334  -33675611.47849 -25963277.71947  20014246.9454   20014255.8224
      -797.6624       -621.5544
  21664970.7194  -29039179.52748 -22382149.74746  21664971.6784   21664982.1744
     -2734.6574      -2130.9024
  23914606.8694   -2724834.13547  -1902209.04645  23914608.2704   23914617.2124
      2766.6924       2155.8574
  19863555.0644  -32827054.60749 -25555333.82447  19863555.7244   19863563.6654
      2064.5634       1608.7514
  21690432.4534  -18160202.25548 -13871606.46246  21690432.2414   21690440.6884
     -1942.3014      -1513.4794
  22930522.0584   -9949326.23947  -7484258.57546  22930522.4504   22930530.6094
      3462.6754       2698.1864
  20852466.3654  -23883172.03649 -18300718.12147  20852467.0904   20852476.0884
      2382.7034       1856.6514
 97  9 18  2 22 29.9970000  0 10G 4G29G16G14G 3G27G18G22G13G19
  23925908.3464   -8980360.05047  -6753477.06145  23925909.8534   23925920.9124
     -1022.6214       -796.8424
  23381576.5774  -22715289.66947 -17381637.01045  23381577.2864   23381586.2934
     -2124.8514      -1655.7254
  20018859.3404  -33651370.56149 -25944388.70047  20018859.6984   20018868.7354
      -818.0494       -637.4404
  21680615.1964  -28956970.01748 -22318090.41146  21680615.9084   21680625.7344
     -2745.7544      -2139.5494
  23898839.8014   -2807695.42647  -1966776.23045  23898841.1584   23898849.8754
      2757.7214       2148.8764
  24310816.2724   -5230797.59357  -3810386.06145  24310817.1194   24310827.9634
      3360.0424       2618.2074
  19851802.9384  -32888810.93449 -25603455.61647  19851803.8134   19851812.0814
      2052.7784       1599.5664
  21701566.8204  -18101689.85448 -13826012.40846  21701566.9944   21701575.3264
     -1958.2494      -1525.9064
  22910765.4064  -10053144.41247  -7565155.80546  22910766.2944   22910775.3164
      3458.9784       2695.3084
  20838894.7744  -23954491.73649 -18356291.88647  20838895.4304   20838905.0014
      2372.0164       1848.3234
 97  9 18  2 22 59.9970000  0 10G 4G29G16G14G 3G27G18G22G13G19
  23931769.0274   -8949561.66647  -6729478.38145  23931770.8984   23931780.5774
     -1030.7174       -803.1534
  23393718.1494  -22651491.29847 -17331924.01445  23393717.9754   23393727.2724
     -2128.5744      -1658.6254
  20023575.9644  -33626584.22349 -25925074.68047  20023576.3654   20023585.7364
      -834.3774       -650.1644
  21696311.1904  -28874487.88648 -22253818.63946  21696311.5714   21696321.2654
     -2753.0824      -2145.2604
  23883110.7354   -2890345.59847  -2031178.88945  23883111.5934   23883122.5314
      2752.2714       2144.6234
  24291639.4694   -5331565.12547  -3888906.08145  24291640.1564   24291652.3424
      3357.8114       2616.4794
  19840108.2534  -32950269.29149 -25651345.22247  19840108.9214   19840117.0204
      2044.3524       1593.0014
  21712781.6694  -18042754.95948 -13780089.13846  21712781.8404   21712790.5674
     -1970.8444      -1535.7224
  22891017.1304  -10156921.25648  -7646020.83046  22891018.6294   22891026.9524
      3459.5634       2695.7604
  20825372.5844  -24025549.66149 -18411661.66547  20825373.3684   20825382.4144
      2365.0954       1842.9304
 97  9 18  2 23 29.9970000  0 10G 4G29G16G14G 3G27G18G22G13G19
  23937687.6774   -8918464.28247  -6705246.68345  23937689.0924   23937699.1654
     -1041.8144       -811.8034
  23405892.4164  -22587518.21247 -17282074.87845  23405893.2524   23405901.2084
     -2135.7104      -1664.1914
  20028395.6154  -33601257.65049 -25905339.69247  20028395.8434   20028404.9724
      -853.5404       -665.0954
  21712058.2484  -28791733.78048 -22189334.93946  21712059.1784   21712069.0984
     -2763.2054      -2153.1454
  23867421.6854   -2972789.09147  -2095420.48245  23867422.1994   23867432.9774
      2744.6254       2138.6674
  24272487.5204   -5432210.35947  -3967330.79345  24272488.8244   24272499.7834
      3352.7414       2612.5224
  19828471.4614  -33011420.08349 -25698995.17347  19828472.2334   19828480.4554
      2033.0924       1584.2274
  21724078.4924  -17983391.71548 -13733832.08346  21724078.6474   21724086.8284
     -1986.0824      -1547.5964
  22871274.2054  -10260676.01448  -7726868.65646  22871274.7154   22871282.8164
      3457.9474       2694.5004
  20811900.8664  -24096344.82749 -18466826.69947  20811901.6424   20811910.4174
      2355.1394       1835.1744
 97  9 18  2 23 59.9970000  0 10G 4G29G16G14G 3G27G18G22G13G19
  23943659.9154   -8887075.21847  -6680787.73045  23943661.2024   23943671.9354
     -1051.4634       -819.3224
  23418097.9414  -22523374.49247 -17232092.78345  23418098.5844   23418107.7274
     -2141.0984      -1668.3884
  20033315.6334  -33575400.19849 -25885191.03847  20033316.1484   20033325.3744
      -870.7684       -678.5214
  21727854.9334  -28708722.64548 -22124650.95546  21727855.7834   21727865.4374
     -2771.5324      -2159.6334
  23851769.2304   -3055050.96647  -2159520.59245  23851769.8284   23851780.3954
      2738.8654       2134.1824
  24253352.0054   -5532765.29847  -4045685.13645  24253352.9544   24253364.0624
      3350.4914       2610.7744
  19816890.1274  -33072281.60049 -25746419.71947  19816890.8264   19816898.9304
      2023.6444       1576.8654
  21735454.5164  -17923610.70648 -13687249.49146  21735454.7204   21735462.8944
     -2000.0214      -1558.4594
  22851531.5414  -10364423.33448  -7807710.67546  22851532.2424   22851540.2094
      3457.9174       2694.4744
  20798478.0604  -24166883.07149 -18521791.52647  20798478.7364   20798487.4064
      2346.8514       1828.7134
 97  9 18  2 24 29.9970000  0 10G 4G29G16G14G 3G27G18G22G13G19
  23949685.2214   -8855408.39747  -6656112.35745  23949686.1414   23949698.7894
     -1059.4214       -825.5234
  23430332.1734  -22459080.04247 -17181993.24445  23430333.1794   23430342.6544
     -2144.8784      -1671.3184
  20038329.4104  -33549052.22949 -25864660.16347  20038329.8344   20038339.3234
      -885.5014       -690.0004
  21743697.2574  -28625473.23148 -22059781.30246  21743697.6864   21743707.7254
     -2778.2034      -2164.8344
  23836145.7654   -3137151.78647  -2223495.22245  23836146.4264   23836156.0184
      2734.7094       2130.9434
  24234227.5814   -5633269.34447  -4123999.84245  24234228.3224   24234239.3204
      3350.2114       2610.5504
  19805360.5454  -33132868.35949 -25793630.17147  19805361.3154   19805369.8584
      2015.8354       1570.7804
  21746906.6234  -17863426.21248 -13640352.49946  21746907.0654   21746915.7944
     -2011.8504      -1567.6754
  22831784.9334  -10468186.51048  -7888565.06246  22831786.3074   22831794.8844
      3460.0374       2696.1344
  20785097.9564  -24237195.55749 -18576580.44347  20785098.7014   20785107.6154
      2340.8684       1824.0534
 97  9 18  2 24 59.9970000  0 10G 4G29G16G14G 3G27G18G22G13G19
  23955775.3124   -8823409.31647  -6631178.05045  23955776.3734   23955786.9764
     -1073.2964       -836.3334
  23442604.7724  -22394591.78947 -17131742.66245  23442604.9824   23442614.9164
     -2153.9224      -1678.3824
  20043446.4564  -33522163.77749 -25843708.13547  20043446.8884   20043455.9184
      -906.6144       -706.4534
  21759593.2074  -28541935.00548 -21994686.60646  21759594.1674   21759604.5454
     -2790.3724      -2174.3144
  23820562.8784   -3219034.13747  -2287299.57045  23820564.0624   23820574.9354
      2724.5464       2123.0194
  24215118.2514   -5733687.16247  -4202247.35945  24215118.6294   24215130.0524
      3344.9894       2606.4824
  19793891.2704  -33193140.30349 -25840595.31047  19793892.0844   19793900.2734
      2002.7284       1560.5654
  21758444.4494  -17802798.39348 -13593110.04946  21758444.5304   21758452.6774
     -2029.3264      -1581.2924
  22812042.5334  -10571933.01648  -7969406.45946  22812043.8394   22812052.2464
      3456.7324       2693.5564
  20771768.5464  -24307243.58749 -18631163.29047  20771769.1784   20771778.0884
      2329.4134       1815.1264
 97  9 18  2 25 29.9970000  0 10G 4G29G16G14G 3G27G18G22G13G19
  23961934.8004   -8791039.69447  -6605955.04645  23961935.9714   23961947.5894
     -1085.1794       -845.5904
  23454918.6514  -22329886.09247 -17081322.65745  23454919.6274   23454927.1884
     -2160.1124      -1683.2044
  20048673.8654  -33494693.27749 -25822302.55647  20048674.2164   20048683.2464
      -925.2454       -720.9694
  21775549.4664  -28458086.46648 -21929350.11146  21775550.1904   21775560.0484
     -2800.0044      -2181.8224
  23805029.3634   -3300666.58347  -2350909.22845  23805028.5904   23805038.5404
      2717.0374       2117.1814
  24196026.5284   -5834014.78747  -4280424.58545  24196027.2074   24196037.6404
      3343.1524       2605.0544
  19782485.8344  -33253075.48449 -25887298.03847  19782486.6494   19782495.2504
      1992.5394       1552.6284
  21770068.4154  -17741713.21448 -13545511.21846  21770068.4674   21770076.6684
     -2043.5964      -1592.4114
  22792312.2074  -10675622.67648  -8050203.54546  22792313.0234   22792321.5724
      3455.2184       2692.3774
  20758494.5224  -24376997.70249 -18685517.11747  20758495.2344   20758503.8294
      2320.2874       1808.0154
 97  9 18  2 25 59.9970000  0 10G 4G29G16G14G 3G27G18G22G13G19
  23968171.9724   -8758265.32947  -6580416.63445  23968173.0334   23968183.6034
     -1096.3984       -854.3374
  23467272.6654  -22264954.92547 -17030726.93745  23467273.8584   23467282.9204
     -2165.2204      -1687.1904
  20054016.2174  -33466618.81049 -25800426.35747  20054016.5244   20054025.6174
      -942.9144       -734.7384
  21791569.7944  -28373899.00548 -21863749.51646  21791570.3514   21791579.8114
     -2809.1784      -2188.9694
  23789550.2644   -3382017.92247  -2414299.81045  23789551.3754   23789560.0374
      2709.5964       2111.3774
  24176952.8444   -5934245.54147  -4358526.34045  24176953.8614   24176964.3834
      3341.8814       2604.0624
  19771147.4664  -33312660.62249 -25933728.00947  19771148.1174   19771156.5104
      1983.0594       1545.2414
  21781783.2714  -17680148.25348 -13497538.52546  21781783.8534   21781791.4644
     -2057.2724      -1603.0674
  22772598.7124  -10779215.47048  -8130925.13846  22772599.7294   22772608.5394
      3454.3634       2691.7074
  20745281.1324  -24446432.07249 -18739621.78847  20745281.9404   20745291.0474
      2312.0674       1801.6094
 97  9 18  2 26 29.9970000  0 10G 4G29G16G14G 3G27G18G22G13G19
  23974465.9954   -8725193.34247  -6554646.31845  23974466.9584   23974478.0684
     -1107.2714       -862.8054
  23479650.1254  -22199907.54247 -16980040.67645  23479651.4954   23479661.5634
     -2170.3514      -1691.1794
  20059452.5584  -33438052.14149 -25778166.62247  20059452.8144   20059461.5594
      -960.7404       -748.6284
  21807635.7114  -28289474.29548 -21797964.05046  21807636.3444   21807645.8084
     -2818.1144      -2195.9334
  23774103.8744   -3463180.16347  -2477543.04745  23774105.2934   23774114.1674
      2702.1684       2105.5834
  24157883.8674   -6034454.32747  -4436610.96045  24157884.5954   24157896.8274
      3339.4774       2602.1854
  19759857.0294  -33371990.42749 -25979959.01847  19759857.9354   19759866.5374
      1973.1484       1537.5184
  21793567.5414  -17618221.10748 -13449283.61246  21793567.9554   21793576.7254
     -2070.2304      -1613.1664
  22752884.0594  -10882814.99748  -8211651.97946  22752885.3494   22752894.1184
      3453.1344       2690.7524
  20732106.4604  -24515666.72849 -18793570.83647  20732107.0784   20732116.1264
      2304.2734       1795.5374
 97  9 18  2 26 59.9970000  0 10G 4G29G16G14G 3G27G18G22G13G19
  23980817.5884   -8691817.50247  -6528639.24745  23980818.5784   23980828.7814
     -1116.5574       -870.0394
  23492054.7974  -22134722.75447 -16929247.35745  23492055.9604   23492065.9564
     -2174.1664      -1694.1634
  20064990.5474  -33408949.79049 -25755489.47247  20064990.8504   20064999.7434
      -978.0824       -762.1424
  21823749.2134  -28204797.08348 -21731981.84246  21823749.8294   21823759.2754
     -2825.7154      -2201.8554
  23758700.3174   -3544131.60447  -2540622.04345  23758700.3444   23758710.2594
      2695.7634       2100.5964
  24138828.2614   -6134591.36347  -4514639.68445  24138828.8124   24138840.3154
      3337.5624       2600.6944
  19748622.2134  -33431029.81849 -26025963.72947  19748623.0524   19748631.7424
      1963.8654       1530.2854
  21805425.3074  -17555909.77548 -13400729.34046  21805425.6374   21805433.8474
     -2082.6794      -1622.8654
  22733175.5904  -10986382.85648  -8292354.15446  22733176.8034   22733185.3454
      3452.4704       2690.2344
  20718975.9894  -24584666.75049 -18847337.05447  20718976.8344   20718986.3034
      2296.8784       1789.7744
 97  9 18  2 27 29.9970000  0 10G 4G29G16G14G 3G27G18G22G13G19
  23987224.9514   -8658148.50547  -6502403.71045  23987225.7184   23987234.6184
     -1128.4684       -879.3274
  23504485.4224  -22069403.08147 -16878348.92445  23504486.4134   23504496.0144
     -2181.0594      -1699.5234
  20070628.4884  -33379320.14949 -25732401.44747  20070628.9194   20070638.2654
      -997.7744       -777.4864
  21839908.0874  -28119879.62648 -21665812.42846  21839908.7924   21839918.0874
     -2835.9614      -2209.8404
  23743334.1764   -3624881.00847  -2603543.59445  23743334.9484   23743342.3584
      2686.8114       2093.6194
  24119788.5524   -6234650.95247  -4592608.07745  24119789.1654   24119799.6304
      3332.3704       2596.6484
  19737444.6634  -33489769.70749 -26071735.06647  19737445.4184   19737454.0754
      1951.5464       1520.6834
  21817356.4624  -17493211.44048 -13351873.49446  21817356.5724   21817365.0484
     -2097.8804      -1634.7124
  22713474.6254  -11089912.48648  -8373026.52346  22713475.8354   22713484.0194
      3449.0504       2687.5684
  20705891.4854  -24653425.84849 -18900915.53847  20705892.1324   20705901.6174
      2286.4464       1781.6454
 97  9 18  2 27 59.9970000  0 10G 4G29G16G14G 3G27G18G22G13G19
  23993692.3654   -8624156.37747  -6475916.40645  23993693.0354   23993703.1144
     -1137.1764       -886.1024
  23516953.0604  -22003895.35047 -16827303.96045  23516953.5234   23516961.7184
     -2185.7854      -1703.2114
  20076374.7474  -33349124.19149 -25708872.13147  20076375.1934   20076384.3934
     -1014.8434       -790.7874
  21856120.1274  -28034688.69548 -21599429.91646  21856120.4174   21856129.4254
     -2843.0174      -2215.3364
  23728015.5644   -3705381.60847  -2666271.26045  23728016.3554   23728024.8534
      2680.0454       2088.3494
  24100774.0474   -6334569.78047  -4670466.77545  24100774.3924   24100786.0314
      3329.0054       2594.0264
  19726334.2644  -33548156.08649 -26117230.93547  19726334.8704   19726343.5194
      1941.1354       1512.5714
  21829370.6334  -17430078.00648 -13302678.61246  21829370.5084   21829378.8314
     -2110.5294      -1644.5674
  22693787.1574  -11193371.62148  -8453643.97546  22693788.3094   22693796.1574
      3448.5584       2687.1834
  20692861.7824  -24721898.18349 -18954270.57447  20692862.3754   20692871.8244
      2278.7104       1775.6174
 97  9 18  2 28 29.9970000  0 10G 4G29G16G14G 3G27G18G22G13G19
  24000203.3824   -8589939.39747  -6449253.88045  24000204.2904   24000216.0154
     -1144.5994       -891.8914
  23529439.9294  -21938266.00447 -16776164.21745  23529441.3864   23529450.6124
     -2189.9834      -1706.4794
  20082214.4754  -33318436.79749 -25684959.88247  20082214.8864   20082223.7224
     -1031.6814       -803.9074
  21872365.6674  -27949314.37448 -21532904.49846  21872366.7804   21872375.9964
     -2849.1904      -2220.1484
  23712732.3394   -3785696.17647  -2728853.99545  23712732.3334   23712742.2744
      2673.7084       2083.4054
  24081775.9514   -6434401.23747  -4748257.39745  24081776.6794   24081788.2264
      3326.1034       2591.7634
  19715279.7964  -33606248.06549 -26162497.40147  19715280.3524   19715288.8304
      1931.1714       1504.8084
  21841452.3634  -17366586.84048 -13253204.97846  21841452.6334   21841461.1144
     -2122.7774      -1654.1144
  22674099.1024  -11296831.94848  -8534262.35746  22674100.1094   22674108.4884
      3448.2584       2686.9544
  20679872.3614  -24790157.97949 -19007459.99047  20679873.0664   20679881.9324
      2271.1994       1769.7644
 97  9 18  2 28 59.9970000  0 10G 4G29G16G14G 3G27G18G22G13G19
  24006760.9114   -8555478.62047  -6422401.37845  24006761.5884   24006772.9964
     -1152.6404       -898.1584
  23541953.8624  -21872502.88447 -16724920.23345  23541955.0094   23541964.5774
     -2193.9594      -1709.5764
  20088152.9524  -33287228.83449 -25660642.00147  20088153.3794   20088162.3874
     -1048.3514       -816.8964
  21888649.9654  -27863738.38148 -21466221.93646  21888651.1624   21888660.7704
     -2855.5414      -2225.0974
  23697488.2064   -3865804.63847  -2791276.11545  23697488.4504   23697496.3044
      2667.0854       2078.2494
  24062795.2204   -6534144.53547  -4825979.29945  24062795.4904   24062807.3734
      3323.8794       2590.0294
  19704283.1384  -33664034.54849 -26207525.81747  19704283.9754   19704292.0614
      1921.5704       1497.3274
  21853607.6214  -17302711.35648 -13203431.86946  21853607.7344   21853615.8444
     -2135.1064      -1663.7194
  22654413.3954  -11400278.23848  -8614869.79346  22654415.0664   22654423.5704
      3448.5024       2687.1424
  20666929.3064  -24858173.66649 -19060459.18947  20666929.9964   20666939.3004
      2263.5934       1763.8384
 97  9 18  2 29 29.9970000  0  9G29G16G14G 3G27G18G22G13G19
  23554503.5474  -21806557.41547 -16673534.18145  23554504.3984   23554513.2664
     -2200.9074      -1714.9984
  20094196.1464  -33255473.26249 -25635897.40847  20094196.5394   20094205.3524
     -1067.3124       -831.6734
  21904982.8274  -27777910.13148 -21399342.80246  21904983.1164   21904993.4134
     -2864.9764      -2232.4464
  23682293.6394   -3945649.74247  -2853493.04645  23682294.0884   23682302.9914
      2657.3474       2070.6634
  24043836.3744   -6633770.96447  -4903610.14945  24043837.0524   24043849.5824
      3319.2584       2586.4284
  19693352.2364  -33721477.24449 -26252286.35447  19693352.9334   19693361.1044
      1909.4474       1487.8814
  21865842.0804  -17238418.95648 -13153333.88946  21865842.0254   21865850.5574
     -2149.4974      -1674.9324
  22634738.7144  -11503673.98848  -8695437.87046  22634740.0514   22634747.5664
      3446.0494       2685.2314
  20654039.7034  -24925906.37149 -19113237.88647  20654040.6264   20654049.9204
      2253.3484       1755.8544
 97  9 18  2 29 59.9970000  0  9G29G16G14G 3G27G18G22G13G19
  23567088.1734  -21740436.54247 -16622011.43245  23567087.9694   23567095.6114
     -2205.7814      -1718.7974
  20100340.7374  -33223183.15549 -25610736.29147  20100341.0264   20100350.0194
     -1083.9444       -844.6314
  21921363.8754  -27691826.59348 -21332264.74746  21921364.7014   21921375.1344
     -2872.7594      -2238.5124
  23667149.7224   -4025229.91447  -2915503.50445  23667150.4534   23667159.3714
      2649.0714       2064.2094
  24024899.0284   -6733291.85947  -4981158.75845  24024899.6034   24024910.8414
      3316.6964       2584.4324
  19682484.1254  -33778588.34149 -26296788.49847  19682485.0004   19682493.0414
      1899.2254       1479.9154
  21878151.2344  -17173730.91348 -13102927.62346  21878151.4444   21878160.6004
     -2161.7754      -1684.4994
  22615070.7444  -11607028.98648  -8775974.18846  22615072.1884   22615080.2334
      3445.4754       2684.7834
  20641201.7544  -24993372.81249 -19165809.10547  20641202.5274   20641211.8414
      2245.5504       1749.7784
 97  9 18  2 30 29.9970000  0  9G29G16G14G 3G27G18G22G13G19
  23579694.3954  -21674183.11247 -16570385.40145  23579695.5034   23579703.9034
     -2211.6184      -1723.3294
  20106577.8024  -33190404.13249 -25585194.20047  20106578.2984   20106587.9834
     -1101.7924       -858.5394
  21937789.2124  -27605511.00348 -21265005.87646  21937790.1214   21937800.6524
     -2881.8794      -2245.6204
  23652050.7684   -4104569.54047  -2977326.52345  23652052.5354   23652061.6074
      2639.9534       2057.1014
  24005973.8224   -6832746.59847  -5058655.81445  24005974.0184   24005984.2624
      3313.3894       2581.8574
  19671672.4934  -33835406.74349 -26341062.56547  19671673.0624   19671680.9164
      1888.2414       1471.3574
  21890530.4704  -17108676.06948 -13052235.54646  21890530.8924   21890539.7974
     -2175.5344      -1695.2214
  22595405.0194  -11710370.37148  -8856499.88746  22595406.5544   22595414.6794
      3443.5674       2683.2964
  20628407.8724  -25060605.28349 -19218198.00747  20628408.5644   20628417.6024
      2236.1514       1742.4554
 97  9 18  2 30 59.9970000  0  9G29G16G14G 3G27G18G22G13G19
  23592337.6024  -21607736.14447 -16518608.56445  23592338.2934   23592347.6004
     -2217.0464      -1727.5604
  20112920.8434  -33157072.90549 -25559221.82547  20112921.1814   20112930.7754
     -1118.8404       -871.8234
  21954268.1774  -27518912.63348 -21197526.65846  21954269.1864   21954279.9224
     -2890.0084      -2251.9534
  23637009.0574   -4183617.02647  -3038921.91745  23637010.5784   23637019.0534
      2631.0604       2050.1724
  23987069.4484   -6932089.48947  -5136065.72945  23987069.6734   23987080.5074
      3310.7534       2579.8064
  19660925.8174  -33891878.64349 -26385066.63147  19660926.5664   19660934.6404
      1877.8114       1463.2294
  21902991.8684  -17043192.68548 -13001209.52946  21902992.2284   21903000.5814
     -2188.7124      -1705.4874
  22575753.6074  -11813640.23548  -8936969.87446  22575754.9064   22575762.3654
      3442.2854       2682.3004
  20615669.7354  -25127546.00949 -19270359.57047  20615670.4554   20615679.3524
      2227.7784       1735.9304
 97  9 18  2 31 29.9970000  0  9G29G16G14G 3G27G18G22G13G19
  23605014.2644  -21541122.65647 -16466701.95845  23605015.4674   23605024.0804
     -2223.9374      -1732.9364
  20119359.9164  -33123235.53849 -25532855.05347  20119360.3294   20119369.4494
     -1137.1824       -886.1164
  21970793.3624  -27432074.50048 -21129860.60946  21970793.9394   21970804.5244
     -2899.2254      -2259.1384
  23622018.9974   -4262396.79247  -3100308.69445  23622019.4844   23622028.8354
      2620.9034       2042.2634
  23968180.8494   -7031352.15747  -5213413.12745  23968181.1774   23968191.9614
      3306.6874       2576.6354
  19650239.3624  -33948034.25649 -26428824.24247  19650240.3394   19650248.8654
      1865.8604       1453.9164
  21915526.5774  -16977324.26148 -12949883.47546  21915526.5354   21915535.1434
     -2202.6414      -1716.3454
  22556110.1834  -11916866.34548  -9017405.76046  22556111.4354   22556118.9474
      3439.4614       2680.0964
  20602979.8464  -25194230.68949 -19322321.62447  20602980.6654   20602989.5924
      2217.7464       1728.1124
 97  9 18  2 31 59.9970000  0  9G29G16G14G 3G27G18G22G13G19
  23617728.9804  -21474308.76347 -16414639.20645  23617729.4354   23617739.1424
     -2227.1084      -1735.4154
  20125902.9604  -33088851.96249 -25506062.66947  20125903.3584   20125912.3934
     -1151.9124       -897.5934
  21987368.1734  -27344973.50148 -21061989.72646  21987368.9154   21987379.0444
     -2904.3594      -2263.1384
  23607084.0074   -4340879.00047  -3161463.60445  23607084.2694   23607093.8804
      2614.3164       2037.1324
  23949313.6174   -7130499.59047  -5290670.72846  23949314.0644   23949324.6314
      3306.2594       2576.3034
  19639622.1144  -34003830.47649 -26472301.80147  19639622.7224   19639631.6724
      1857.0114       1447.0204
  21928139.6594  -16911038.41148 -12898232.15046  21928140.0844   21928149.0654
     -2213.4144      -1724.7394
  22536481.5704  -12020017.46548  -9097783.21146  22536482.6454   22536489.5234
      3440.2694       2680.7274
  20590345.6874  -25260622.70149 -19374055.62147  20590346.4644   20590355.7794
      2211.3304       1723.1114
 97  9 18  2 32 29.9970000  0  9G29G16G14G 3G27G18G22G13G19
  23630457.3384  -21407412.83047 -16362512.51545  23630459.5224   23630468.3824
     -2231.5484      -1738.8644
  20132528.6234  -33054032.89949 -25478930.94347  20132529.1854   20132538.4194
     -1168.5054       -910.5234
  22003968.5624  -27257740.54048 -20994016.01346  22003969.0104   22003979.0734
     -2910.2144      -2267.6964
  23592183.5944   -4419182.21247  -3222479.04445  23592184.0554   23592193.1054
      2607.0024       2031.4334
  23930446.2094   -7229646.70347  -5367928.11645  23930446.6664   23930457.2924
      3304.5834       2574.9994
  19629051.5914  -34059377.99849 -26515585.56447  19629052.3164   19629061.0394
      1847.1694       1439.3514
  21940813.6444  -16844439.71048 -12846337.04846  21940813.6484   21940822.6644
     -2225.3474      -1734.0364
  22516844.8154  -12123207.89248  -9178191.30146  22516846.0784   22516853.5144
      3440.1574       2680.6394
  20577747.6724  -25326825.03049 -19425641.81947  20577748.5124   20577757.5164
      2203.2734       1716.8344
 97  9 18  2 32 59.9970000  0  9G29G16G14G 3G27G18G22G13G19
  23643219.3104  -21340349.36347 -16310255.28145  23643220.5444   23643230.4374
     -2238.8894      -1744.5904
  20139256.5354  -33018678.05349 -25451381.72247  20139256.8724   20139266.1854
     -1187.9214       -925.6534
  22020608.7044  -27170292.28648 -20925874.54546  22020609.4644   22020620.0364
     -2919.3414      -2274.8114
  23577330.0454   -4497227.48847  -3283293.48045  23577331.2904   23577340.9904
      2596.3664       2023.1424
  23911594.9304   -7328710.97547  -5445120.92246  23911595.1264   23911606.2774
      3299.9964       2571.4204
  19618544.5364  -34114595.68949 -26558612.32347  19618544.9484   19618553.3924
      1834.3964       1429.3994
  21953558.0224  -16777466.00448 -12794149.73746  21953558.1204   21953566.7094
     -2239.0904      -1744.7474
  22497212.9764  -12226370.22048  -9258577.48646  22497214.3594   22497223.1154
      3437.7944       2678.8014
  20565200.6364  -25392760.96449 -19477020.43947  20565201.3654   20565210.5604
      2192.8104       1708.6824
 97  9 18  2 33 29.9970000  0  9G29G16G14G 3G27G18G22G13G19
  23656022.9104  -21273070.30947 -16257830.07145  23656024.1574   23656033.1774
     -2244.9514      -1749.3064
  20146093.9364  -32982746.45149 -25423383.08647  20146094.2864   20146103.9744
     -1206.1374       -939.8474
  22037302.3424  -27082565.43048 -20857515.97646  22037303.0034   22037313.7134
     -2927.7244      -2281.3424
  23562537.5194   -4574962.42547  -3343866.09845  23562538.6144   23562549.2624
      2587.3184       2016.0904
  23892769.8514   -7427637.51047  -5522206.38046  23892770.1404   23892780.7454
      3296.4944       2568.6904
  19608109.4274  -34169428.53149 -26601339.19747  19608110.3924   19608119.1284
      1822.5204       1420.1454
  21966380.7274  -16710086.65648 -12741646.32746  21966380.5194   21966388.6134
     -2251.6194      -1754.5124
  22477595.3184  -12329464.07248  -9338910.30146  22477596.5274   22477604.8024
      3436.5234       2677.8094
  20552713.1374  -25458382.40449 -19528154.00347  20552714.0444   20552723.1674
      2183.3154       1701.2834
 97  9 18  2 33 59.9970000  0  9G29G16G14G 3G27G18G22G13G19
  23668843.8174  -21205692.52947 -16205327.91445  23668844.7684   23668854.8344
     -2248.9304      -1752.4114
  20153019.2884  -32946353.97949 -25395025.32847  20153019.7494   20153029.3424
     -1222.3104       -952.4484
  22054028.7924  -26994667.28648 -20789023.94446  22054029.7544   22054040.4724
     -2934.2794      -2286.4514
  23547781.7364   -4652509.64247  -3404292.43845  23547782.2834   23547791.7814
      2580.1574       2010.5084
  23873948.3334   -7526541.84847  -5599274.56946  23873948.8084   23873960.0044
      3294.8354       2567.3984
  19597727.0304  -34223990.20149 -26643854.77247  19597727.7604   19597736.6584
      1812.8714       1412.6264
  21979259.7144  -16642402.90348 -12688905.71246  21979259.7914   21979268.7604
     -2262.8184      -1763.2374
  22457969.0404  -12432602.05748  -9419277.51646  22457970.0484   22457977.9984
      3436.9094       2678.1104
  20540262.8114  -25523809.14949 -19579135.85947  20540263.5844   20540272.9934
      2176.1654       1695.7114
 97  9 18  2 34 29.9970000  0  9G29G16G14G 3G27G18G22G13G19
  23681699.4064  -21138143.60147 -16152692.41945  23681699.1444   23681708.6264
     -2254.1314      -1756.4694
  20160049.3754  -32909411.77649 -25366239.20547  20160049.6724   20160059.2424
     -1240.3634       -966.5164
  22070803.5944  -26906516.28248 -20720334.87246  22070804.2674   22070814.7514
     -2942.2834      -2292.6864
  23533077.0414   -4729781.34147  -3464504.10745  23533077.7144   23533087.8234
      2571.3354       2003.6344
  23855149.3474   -7625332.42247  -5676254.10046  23855150.1894   23855160.7964
      3291.2714       2564.6214
  19587407.4074  -34278220.26349 -26686111.95547  19587408.1834   19587416.6424
      1802.4254       1404.4874
  21992212.0414  -16574336.05548 -12635866.59746  21992212.2994   21992221.4624
     -2274.7584      -1772.5374
  22438350.4254  -12535692.72748  -9499607.86046  22438351.5244   22438360.6954
      3435.8374       2677.2754
  20527863.6914  -25588966.44149 -19629907.75147  20527864.5164   20527873.7954
      2167.7714       1689.1734
 97  9 18  2 34 59.9970000  0  9G29G16G14G 3G27G18G22G13G19
  23694582.0214  -21070438.30247 -16099935.06845  23694583.3924   23694592.0964
     -2260.1584      -1761.1584
  20167181.0964  -32871934.21549 -25337035.92247  20167181.5034   20167190.8624
     -1258.6324       -980.7514
  22087623.0564  -26818130.48948 -20651462.84946  22087623.5104   22087633.8244
     -2950.6624      -2299.2174
  23518424.7274   -4806780.47547  -3524503.36445  23518425.4924   23518434.3284
      2561.3124       1995.8204
  23836370.2434   -7724015.77747  -5753150.08046  23836370.9814   23836381.8334
      3286.8544       2561.1834
  19577148.8674  -34332129.07449 -26728118.81247  19577149.6694   19577158.0264
      1790.7644       1395.4004
  22005232.4924  -16505914.62048 -12582551.17246  22005232.6714   22005241.4554
     -2287.5524      -1782.5104
  22418742.1394  -12638740.36848  -9579904.67446  22418743.0834   22418751.2794
      3433.1224       2675.1614
  20515511.6364  -25653877.86049 -19680488.05247  20515512.3054   20515521.5384
      2158.8024       1682.1834
 97  9 18  2 35 29.9970000  0  9G29G16G14G 3G27G18G22G13G19
  23707496.4084  -21002577.82647 -16047056.80245  23707497.4074   23707506.6794
     -2264.5064      -1764.5414
  20174411.9034  -32833936.50549 -25307427.32547  20174412.1624   20174421.5324
     -1275.4914       -993.8904
  22104483.9314  -26729524.39348 -20582419.16746  22104484.8694   22104495.1564
     -2957.1824      -2304.2974
  23503824.5564   -4883505.18447  -3584288.79645  23503824.8284   23503834.8484
      2552.7774       1989.1674
  23817612.9734   -7822585.26747  -5829957.34846  23817613.4604   23817624.6954
      3283.5754       2558.6234
  19566951.9804  -34385713.68049 -26769873.03747  19566952.6284   19566961.2174
      1780.6664       1387.5314
  22018324.5364  -16437113.91648 -12528940.23046  22018324.5834   22018334.0054
     -2300.0504      -1792.2474
  22399145.6654  -12741718.16448  -9660147.07446  22399146.9634   22399155.4504
      3431.1734       2673.6414
  20503207.3034  -25718536.27949 -19730871.21447  20503208.1774   20503217.2054
      2150.7804       1675.9314
 97  9 18  2 35 59.9970000  0  9G29G16G14G 3G27G18G22G13G19
  23720432.0314  -20934595.40047 -15994083.49745  23720432.9964   23720443.4434
     -2268.9044      -1767.9704
  20181737.7874  -32795438.55649 -25277428.93647  20181738.1414   20181747.3934
     -1292.4764      -1007.1254
  22121380.4154  -26640735.00148 -20513232.65546  22121381.4274   22121391.2054
     -2963.4074      -2309.1494
  23489273.2904   -4959974.21447  -3643875.00545  23489274.3234   23489283.2334
      2543.6514       1982.0604
  23798873.9664   -7921057.18447  -5906688.59646  23798874.3484   23798885.6154
      3279.8204       2555.7014
  19556811.5354  -34439001.97849 -26811396.37947  19556812.1974   19556820.7944
      1770.4134       1379.5424
  22031486.7074  -16367947.25848 -12475044.12546  22031486.8284   22031496.1014
     -2312.2694      -1801.7664
  22379559.4724  -12844643.74948  -9740348.77446  22379561.0504   22379569.4934
      3429.1104       2672.0324
  20490948.4024  -25782959.83449 -19781071.36847  20490949.0864   20490957.6014
      2142.6444       1669.5934
 97  9 18  2 36 29.9970000  0  8G16G14G 3G27G18G22G13G19
  20189163.7414  -32756414.23349 -25247020.38547  20189164.1284   20189173.4344
     -1307.0894      -1018.5114
  22138314.8864  -26551744.46648 -20443889.41446  22138315.5574   22138325.3874
     -2967.3804      -2312.2464
  23474778.8954   -5036142.19247  -3703226.62245  23474779.9024   23474788.5674
      2536.2004       1976.2584
  23780162.3304   -8019391.32447  -5983312.48346  23780162.4004   23780173.4654
      3277.8274       2554.1484
  19546735.7214  -34491949.54549 -26852654.22247  19546736.5494   19546744.9174
      1761.1674       1372.3384
  22044721.1414  -16298399.58848 -12420851.11946  22044721.3534   22044730.6304
     -2322.3084      -1809.5924
  22359989.5254  -12947486.26948  -9820485.77046  22359990.8614   22359998.7374
      3429.1454       2672.0594
  20478740.4814  -25847111.99649 -19831060.04247  20478741.0534   20478749.8054
      2136.1084       1664.4984
 97  9 18  2 36 59.9970000  0  8G16G14G 3G27G18G22G13G19
  20196678.1374  -32716924.98849 -25216249.55647  20196678.6454   20196688.0764
     -1323.9844      -1031.6754
  22155279.8874  -26462595.43948 -20374422.67646  22155280.2494   22155290.4154
     -2974.4484      -2317.7514
  23460334.9564   -5112049.88147  -3762375.41945  23460335.3814   23460343.6334
      2525.8924       1968.2264
  23761466.1944   -8117634.17347  -6059865.22746  23761466.6134   23761477.4344
      3273.2234       2550.5574
  19536722.7854  -34544571.69849 -26893658.49147  19536723.4604   19536731.6294
      1748.5694       1362.5224
  22058019.9974  -16228511.20848 -12366392.62646  22058020.3054   22058029.6744
     -2335.3564      -1819.7604
  22340426.9844  -13050290.48448  -9900592.91946  22340427.5394   22340435.7154
      3425.9174       2669.5454
  20466576.8184  -25911031.80049 -19880867.66447  20466577.4424   20466586.7404
      2126.6164       1657.1034
 97  9 18  2 37 29.9970000  0  8G16G14G 3G27G18G22G13G19
  20204277.8964  -32676987.79949 -25185129.68247  20204278.4104   20204287.9714
     -1338.3494      -1042.8694
  22172275.1154  -26373282.99648 -20304828.59846  22172275.8664   22172285.7314
     -2979.4994      -2321.6874
  23445939.1194   -5187696.85047  -3821321.05945  23445940.0114   23445948.3084
      2517.3754       1961.5904
  23742787.3374   -8215792.62247  -6136352.21546  23742787.9714   23742799.0664
      3270.9424       2548.7804
  19526770.8134  -34596870.28849 -26934410.63247  19526771.2644   19526779.4944
      1738.0364       1354.3134
  22071381.6814  -16158296.99248 -12311680.23246  22071381.8444   22071391.0654
     -2345.3984      -1827.5834
  22320871.5704  -13153053.69348  -9980668.10846  22320872.7074   22320880.4224
      3425.1654       2668.9564
  20454457.6204  -25974718.22649 -19930493.43447  20454458.3204   20454467.3914
      2119.3194       1651.4174
 97  9 18  2 37 59.9970000  0  8G16G14G 3G27G18G22G13G19
  20211963.7504  -32636598.26049 -25153657.32447  20211964.1794   20211973.5084
     -1353.5264      -1054.6954
  22189303.1424  -26283798.48848 -20235100.44446  22189303.9114   22189314.1484
     -2985.3344      -2326.2354
  23431597.9044   -5263061.40047  -3880046.62845  23431597.6194   23431606.9474
      2507.7134       1954.0574
  23724123.7834   -8313870.86947  -6212776.73246  23724124.2214   23724134.8004
      3268.4294       2546.8274
  19516883.9184  -34648824.58449 -26974894.49647  19516884.5174   19516892.6944
      1726.2974       1345.1674
  22084800.8144  -16087777.26948 -12256729.78346  22084800.9904   22084810.2744
     -2355.2394      -1835.2524
  22301324.9364  -13255768.95948 -10060705.93946  22301326.3334   22301334.1094
      3423.2564       2667.4714
  20442383.2714  -26038169.25249 -19979935.77947  20442384.0994   20442392.9424
      2111.4474       1645.2834
 97  9 18  2 38 29.9970000  0  8G16G14G 3G27G18G22G13G19
  20219735.9044  -32595756.17049 -25121832.32947  20219736.2284   20219745.5784
     -1369.2244      -1066.9274
  22206364.2704  -26194144.03948 -20165239.87446  22206365.1774   22206374.6204
     -2991.5044      -2331.0404
  23417308.8224   -5338143.89847  -3938552.43545  23417310.2224   23417318.3934
      2498.0294       1946.5214
  23705471.8834   -8411881.38247  -6289148.47045  23705472.9444   23705483.7564
      3265.8354       2544.8074
  19507063.8974  -34700427.24149 -27015104.35347  19507064.6424   19507072.8964
      1714.1314       1335.6874
  22098276.3944  -16016964.82548 -12201551.24246  22098276.5734   22098285.3014
     -2365.4814      -1843.2334
  22281788.8204  -13358431.14848 -10140702.42146  22281789.9484   22281797.9404
      3421.0264       2665.7344
  20430353.4684  -26101388.79049 -20029197.73647  20430354.0234   20430362.3084
      2103.4534       1639.0544
