     2.10           OBSERVATION DATA    G (GPS)             RINEX VERSION / TYPE
teqc  2000Feb29     CORS/NGS/NOAA       20000919 00:47:37UTCPGM / RUN BY / DATE
HP-UX 10.20|PA-RISC|cc A.10.32.03|=+|=|                     COMMENT
BIT 2 OF LLI FLAGS DATA COLLECTED UNDER A/S CONDITION       COMMENT
van1                                                        MARKER NAME
xxx                                                         MARKER NUMBER
CORS/NGS/NOAA       U.S. Coast Guard                        OBSERVER / AGENCY
05399               ASHTECH   Z-XII3    RD00                REC # / TYPE / VERS
10913               ASH700829.3                             ANT # / TYPE
 -2665274.3948 -4513294.0773  3622149.8540                  APPROX POSITION XYZ 
        0.0000        0.0000        0.0000                  ANTENNA: DELTA H/E/N
     1     1                                                WAVELENGTH FACT L1/2
     7    C1    L1    L2    P1    P2    D1    D2            # / TYPES OF OBSERV
    30.0000                                                 INTERVAL
 SNR is mapped to RINEX snr flag value [1-9]                COMMENT
  L1: 1 -> 1;  90 -> 5; 210 -> 9                            COMMENT
  L2: 1 -> 1; 150 -> 5; 250 -> 9                            COMMENT
teqc windowed: delta = 86400.000 sec                        COMMENT
  2000     9    18     0     0   30.0000000     GPS         TIME OF FIRST OBS
                                                            END OF HEADER
 00  9 18  0  0 30.0000000  0  9G 1G19G27G 8G22G28G20G 3G13
  20834117.6834  -20009519.29349 -15393809.77247  20834117.4424   20834133.5994
      -920.9934       -717.6584
  20772770.7314  -22558525.67648 -17109424.75447  20772770.6094   20772786.8434
       -56.4764        -44.0094
  21972548.6984  -18867914.73748 -14491347.14447  21972548.4474   21972567.0894
      1221.8314        952.0724
  23454051.8264   -6642992.57448  -5147348.03146  23454051.4654   23454077.9194
      2276.0354       1773.5204
  23687314.0624    2131433.60847   1676577.46645  23687313.0684   23687332.8014
     -3700.2434      -2883.3124
  21394373.0494  -15181700.76349 -11397447.71247  21394372.6104   21394387.4724
     -1690.0374      -1316.9124
  23392979.6084   -5489984.45747  -3912898.53145  23392979.1054   23393003.5514
     -3822.9674      -2978.9244
  23762520.8524   -6693621.52947  -5052517.01745  23762520.5864   23762542.3514
       985.8684        768.2014
  21503527.1444  -19791194.89748 -15412940.44247  21503527.4434   21503542.9504
      1614.6884       1258.1954
 00  9 18  0  1  0.0000000  0  9G 1G19G27G 8G22G28G20G 3G13
  20839419.8614  -19981657.80749 -15372099.52547  20839419.4784   20839435.4954
      -935.6364       -729.0674
  20773123.5884  -22556671.91948 -17107980.21947  20773123.2474   20773139.7104
       -66.3144        -51.6754
  21965599.1844  -18904436.54248 -14519805.55147  21965598.7694   21965617.1344
      1213.7594        945.7804
  23441082.9394   -6711148.03748  -5200455.80146  23441082.3644   23441108.3914
      2268.4194       1767.5864
  23708467.5194    2242594.91747   1763197.04945  23708467.1894   23708485.4194
     -3709.7784      -2890.7444
  21404076.6834  -15130708.45049 -11357713.44947  21404076.3504   21404091.0714
     -1708.6344      -1331.4024
  23414827.0874   -5375173.58347  -3823435.96845  23414826.6764   23414851.7304
     -3830.2294      -2984.5754
  23756941.6354   -6722938.99347  -5075361.68145  23756941.8434   23756963.6574
       969.3934        755.3664
  21494341.9824  -19839462.86448 -15450551.74347  21494342.1394   21494358.1404
      1603.9884       1249.8594
 00  9 18  0  1 30.0000000  0  9G 1G19G27G 8G22G28G20G 3G13
  20844792.8694  -19953422.03749 -15350097.63047  20844792.6334   20844808.5384
      -946.9174       -737.8574
  20773519.6754  -22554587.92448 -17106356.27547  20773519.6274   20773536.2654
       -72.7684        -56.7054
  21958682.2674  -18940782.40548 -14548126.87347  21958682.0594   21958700.7984
      1209.1344        942.1784
  23428144.2184   -6779139.58748  -5253435.87146  23428143.5534   23428169.4244
      2264.0944       1764.2154
  23729662.4924    2353975.45447   1849987.37845  23729662.1414   23729680.5544
     -3715.9204      -2895.5314
  21413873.9274  -15079223.78349 -11317595.51747  21413873.5424   21413888.3594
     -1723.8344      -1343.2474
  23436704.0774   -5260209.60147  -3733854.12945  23436704.1734   23436729.9034
     -3834.1554      -2987.6384
  23751444.4904   -6751825.60647  -5097870.60945  23751444.0564   23751466.6844
       956.1814        745.0744
  21485205.9804  -19887473.14548 -15487962.26147  21485206.1644   21485221.4744
      1596.5514       1244.0614
 00  9 18  0  2  0.0000000  0  9G 1G19G27G 8G22G28G20G 3G13
  20850225.4044  -19924874.64149 -15327852.90247  20850225.0814   20850241.0924
      -957.7684       -746.3114
  20773948.1474  -22552337.28348 -17104602.47347  20773947.9134   20773964.4154
       -78.7964        -61.4014
  21951787.0124  -18977015.93548 -14576360.66847  21951786.8794   21951805.6884
      1204.9494        938.9184
  23415224.5104   -6847030.30048  -5306337.37446  23415223.7234   23415250.4164
      2260.3924       1761.3364
  23750886.4264    2465509.67747   1936897.41345  23750885.5494   23750905.0784
     -3721.4304      -2899.8224
  21423752.5214  -15027312.04249 -11277144.82447  21423752.0544   21423766.5914
     -1738.4904      -1354.6644
  23458598.5544   -5145158.63547  -3644204.49745  23458597.6624   23458623.5254
     -3837.3964      -2990.1654
  23746018.0724   -6780342.57347  -5120091.47645  23746018.2954   23746040.1674
       943.3714        735.0944
  21476107.4074  -19935286.79548 -15525219.55047  21476107.4664   21476122.7514
      1589.5174       1238.5814
 00  9 18  0  2 30.0000000  0  9G 1G19G27G 8G22G28G20G 3G13
  20855739.7684  -19895897.72549 -15305273.51147  20855739.3134   20855755.1124
      -973.0914       -758.2524
  20774430.3044  -22549803.78248 -17102628.25147  20774430.1104   20774446.5274
       -89.2324        -69.5334
  21944935.8464  -19013020.52048 -14604416.07847  21944935.6664   21944954.0634
      1196.2834        932.1644
  23402345.2694   -6914703.02348  -5359069.01846  23402345.0684   23402372.4724
      2252.0284       1754.8144
  23772161.1064    2577312.04547   2024016.20045  23772160.7524   23772180.2564
     -3731.2324      -2907.4664
  21433734.0714  -14974857.83049 -11236271.45747  21433733.7274   21433747.8474
     -1757.5484      -1369.5164
  23480530.9224   -5029906.39447  -3554398.00745  23480529.7404   23480555.8934
     -3845.1324      -2996.1914
  23740683.7854   -6808370.72347  -5141931.43545  23740683.3804   23740705.6334
       926.0554        721.5954
  21467068.7224  -19982784.94148 -15562230.98847  21467068.7804   21467083.9204
      1577.9584       1229.5734
 00  9 18  0  3  0.0000000  0  9G 1G19G27G 8G22G28G20G 3G13
  20861328.7524  -19866526.93849 -15282387.21047  20861328.4724   20861344.3394
      -986.8624       -768.9834
  20774959.3894  -22547024.15548 -17100462.25747  20774959.0774   20774975.2754
       -98.0284        -76.3884
  21938120.9284  -19048832.45748 -14632321.37647  21938120.6394   21938139.0204
      1189.2324        926.6704
  23389502.4454   -6982193.92448  -5411658.97846  23389502.3024   23389529.4194
      2245.3594       1749.6154
  23793480.0994    2689343.52247   2111313.54945  23793479.2584   23793499.4274
     -3739.4174      -2913.8344
  21443811.6474  -14921899.47849 -11195005.24647  21443811.3234   21443825.8534
     -1774.9434      -1383.0704
  23502492.8864   -4914492.02347  -3464465.17245  23502492.8184   23502519.0584
     -3851.0844      -3000.8264
  23735436.6244   -6835944.29447  -5163417.15145  23735436.2634   23735458.1484
       910.2484        709.2814
  21458083.2944  -20030001.57148 -15599023.07547  21458083.5334   21458099.1574
      1567.9044       1221.7434
 00  9 18  0  3 30.0000000  0  9G 1G19G27G 8G22G28G20G 3G13
  20866995.8384  -19836746.80149 -15259181.95747  20866995.4954   20867011.2634
      -998.7014       -778.2074
  20775537.7554  -22543983.81248 -17098093.13447  20775537.6104   20775553.6044
      -104.9194        -81.7554
  21931345.1934  -19084437.04648 -14660065.10947  21931345.1034   21931363.7084
      1184.1814        922.7344
  23376697.1394   -7049487.90048  -5464095.51946  23376696.7984   23376723.7034
      2240.5994       1745.9144
  23814844.9754    2801616.15947   2198798.86345  23814844.5594   23814862.8914
     -3745.7104      -2918.7424
  21453987.2494  -14868424.18549 -11153336.28447  21453986.8554   21454001.9424
     -1790.3194      -1395.0504
  23524488.9334   -4798903.68147  -3374396.77045  23524488.3914   23524514.4784
     -3855.0104      -3003.8924
  23730279.6214   -6863046.20247  -5184535.34945  23730279.1104   23730301.2394
       896.3094        698.4174
  21449155.0974  -20076920.85748 -15635583.47247  21449155.2454   21449170.8034
      1559.7954       1215.4234
 00  9 18  0  4  0.0000000  0  9G 1G19G27G 8G22G28G20G 3G13
  20872734.2474  -19806591.51649 -15235684.37647  20872733.8074   20872749.4204
     -1012.3544       -788.8474
  20776159.3634  -22540717.97748 -17095548.27947  20776159.1354   20776174.8464
      -113.5404        -88.4754
  21924602.8654  -19119869.61248 -14687674.80347  21924602.5324   21924620.9244
      1177.2824        917.3614
  23363922.2584   -7116620.01248  -5516405.95646  23363921.8814   23363947.4184
      2234.0374       1740.7984
  23836247.9824    2914091.65947   2286442.17345  23836247.4614   23836267.0714
     -3753.5244      -2924.8304
  21464255.0394  -14814468.34549 -11111292.86447  21464254.6374   21464269.5654
     -1807.4584      -1408.4044
  23546510.7444   -4683179.06747  -3284222.14845  23546510.6544   23546536.9824
     -3860.5974      -3008.2484
  23725205.3314   -6889709.18047  -5205311.51645  23725205.4214   23725227.0764
       880.5444        686.1334
  21440276.7084  -20123575.15548 -15671937.38247  21440276.9344   21440292.4964
      1549.8044       1207.6384
 00  9 18  0  4 30.0000000  0  9G 1G19G27G 8G22G28G20G 3G13
  20878561.9754  -19775966.76149 -15211820.94247  20878561.5524   20878577.3394
     -1029.6484       -802.3234
  20776841.4604  -22537133.61449 -17092755.20847  20776841.2304   20776857.4204
      -125.7804        -98.0134
  21917910.6704  -19155036.79948 -14715077.71547  21917910.4184   21917928.4884
      1166.8504        909.2304
  23351196.3124   -7183496.56848  -5568517.27346  23351195.4964   23351220.8934
      2223.9514       1732.9414
  23857708.4384    3026861.58547   2374314.99845  23857707.6094   23857725.4714
     -3764.8944      -2933.6864
  21474631.2454  -14759940.48349 -11068803.72947  21474630.9134   21474646.3854
     -1828.1054      -1424.4934
  23568576.1304   -4567227.38247  -3193870.62345  23568575.7804   23568603.0584
     -3869.7834      -3015.3974
  23720233.6404   -6915837.33247  -5225670.94745  23720233.5264   23720255.2144
       860.9944        670.8994
  21431467.1924  -20169869.55548 -15708010.83547  21431467.5264   21431482.7754
      1536.1624       1197.0034
 00  9 18  0  5  0.0000000  0  9G 1G19G27G 8G22G28G20G 3G13
  20884483.1204  -19744848.75549 -15187573.18847  20884482.9074   20884498.9064
     -1044.4494       -813.8554
  20777588.2224  -22533207.68049 -17089696.00747  20777588.1184   20777604.3774
      -135.5224       -105.6034
  21911273.4044  -19189915.63348 -14742255.93947  21911273.1894   21911291.2294
      1158.8494        902.9964
  23338522.2014   -7250093.96048  -5620411.05246  23338521.6534   23338547.8624
      2216.2764       1726.9564
  23879226.7094    3139946.87247   2462433.60645  23879225.9234   23879244.7094
     -3773.6874      -2940.5404
  21485120.6374  -14704819.35649 -11025852.34047  21485120.4084   21485135.7354
     -1846.1744      -1438.5724
  23590688.6364   -4451028.49147  -3103326.46445  23590687.9404   23590714.2514
     -3876.3294      -3020.5034
  23715368.5054   -6941405.42147  -5245593.96745  23715368.2974   23715389.0514
       843.9484        657.6154
  21422731.2534  -20215778.56448 -15743783.98847  21422731.2134   21422746.6884
      1524.8844       1188.2184
 00  9 18  0  5 30.0000000  0  9G 1G19G27G 8G22G28G20G 3G13
  20890480.4434  -19713333.72749 -15163016.06947  20890480.1144   20890495.9734
     -1055.5314       -822.4914
  20778381.9284  -22529038.12249 -17086446.97947  20778381.7014   20778397.9084
      -141.4714       -110.2384
  21904672.1364  -19224603.47648 -14769285.34047  21904672.0384   21904690.2024
      1154.6574        899.7284
  23325883.7254   -7316509.48848  -5672163.11446  23325882.7494   23325908.4224
      2212.3214       1723.8744
  23900786.7904    3253247.57047   2550720.24245  23900785.7714   23900805.1854
     -3778.6794      -2944.4474
  21495704.7134  -14649203.88849 -10982515.77547  21495704.1704   21495719.1964
     -1860.5184      -1449.7494
  23612828.4634   -4334682.00947  -3012667.27245  23612827.3614   23612853.6184
     -3879.0524      -3022.6224
  23710591.5154   -6966508.58147  -5265154.72645  23710590.8224   23710611.9604
       830.5714        647.1994
  21414050.0974  -20261397.81748 -15779331.36547  21414050.2494   21414065.4714
      1517.3594       1182.3544
 00  9 18  0  6  0.0000000  0  9G 1G19G27G 8G22G28G20G 3G13
  20896549.6324  -19681440.19449 -15138164.00647  20896549.1944   20896565.3504
     -1070.3884       -834.0674
  20779217.9014  -22524644.38749 -17083023.23447  20779217.6494   20779233.8154
      -151.1504       -117.7804
  21898103.9334  -19259119.77148 -14796181.05947  21898103.6544   21898121.7884
      1146.7284        893.5514
  23313275.9294   -7382762.09048  -5723788.21746  23313275.2244   23313301.2494
      2204.7244       1717.9614
  23922383.2914    3366741.57147   2639157.89845  23922382.9164   23922401.8764
     -3787.3104      -2951.1734
  21506378.1704  -14593115.33649 -10938810.56747  21506377.6834   21506392.5714
     -1878.4554      -1463.7254
  23634993.1704   -4218210.06047  -2921910.32045  23634992.3844   23635018.3284
     -3885.4014      -3027.5724
  23705899.1374   -6991164.10247  -5284366.67645  23705899.1784   23705919.5734
       813.3804        633.7964
  21405420.6724  -20306744.11148 -15814666.03247  21405420.9484   21405436.4314
      1506.0174       1173.5174
 00  9 18  0  6 30.0000000  0  9G 1G19G27G 8G22G28G20G 3G13
  20902694.5154  -19649147.49649 -15113000.90047  20902694.2664   20902710.4544
     -1081.6814       -842.8674
  20780100.5254  -22520006.70449 -17079409.40147  20780100.1834   20780116.4304
      -157.2544       -122.5354
  21891572.1684  -19293444.65948 -14822927.63347  21891572.0904   21891589.9354
      1142.4044        890.1814
  23300702.8594   -7448831.78548  -5775270.79246  23300702.1764   23300728.4944
      2200.6244       1714.7634
  23944020.6084    3480444.91347   2727758.30445  23944019.9104   23944039.6664
     -3792.1924      -2954.9594
  21517145.0124  -14536535.47649 -10894722.52247  21517144.5184   21517159.2484
     -1892.7894      -1474.8954
  23657185.6424   -4101595.78947  -2831042.44145  23657184.3974   23657210.8674
     -3888.0234      -3029.6124
  23701296.5184   -7015349.62847  -5303212.39145  23701296.4454   23701317.4054
       799.7184        623.1564
  21396847.8674  -20351796.06948 -15849771.35047  21396847.9194   21396863.2644
      1498.2214       1167.4414
 00  9 18  0  7  0.0000000  0  9G 1G19G27G 8G22G28G20G 3G13
  20908906.0124  -19616507.64849 -15087567.28347  20908905.5834   20908921.6974
     -1095.2484       -853.4394
  20781019.2314  -22515178.21449 -17075646.96147  20781018.9524   20781035.1694
      -165.6144       -129.0504
  21885066.7864  -19327630.86248 -14849566.13947  21885066.5444   21885084.6424
      1135.7724        885.0144
  23288155.6674   -7514770.73148  -5826651.48846  23288155.2634   23288180.5784
      2194.2344       1709.7844
  23965687.3214    3594303.61747   2816479.65345  23965686.8844   23965703.6924
     -3799.3134      -2960.5194
  21527994.7134  -14479518.61149 -10850293.83147  21527994.3664   21528008.8804
     -1909.2834      -1487.7544
  23679392.2284   -3984894.15547  -2740106.50745  23679391.4504   23679419.1624
     -3892.9184      -3033.4264
  23696773.3044   -7039116.03647  -5321731.53145  23696772.8244   23696795.1644
       783.7484        610.7064
  21388320.6884  -20396604.23948 -15884686.70047  21388321.2254   21388336.2584
      1488.0534       1159.5194
 00  9 18  0  7 30.0000000  0  9G 1G19G27G 8G22G28G20G 3G13
  20915200.3384  -19583429.65049 -15061792.24347  20915200.0874   20915216.2584
     -1109.5874       -864.6124
  20781991.5244  -22510069.03449 -17071665.74847  20781991.3194   20782007.3184
      -174.6844       -136.1184
  21878604.9964  -19361588.38248 -14876026.44947  21878604.5894   21878622.6834
      1128.4244        879.2894
  23275649.1174   -7580488.72248  -5877860.00646  23275648.8424   23275674.4534
      2187.1374       1704.2504
  23987399.6104    3708405.23147   2905390.40445  23987398.5844   23987416.4214
     -3807.1054      -2966.5914
  21538944.0674  -14421976.78949 -10805456.08147  21538943.7074   21538959.1654
     -1926.4954      -1501.1604
  23701632.7994   -3868017.66747  -2649034.36445  23701632.1134   23701660.1234
     -3898.4344      -3037.7214
  23692348.2704   -7062370.64547  -5339851.84045  23692348.3864   23692369.0744
       766.9414        597.6144
  21379857.9824  -20441075.99848 -15919339.91147  21379858.0664   21379873.6334
      1477.1054       1150.9884
 00  9 18  0  8  0.0000000  0  9G 1G19G27G 8G22G28G20G 3G13
  20921574.0654  -19549937.67349 -15035694.61847  20921573.6384   20921589.5874
     -1123.0614       -875.1114
  20783012.5144  -22504704.15649 -17067485.29747  20783012.1754   20783028.3664
      -182.8704       -142.4974
  21872181.7734  -19395342.08648 -14902327.93647  21872181.4164   21872199.5814
      1121.9834        874.2694
  23263180.8134   -7646010.45348  -5928915.59446  23263180.0404   23263205.3874
      2180.9594       1699.4384
  24009151.8624    3822722.43147   2994469.24545  24009151.5374   24009169.9394
     -3813.8684      -2971.8614
  21549989.0254  -14363936.79249 -10760230.22747  21549988.6244   21550003.9074
     -1942.7094      -1513.7954
  23723903.5624   -3750994.05547  -2557847.55145  23723902.6124   23723928.6624
     -3902.9864      -3041.2774
  23688015.8964   -7085136.28247  -5357591.13245  23688015.9224   23688037.2234
       750.9414        585.1434
  21371454.3874  -20485234.62948 -15953749.11447  21371454.7744   21371470.1304
      1466.9884       1143.1044
 00  9 18  0  8 30.0000000  0  9G 1G19G27G 8G22G28G20G 3G13
  20928028.3414  -19516019.82249 -15009265.15047  20928028.0044   20928044.0194
     -1139.3364       -887.7934
  20784083.9304  -22499072.59449 -17063097.03747  20784083.6604   20784099.8514
      -193.8104       -151.0224
  21865799.4124  -19428880.85648 -14928461.94647  21865799.1924   21865817.2064
      1112.7544        867.0774
  23250751.6294   -7711324.50848  -5979809.35046  23250751.2834   23250776.4674
      2171.9654       1692.4284
  24030949.2054    3937262.72347   3083721.83145  24030948.2864   24030966.6644
     -3823.4004      -2979.2814
  21561130.3354  -14305389.14549 -10714608.78247  21561129.9424   21561145.0834
     -1961.6654      -1528.5674
  23746200.6234   -3633815.03947  -2466539.60345  23746201.0344   23746227.8214
     -3910.2494      -3046.9334
  23683779.2644   -7107399.76247  -5374939.14345  23683779.1664   23683800.5514
       732.0434        570.4224
  21363113.6224  -20529066.96548 -15987904.08547  21363113.6704   21363129.1504
      1453.9674       1132.9584
 00  9 18  0  9  0.0000000  0  9G 1G19G27G 8G22G28G20G 3G13
  20934572.9244  -19481628.29549 -14982466.59547  20934572.5244   20934588.5024
     -1151.1004       -896.9594
  20785215.5684  -22493127.65049 -17058464.58547  20785215.1674   20785231.0394
      -200.2214       -156.0154
  21859466.7174  -19462157.79948 -14954391.93847  21859466.5084   21859484.8144
      1108.0344        863.4004
  23238370.9794   -7776383.58148  -6030504.42646  23238369.7614   23238395.6354
      2167.4854       1688.9394
  24052796.1484    4052071.48147   3173183.60945  24052795.0544   24052813.1224
     -3828.2164      -2983.0474
  21572377.1124  -14246288.71149 -10668556.56747  21572376.6634   21572391.5104
     -1976.0614      -1539.7864
  23768537.9914   -3516436.10147  -2375075.92245  23768537.4974   23768565.5154
     -3912.7364      -3048.8624
  23679647.4504   -7129111.87547  -5391857.52645  23679646.8374   23679668.3834
       717.6974        559.2444
  21354843.2564  -20572523.30248 -16021766.04747  21354843.7704   21354859.2624
      1445.4504       1126.3214
 00  9 18  0  9 30.0000000  0  9G 1G19G27G 8G22G28G20G 3G13
  20941168.9864  -19446965.04549 -14955456.30147  20941168.6584   20941184.7734
     -1160.0744       -903.9544
  20786367.6984  -22487072.23249 -17053746.06147  20786367.4404   20786383.3244
      -203.8034       -158.8084
  21853145.6104  -19495375.76448 -14980275.97647  21853145.2844   21853163.3054
      1106.1544        861.9344
  23226000.1924   -7841390.13148  -6081158.55646  23225999.7464   23226025.0014
      2165.8314       1687.6494
  24074655.0604    4166943.71547   3262695.05845  24074654.0844   24074671.7364
     -3830.1664      -2984.5674
  21583689.9254  -14186840.01949 -10622232.95147  21583689.4684   21583704.5794
     -1987.5034      -1548.7044
  23790873.8574   -3399062.66247  -2283616.55045  23790872.4174   23790900.7084
     -3912.4024      -3048.6094
  23675582.5944   -7150473.46847  -5408502.77145  23675582.4684   23675603.6574
       706.0864        550.1964
  21346607.1484  -20615805.38848 -16055492.19447  21346607.4004   21346622.9204
      1439.6914       1121.8334
 00  9 18  0 10  0.0000000  0  9G 1G19G27G 8G22G28G20G 3G13
  20947829.3104  -19411963.47549 -14928182.40047  20947829.1634   20947845.4924
     -1174.8994       -915.5034
  20787553.5544  -22480840.78349 -17048890.39047  20787553.2074   20787569.0614
      -213.2164       -166.1434
  21846847.9404  -19528468.79148 -15006062.65447  21846847.6324   21846865.9854
      1098.4934        855.9664
  23213652.1934   -7906278.16048  -6131720.31646  23213651.5314   23213677.2174
      2158.3534       1681.8224
  24096537.7504    4281942.64447   3352305.14045  24096537.0894   24096554.5144
     -3837.9994      -2990.6604
  21595080.6314  -14126978.96849 -10575588.01547  21595080.3734   21595095.8634
     -2004.7654      -1562.1544
  23813220.9374   -3281631.38047  -2192112.10445  23813220.5184   23813247.3424
     -3917.8734      -3052.8754
  23671597.7024   -7171416.13647  -5424821.59445  23671597.4024   23671618.0654
       688.5454        536.5194
  21338417.0574  -20658844.72248 -16089029.18947  21338417.2954   21338432.7184
      1428.0384       1112.7534
 00  9 18  0 10 30.0000000  0  9G 1G19G27G 8G22G28G20G 3G13
  20954569.5614  -19376543.46249 -14900582.44847  20954569.2984   20954585.6774
     -1185.8724       -924.0524
  20788787.9774  -22474354.08749 -17043835.79847  20788787.6404   20788803.4694
      -218.7084       -170.4244
  21840589.2684  -19561357.47348 -15031690.10747  21840588.9944   21840607.1074
      1094.6734        852.9904
  23201341.8024   -7970967.90048  -6182127.56446  23201341.0454   23201366.4104
      2154.7534       1679.0194
  24118460.1564    4397144.65047   3442073.51445  24118459.4244   24118476.3564
     -3841.6154      -2993.4864
  21606565.3214  -14066628.13449 -10528561.40047  21606564.8684   21606580.1124
     -2018.0554      -1572.5104
  23835593.3164   -3164065.58747  -2100502.83445  23835591.9944   23835619.5894
     -3919.2744      -3053.9674
  23667707.6254   -7191858.68947  -5440750.71345  23667707.7554   23667727.3194
       674.8554        525.8534
  21330289.3324  -20701560.17748 -16122313.82247  21330289.2724   21330304.1194
      1420.2044       1106.6494
 00  9 18  0 11  0.0000000  0  9G 1G19G27G 8G22G28G20G 3G13
  20961372.1994  -19340795.98349 -14872727.32247  20961371.8094   20961388.2854
     -1195.8794       -931.8524
  20790053.2974  -22467703.99349 -17038653.88547  20790053.0644   20790068.9204
      -223.2594       -173.9694
  21834352.3294  -19594133.64748 -15057229.89947  21834351.9474   21834369.8434
      1091.8324        850.7774
  23189052.2454   -8035550.93648  -6232451.67946  23189051.7144   23189076.6274
      2152.0734       1676.9314
  24140402.0344    4512455.41647   3531926.51145  24140401.2294   24140418.2674
     -3844.3824      -2995.6474
  21618125.2534  -14005881.25449 -10481226.14947  21618124.7904   21618140.1004
     -2030.3224      -1582.0694
  23857972.3154   -3046459.67247  -2008862.32945  23857971.7894   23858000.5684
     -3919.7044      -3054.2964
  23663895.2694   -7211890.58047  -5456359.83445  23663895.3464   23663915.1064
       662.0274        515.8594
  21322205.2334  -20744040.79048 -16155415.47147  21322205.3414   21322219.7234
      1413.2634       1101.2384
 00  9 18  0 11 30.0000000  0  9G 1G19G27G 8G22G28G20G 3G13
  20968239.7794  -19304707.14549 -14844606.20047  20968239.3854   20968255.7664
     -1209.1624       -942.2014
  20791352.5984  -22460877.57149 -17033334.55047  20791352.1774   20791368.1794
      -230.9954       -179.9984
  21828138.7394  -19626784.41248 -15082671.97647  21828138.4284   21828156.7374
      1085.7604        846.0454
  23176784.8634   -8100013.92248  -6282682.25246  23176784.3824   23176809.5494
      2146.1934       1672.3484
  24162367.7024    4627885.88047   3621872.94645  24162367.2174   24162384.1884
     -3850.1644      -3000.1434
  21629762.2114  -13944727.25649 -10433573.70147  21629761.9094   21629777.6744
     -2045.7504      -1594.0894
  23880362.6684   -2928803.39647  -1917182.57645  23880362.1494   23880389.8864
     -3923.1684      -3057.0024
  23660164.2154   -7231496.92147  -5471637.35445  23660163.8274   23660183.5254
       645.9304        503.3224
  21314168.4694  -20786271.82548 -16188322.64647  21314168.8114   21314183.4124
      1403.0394       1093.2744
 00  9 18  0 12  0.0000000  0  9G 1G19G27G 8G22G28G20G 3G13
  20975183.6554  -19268217.45949 -14816172.74047  20975183.3244   20975199.7394
     -1223.7834       -953.5964
  20792696.0164  -22453816.48449 -17027832.40347  20792695.7594   20792711.8484
      -240.0794       -187.0754
  21821960.6614  -19659250.96848 -15107970.51947  21821960.1724   21821978.5094
      1078.3694        840.2844
  23164551.6284   -8164297.66548  -6332773.15546  23164551.2234   23164575.9444
      2138.9474       1666.7014
  24184366.4884    4743492.64247   3711956.54245  24184365.9034   24184382.9604
     -3857.2364      -3005.6634
  21641487.8604  -13883109.03049 -10385559.51547  21641487.5594   21641502.8644
     -2062.4474      -1607.1014
  23902772.7444   -2811040.29047  -1825419.59345  23902772.1824   23902800.2694
     -3927.8874      -3060.6724
  23656525.6804   -7250616.96747  -5486535.94045  23656525.4994   23656545.5534
       628.4414        489.6944
  21306191.0584  -20828192.60348 -16220988.10947  21306191.3934   21306206.2754
      1391.3854       1084.1934
 00  9 18  0 12 30.0000000  0  9G 1G19G27G 8G22G28G20G 3G13
  20982206.5674  -19231311.92849 -14787415.24747  20982206.2754   20982222.4984
     -1236.8104       -963.7464
  20794087.2174  -22446506.39449 -17022136.23547  20794086.8094   20794102.6874
      -247.5394       -192.8874
  21815820.3284  -19691518.87748 -15133114.27147  21815820.0814   21815837.9384
      1072.5854        835.7794
  23152355.7484   -8228387.96448  -6382713.32746  23152354.9804   23152379.6054
      2133.3574       1662.3434
  24206400.4904    4859287.24647   3802186.50645  24206400.4834   24206418.2964
     -3862.6734      -3009.8954
  21653304.2274  -13821014.36849 -10337174.06347  21653303.8474   21653318.7394
     -2077.4584      -1618.7994
  23925204.3104   -2693158.83747  -1733564.43145  23925204.0424   23925232.7844
     -3931.0074      -3063.1084
  23652983.1104   -7269234.17447  -5501042.69945  23652982.5264   23653002.7134
       612.4804        477.2514
  21298276.1194  -20869786.16648 -16253398.56347  21298276.3834   21298291.5474
      1381.2774       1076.3164
 00  9 18  0 13  0.0000000  0  9G 1G19G27G 8G22G28G20G 3G13
  20989310.4234  -19193982.95649 -14758327.79147  20989309.9144   20989325.9754
     -1251.8694       -975.4794
  20795526.6564  -22438940.70249 -17016240.90147  20795526.2834   20795542.4544
      -257.0334       -200.2854
  21809719.1054  -19723581.24948 -15158097.85847  21809718.6534   21809736.7084
      1064.7864        829.7014
  23140198.1824   -8292277.14148  -6432496.78746  23140197.3834   23140221.5994
      2125.7044       1656.3794
  24228472.7214    4975274.43947   3892566.68045  24228472.0034   24228488.0684
     -3870.0064      -3015.6134
  21665212.1444  -13758437.98549 -10288413.24747  21665211.6024   21665226.5444
     -2094.4434      -1632.0334
  23947660.5194   -2575154.51547  -1641613.52245  23947659.9284   23947688.2784
     -3935.9854      -3066.9884
  23649536.9304   -7287339.60747  -5515150.65545  23649536.7134   23649557.0274
       594.4184        463.1754
  21290424.8424  -20911043.63848 -16285547.11047  21290425.0174   21290440.6094
      1369.0924       1066.8204
 00  9 18  0 13 30.0000000  0  9G 1G19G27G 8G22G28G20G 3G13
  20996487.8304  -19156265.47849 -14728937.60847  20996487.4684   20996503.3184
     -1260.9964       -982.5914
  20797008.4224  -22431155.10349 -17010174.22947  20797008.0164   20797023.9594
      -260.4704       -202.9634
  21803650.0894  -19755473.76948 -15182949.09947  21803649.7974   21803667.5504
      1062.9734        828.2894
  23128071.5824   -8356000.77548  -6482151.26246  23128071.0034   23128094.8294
      2124.0264       1655.0734
  24250573.0034    5091415.54147   3983066.74945  24250572.1624   24250589.8614
     -3871.2134      -3016.5424
  21677204.6294  -13695417.59649 -10239306.47247  21677204.2834   21677219.2134
     -2105.3204      -1640.5084
  23970132.9674   -2457065.67947  -1549596.74545  23970132.5924   23970160.1514
     -3934.9444      -3066.1764
  23646182.0564   -7304967.10047  -5528886.19845  23646182.5794   23646203.2444
       582.3334        453.7604
  21282631.1244  -20951999.01148 -16317460.32647  21282631.4484   21282647.1364
      1362.8474       1061.9574
 00  9 18  0 14  0.0000000  0  9G 1G19G27G 8G22G28G20G 3G13
  21003728.4114  -19118215.21349 -14699288.10747  21003728.0464   21003744.0464
     -1274.2544       -992.9244
  20798521.0934  -22423206.09149 -17003980.20047  20798520.7804   20798536.5514
      -268.0604       -208.8754
  21797602.8154  -19787252.92448 -15207712.00347  21797602.6034   21797620.1474
      1057.0664        823.6854
  23115965.6114   -8419615.25148  -6531720.69346  23115965.0714   23115989.2934
      2118.2604       1650.5834
  24272692.1484    5207652.15747   4073641.20845  24272691.1814   24272707.0194
     -3876.4284      -3020.6094
  21689270.3094  -13632011.43849 -10189899.11047  21689269.9134   21689284.8674
     -2120.3344      -1652.2064
  23992610.5464   -2338951.41547  -1457560.13445  23992609.7254   23992638.2394
     -3937.9074      -3068.4804
  23642908.7264   -7322170.91647  -5542291.58745  23642908.1964   23642929.0184
       565.9984        441.0404
  21274884.6644  -20992706.76748 -16349180.62847  21274884.8924   21274900.5044
      1352.4154       1053.8284
 00  9 18  0 14 30.0000000  0  9G 1G19G27G 8G22G28G20G 3G13
  21011030.7334  -19079841.82049 -14669386.80747  21011030.3214   21011046.4474
     -1284.7714      -1001.1194
  20800062.7584  -22415104.41149 -16997667.23047  20800062.5834   20800078.2434
      -272.8734       -212.6264
  21791575.4104  -19818929.09648 -15232394.65447  21791574.8974   21791592.4884
      1053.8734        821.1984
  23103879.0584   -8483130.69348  -6581212.97746  23103878.3694   23103902.5304
      2115.2194       1648.2114
  24294826.6194    5323971.20247   4164279.71345  24294826.4024   24294841.6324
     -3878.9464      -3022.5684
  21701406.9624  -13568232.02449 -10140200.89947  21701406.5474   21701421.8644
     -2132.4664      -1661.6614
  24015088.9634   -2220824.71047  -1365513.87345  24015088.7154   24015117.1084
     -3937.9814      -3068.5424
  23639713.9474   -7338959.41947  -5555373.36045  23639713.3874   23639734.1144
       552.4104        430.4494
  21267184.1334  -21033174.64548 -16380713.97147  21267183.9854   21267199.9284
      1344.6174       1047.7514
 00  9 18  0 15  0.0000000  0  9G 1G19G27G 8G22G28G20G 3G13
  21018401.7474  -19041106.80549 -14639203.72447  21018401.3414   21018417.4054
     -1297.9184      -1011.3624
  20801641.0624  -22406812.35049 -16991205.91147  20801640.4864   20801656.1094
      -280.2954       -218.4114
  21785574.0264  -19850464.49548 -15256967.60647  21785573.7284   21785591.4524
      1048.1024        816.6994
  23091817.5964   -8546508.88048  -6630598.28646  23091817.1464   23091842.0864
      2109.5494       1643.7944
  24316981.8054    5440408.58547   4255010.40045  24316980.9144   24316999.1134
     -3883.9304      -3026.4544
  21713621.8104  -13504043.26849 -10090183.73947  21713621.5014   21713636.8744
     -2147.1604      -1673.1094
  24037576.4314   -2102650.26747  -1273430.44045  24037575.7974   24037605.5614
     -3940.6374      -3070.6064
  23636605.6694   -7355292.83647  -5568100.50845  23636605.5014   23636625.7124
       536.1124        417.7414
  21259536.1284  -21073362.38348 -16412029.04647  21259536.3384   21259552.5184
      1334.2104       1039.6444
 00  9 18  0 15 30.0000000  0  9G 1G19G27G 8G22G28G20G 3G13
  21025836.6934  -19002035.64549 -14608758.70547  21025836.3644   21025852.2484
     -1309.2454      -1020.1894
  20803249.7144  -22398356.09849 -16984616.63247  20803249.4354   20803264.9884
      -285.8824       -222.7654
  21779594.7094  -19881885.07848 -15281451.08947  21779594.3834   21779612.1644
      1044.1734        813.6394
  23079778.5964   -8609775.54948  -6679896.71546  23079778.0734   23079802.8464
      2105.7104       1640.8064
  24339156.8734    5556935.71847   4345811.18745  24339155.2814   24339173.0174
     -3887.0314      -3028.8644
  21725908.8554  -13439473.29849 -10039869.52947  21725908.6284   21725924.3184
     -2159.9064      -1683.0404
  24060067.7904   -1984456.61447  -1181332.03345  24060068.1334   24060097.9024
     -3941.4314      -3071.2154
  23633579.3074   -7371195.37047  -5580491.89445  23633579.0764   23633599.4494
       521.6304        406.4624
  21251937.7094  -21113295.25748 -16443145.53647  21251937.8474   21251952.6504
      1325.5504       1032.8934
 00  9 18  0 16  0.0000000  0  9G 1G19G27G 8G22G28G20G 3G13
  21033362.5004  -18962486.12649 -14577940.93347  21033362.2344   21033378.1494
     -1325.1574      -1032.5894
  20804916.6894  -22389594.43549 -16977789.36447  20804916.6234   20804932.4074
      -296.0294       -230.6724
  21773664.3664  -19913049.44548 -15305734.93247  21773663.9674   21773681.6304
      1035.6874        807.0264
  23067787.6714   -8672789.07848  -6728997.91646  23067786.8484   23067811.3294
      2097.3054       1634.2584
  24361375.3924    5673691.54747   4436790.24945  24361374.8614   24361391.0684
     -3894.4834      -3034.6864
  21738295.4714  -13374382.67749  -9989149.61547  21738295.1834   21738310.2764
     -2177.2284      -1696.5394
  24082590.5764   -1866105.18947  -1089110.66645  24082589.8644   24082617.5124
     -3946.4854      -3075.1694
  23630662.1864   -7386523.85447  -5592435.97345  23630661.8074   23630682.4004
       502.4664        391.5254
  21244414.8764  -21152828.40648 -16473950.53147  21244414.8634   21244429.8674
      1312.2294       1022.5154
 00  9 18  0 16 30.0000000  0  9G 1G19G27G 8G22G28G20G 3G13
  21040961.7844  -18922553.22849 -14546824.41347  21040961.3294   21040977.2364
     -1338.3054      -1042.8354
  20806624.2044  -22380622.88549 -16970798.55347  20806623.8784   20806639.8084
      -303.3914       -236.4094
  21767764.2984  -19944053.04448 -15329893.49647  21767764.0164   21767781.6954
      1029.9284        802.5384
  23055826.4364   -8735644.79148  -6777976.15246  23055826.1364   23055849.9674
      2091.6804       1629.8754
  24383618.0114    5790578.20647   4527871.35445  24383616.9824   24383632.9624
     -3899.2984      -3038.4264
  21750762.5014  -13308868.81249  -9938099.91147  21750762.0024   21750777.2414
     -2191.6734      -1707.7934
  24105124.2464   -1747693.99147   -996842.70945  24105123.2834   24105153.6914
     -3948.8634      -3077.0184
  23627836.2084   -7401371.82747  -5604005.63745  23627835.8334   23627857.1844
       486.0724        378.7534
  21236949.9424  -21192055.96948 -16504517.43047  21236950.2554   21236964.8414
      1301.6184       1014.2494
 00  9 18  0 17  0.0000000  0  9G 1G19G27G 8G22G28G20G 3G13
  21048637.1294  -18882217.79049 -14515394.23247  21048636.8624   21048652.8984
     -1349.5164      -1051.5694
  20808375.1094  -22371422.98749 -16963629.79147  20808374.5934   20808390.6774
      -308.7544       -240.5884
  21761898.4464  -19974877.42148 -15353912.40547  21761898.2864   21761915.9094
      1026.2114        799.6424
  23043898.5894   -8798323.79348  -6826816.70546  23043898.0134   23043921.4964
      2087.9894       1627.0024
  24405888.0244    5907612.23547   4619067.30345  24405887.0974   24405902.4254
     -3901.8714      -3040.4374
  21763313.1444  -13242915.01649  -9886707.44247  21763312.6924   21763328.0934
     -2204.0684      -1717.4534
  24127670.3094   -1629206.94947   -904515.72045  24127669.7914   24127700.2674
     -3949.0614      -3077.1684
  23625106.0504   -7415718.73247  -5615184.84646  23625105.6604   23625126.4644
       471.5974        367.4704
  21229547.1824  -21230956.63348 -16534829.60447  21229547.4254   21229562.0974
      1292.9224       1007.4714
 00  9 18  0 17 30.0000000  0  9G 1G19G27G 8G22G28G20G 3G13
  21056379.3114  -18841533.80649 -14483692.45247  21056378.9094   21056394.7524
     -1361.3214      -1060.7694
  20810158.7624  -22362049.62749 -16956325.83747  20810158.3834   20810174.1544
      -314.7444       -245.2574
  21756056.3414  -20005577.14748 -15377834.17247  21756056.0734   21756073.7734
      1021.8894        796.2744
  23031994.3334   -8860880.50548  -6875561.94946  23031993.7244   23032017.7564
      2083.7774       1623.7144
  24428174.0394    6024736.27847   4710333.37245  24428173.1394   24428188.5594
     -3904.9394      -3042.8334
  21775936.5044  -13176578.07049  -9835016.41147  21775936.2504   21775951.3474
     -2216.9904      -1727.5214
  24150222.8654   -1510701.32347   -812174.25545  24150222.7304   24150252.8354
     -3949.8204      -3077.7564
  23622461.5084   -7429617.47847  -5626014.83546  23622461.0554   23622481.9254
       456.4474        355.6654
  21222196.7994  -21269583.86848 -16564928.69947  21222196.9544   21222211.3104
      1283.6104       1000.2134
 00  9 18  0 18  0.0000000  0 10G 1G31G19G27G 8G22G28G20G 3G13
  21064187.8804  -18800501.21949 -14451719.04347  21064187.2604   21064203.3524
     -1374.6824      -1071.1804
  23459511.1244    -351632.50247    -88178.78645  23459510.2654   23459534.5964
      2364.9264       1842.7954
  20811974.9054  -22352503.44749 -16948887.22547  20811974.7934   20811990.6784
      -322.1984       -251.0654
  21750237.7324  -20036152.80148 -15401659.26347  21750237.4644   21750255.3144
      1016.0274        791.7064
  23020113.0124   -8923315.37848  -6924212.26346  23020112.3584   23020137.1354
      2077.9614       1619.1824
  24450477.9694    6141947.02847   4801667.14845  24450478.1984   24450495.2254
     -3909.5264      -3046.4044
  21788632.3574  -13109860.54049  -9783028.81147  21788632.0644   21788647.6314
     -2231.3534      -1738.7134
  24172777.9994   -1392180.43447   -719820.84645  24172776.7054   24172806.3934
     -3951.9824      -3079.4524
  23619901.6534   -7443067.13247  -5636494.88346  23619901.4654   23619921.4984
       439.7034        342.6174
  21214898.3464  -21307935.73848 -16594813.16547  21214898.6024   21214912.9864
      1272.6914        991.7034
 00  9 18  0 18 30.0000000  0 10G 1G31G19G27G 8G22G28G20G 3G13
  21072067.0344  -18759095.60749 -14419454.95347  21072066.4824   21072082.6334
     -1386.8034      -1080.6254
  23446028.2584    -422485.17847   -143388.40745  23446027.5194   23446049.7564
      2357.4954       1837.0054
  20813828.9724  -22342760.67949 -16941295.40347  20813828.7474   20813844.6274
      -328.4394       -255.9274
  21744447.2874  -20066580.60948 -15425369.14847  21744447.0094   21744464.8764
      1011.4104        788.1094
  23008259.4744   -8985604.27848  -6972748.82546  23008258.8804   23008283.5734
      2073.4454       1615.6634
  24472803.8884    6259265.84347   4893084.94346  24472803.4914   24472819.7174
     -3912.8374      -3048.9794
  21801405.2084  -13042740.79849  -9730727.77947  21801404.6814   21801420.1754
     -2244.3894      -1748.8734
  24195337.4634   -1273622.84147   -627438.85245  24195337.7854   24195367.3684
     -3952.8574      -3080.1374
  23617433.1624   -7456041.64147  -5646604.65246  23617432.8154   23617452.7984
       424.1474        330.4984
  21207657.4934  -21345986.60748 -16624463.10547  21207657.4744   21207672.3284
      1262.9304        984.0994
 00  9 18  0 19  0.0000000  0 10G 1G31G19G27G 8G22G28G20G 3G13
  21080035.8034  -18717215.93949 -14386821.44747  21080035.6874   21080052.0684
     -1402.4874      -1092.8464
  23432608.6734    -493003.39447   -198337.33445  23432608.2244   23432629.9154
      2346.3404       1828.3034
  20815739.5404  -22332720.87549 -16933472.12547  20815739.2674   20815755.1034
      -338.2034       -263.5364
  21738704.2204  -20096759.94948 -15448885.41647  21738703.8964   21738721.8104
      1003.2704        781.7664
  22996452.9654   -9047646.45748  -7021093.12646  22996452.4674   22996476.7114
      2065.3104       1609.3234
  24495168.5724    6376791.38648   4984663.71546  24495167.6204   24495183.9194
     -3919.6294      -3054.2684
  21814272.8504  -12975120.06949  -9678036.37547  21814272.4734   21814287.8054
     -2260.9634      -1761.7884
  24217925.1694   -1154930.56147   -534951.89445  24217924.3604   24217955.0644
     -3957.2094      -3083.5194
  23615073.7044   -7468438.78747  -5656264.51346  23615073.2374   23615093.2264
       404.9794        315.5624
  21200493.3374  -21383632.83748 -16653797.73447  21200493.5644   21200508.7914
      1249.5184        973.6494
 00  9 18  0 19 30.0000000  0 10G 1G31G19G27G 8G22G28G20G 3G13
  21088083.3844  -18674928.33249 -14353870.06947  21088082.9584   21088099.0694
     -1416.0224      -1103.3924
  23419241.0244    -563250.28647   -253074.84945  23419240.5874   23419262.3274
      2337.3274       1821.2784
  20817693.7644  -22322450.84049 -16925469.43947  20817693.5144   20817709.2554
      -345.8084       -269.4624
  21732995.3624  -20126757.36248 -15472259.93447  21732995.3094   21733013.5294
       997.2684        777.0894
  22984681.3294   -9109508.11348  -7069296.75046  22984680.6864   22984704.3254
      2059.4024       1604.7224
  24517558.1954    6494454.97447   5076350.11945  24517556.9214   24517572.7704
     -3924.1194      -3057.7774
  21827222.9934  -12907067.02749  -9625008.10747  21827222.7284   21827238.2144
     -2275.2504      -1772.9194
  24240524.8324   -1036172.84947   -442413.99045  24240523.4844   24240553.7624
     -3959.2594      -3085.1244
  23612811.5224   -7480323.77447  -5665525.29246  23612811.5674   23612831.1174
       387.9734        302.3084
  21193393.9794  -21420939.90348 -16682868.06647  21193394.3034   21193409.6654
      1238.2914        964.8984
 00  9 18  0 20  0.0000000  0 10G 1G31G19G27G 8G22G28G20G 3G13
  21096199.8954  -18632275.41049 -14320634.02947  21096199.3644   21096215.6684
     -1427.4934      -1112.3324
  23405916.9444    -633265.21447   -307631.61345  23405916.5574   23405938.8064
      2330.2914       1815.7964
  20819683.6484  -22311994.13349 -16917321.32547  20819683.3304   20819699.1114
      -351.3044       -273.7454
  21727313.7194  -20156616.07448 -15495526.37147  21727313.3644   21727331.4534
       993.3664        774.0494
  22972935.6524   -9171232.37648  -7117393.31446  22972935.1114   22972958.4794
      2055.5194       1601.6954
  24539964.1524    6612211.00646   5168108.77845  24539963.1204   24539978.2854
     -3926.3434      -3059.4964
  21840246.9274  -12838626.88349  -9571678.17947  21840246.5814   21840262.1304
     -2287.4104      -1782.3964
  24263128.3684    -917395.31947   -349860.60545  24263128.5974   24263157.6354
     -3959.2164      -3085.0994
  23610640.2424   -7491737.92947  -5674419.20746  23610639.4904   23610658.8114
       372.9704        290.6164
  21186351.7234  -21457948.59448 -16711705.93047  21186351.8964   21186367.0644
      1229.0094        957.6654
 00  9 18  0 20 30.0000000  0 10G 1G31G19G27G 8G22G28G20G 3G13
  21104385.0184  -18589261.50449 -14287116.68947  21104384.6534   21104400.6884
     -1438.7184      -1121.0794
  23392636.9454    -703049.80847   -362008.88445  23392636.8644   23392659.1254
      2323.4264       1810.4504
  20821708.1024  -22301355.61049 -16909031.50847  20821707.7004   20821723.8484
      -356.5494       -277.8334
  21721657.4054  -20186340.89548 -15518688.45747  21721657.1174   21721674.9334
       989.7134        771.2004
  22961214.7294   -9232823.79348  -7165386.35646  22961214.3004   22961237.4144
      2051.8954       1598.8704
  24562389.5534    6730051.55047   5259933.19545  24562389.4904   24562402.3764
     -3928.2654      -3061.0094
  21853342.8264  -12769806.52949  -9518051.95647  21853342.4314   21853358.1944
     -2299.2164      -1791.5974
  24285733.2074    -798605.65147   -257297.76445  24285732.1404   24285763.0484
     -3958.7444      -3084.7204
  23608556.6974   -7502684.15648  -5682948.50446  23608556.5884   23608575.5484
       358.1634        279.0804
  21179365.4484  -21494661.79348 -16740313.51447  21179365.5094   21179380.5224
      1219.9314        950.5924
 00  9 18  0 21  0.0000000  0 10G 1G31G19G27G 8G22G28G20G 3G13
  21112629.0914  -18545938.57049 -14253358.56347  21112628.7964   21112644.7424
     -1450.3834      -1130.1684
  23379392.2874    -772653.17547   -416244.93445  23379391.5774   23379412.8344
      2315.9464       1804.6164
  20823757.0914  -22290587.85749 -16900640.98647  20823756.8244   20823772.4304
      -362.2274       -282.2584
  21716016.4954  -20215984.44848 -15541787.22647  21716016.2164   21716033.8984
       985.6404        768.0284
  22949508.7094   -9294334.85348  -7213316.75746  22949508.4634   22949531.9264
      2047.8434       1595.7104
  24584819.7844    6847922.38647   5351781.42346  24584819.1684   24584834.6474
     -3930.6854      -3062.8964
  21866501.0574  -12700660.69349  -9464172.11647  21866500.5804   21866516.0464
     -2311.4014      -1801.0914
  24308329.5294    -679858.78147   -164768.31145  24308330.0284   24308359.6394
     -3958.6024      -3084.6064
  23606552.6304   -7513213.44048  -5691152.91546  23606552.7274   23606572.0744
       342.8834        267.1734
  21172425.6164  -21531130.22749 -16768730.33047  21172425.8134   21172440.4904
      1210.3874        943.1524
 00  9 18  0 21 30.0000000  0 10G 1G31G19G27G 8G22G28G20G 3G13
  21120939.9424  -18502264.50849 -14219326.83747  21120939.7074   21120955.6724
     -1461.4224      -1138.7694
  23366189.6924    -842030.26947   -470304.65945  23366189.6444   23366210.5904
      2308.9434       1799.1654
  20825838.5054  -22279649.47049 -16892117.53647  20825838.2764   20825854.1334
      -367.2634       -286.1794
  21710398.9394  -20245504.99048 -15564790.15347  21710398.6024   21710416.1454
       982.1744        765.3274
  22937826.8274   -9355723.46448  -7261151.73746  22937826.4644   22937850.3274
      2044.4024       1593.0294
  24607261.7004    6965862.99647   5443683.95445  24607261.1234   24607277.2044
     -3932.2324      -3064.1054
  21879728.3744  -12631149.83049  -9410007.87547  21879728.0804   21879743.3824
     -2322.8824      -1810.0364
  24330927.0724    -561115.65447    -72241.72245  24330926.4404   24330955.9304
     -3957.7374      -3083.9364
  23604636.5074   -7523282.51448  -5698998.72346  23604636.3644   23604655.2194
       328.1664        255.7074
  21165540.4714  -21567310.06049 -16796922.27247  21165540.9004   21165556.1404
      1201.3784        936.1344
 00  9 18  0 22  0.0000000  0 10G 1G31G19G27G 8G22G28G20G 3G13
  21129326.1554  -18458194.33949 -14184986.46047  21129325.9244   21129342.0944
     -1475.0144      -1149.3634
  23353039.1544    -911132.84547   -524150.47845  23353038.6574   23353061.0504
      2299.4114       1791.7384
  20827960.9344  -22268495.83749 -16883426.36247  20827960.5834   20827976.5624
      -374.8094       -292.0604
  21704813.1674  -20274857.94848 -15587662.50647  21704812.9824   21704830.5544
       976.2254        760.6904
  22926177.1494   -9416945.15348  -7308856.62846  22926176.4644   22926199.9814
      2038.5114       1588.4394
  24629724.5194    7083915.64847   5535673.75245  24629723.7844   24629740.6734
     -3936.2944      -3067.2674
  21893033.4424  -12561231.23349  -9355525.88647  21893033.0064   21893048.3274
     -2336.8224      -1820.9004
  24353530.7264    -442334.27947     20314.67645  24353530.1964   24353560.6794
     -3959.4064      -3085.2284
  23602816.4004   -7532844.96748  -5706449.75046  23602816.6464   23602836.0934
       310.9044        242.2544
  21158720.1564  -21603154.35149 -16824852.77547  21158720.0344   21158735.2144
      1189.8004        927.1134
 00  9 18  0 22 30.0000000  0 10G 1G31G19G27G 8G22G28G20G 3G13
  21137777.4054  -18413783.06549 -14150380.27947  21137777.0984   21137793.1924
     -1486.6404      -1158.4234
  23339931.8294    -980013.39647   -577823.30445  23339931.3604   23339953.2254
      2291.7084       1785.7434
  20830113.5414  -22257182.81449 -16874610.97347  20830113.2914   20830129.2904
      -380.3574       -296.3844
  21699249.1094  -20304098.85548 -15610447.53547  21699248.8884   21699266.2594
       972.2514        757.5944
  22914547.8644   -9478055.18148  -7356474.50246  22914547.2844   22914570.4394
      2034.5084       1585.3204
  24652200.4974    7202021.53247   5627705.06345  24652199.4674   24652214.0384
     -3938.2964      -3068.8304
  21906405.1884  -12490962.60849  -9300771.13147  21906404.5974   21906420.1084
     -2348.7134      -1830.1674
  24376130.8714    -323573.09247    112855.30645  24376129.7294   24376160.9674
     -3958.9314      -3084.8624
  23601082.9794   -7541955.03148  -5713548.24446  23601082.6514   23601102.5564
       295.5334        230.2754
  21151952.4414  -21638716.80249 -16852563.67247  21151952.5564   21151967.0464
      1180.1514        919.5944
 00  9 18  0 23  0.0000000  0 10G 1G31G19G27G 8G22G28G20G 3G13
  21146301.3144  -18368989.74249 -14115476.39747  21146300.9284   21146317.1354
     -1497.7344      -1167.0654
  23326874.7854   -1048627.77647   -631288.72345  23326874.3584   23326896.1584
      2284.4004       1780.0424
  20832304.5604  -22245670.13149 -16865640.00347  20832304.2364   20832320.1394
      -385.3624       -300.2834
  21693713.6204  -20333187.34548 -15633113.80547  21693713.3334   21693730.6354
       968.8184        754.9194
  22902947.1334   -9539012.72748  -7403973.54846  22902946.8774   22902969.7564
      2031.0564       1582.6284
  24674692.2144    7320219.25947   5719808.12045  24674691.6164   24674704.1864
     -3939.8174      -3070.0194
  21919850.9784  -12420305.76949  -9245713.86547  21919850.4854   21919865.6384
     -2359.9604      -1838.9304
  24398732.8584    -204793.89146    205409.99545  24398732.9144   24398763.4214
     -3957.8394      -3084.0054
  23599443.4234   -7550570.61548  -5720261.43146  23599443.0154   23599461.7714
       280.6754        218.7004
  21145246.8984  -21673954.95548 -16880021.85847  21145246.8294   21145261.4854
      1170.9134        912.3964
 00  9 18  0 23 30.0000000  0 10G 1G31G19G27G 8G22G28G20G 3G13
  21154883.5744  -18323889.36249 -14080333.26247  21154883.2874   21154899.4564
     -1507.9664      -1175.0364
  23313854.2884   -1117048.08447   -684602.91645  23313853.7594   23313874.9504
      2277.8754       1774.9534
  20834518.6854  -22234033.37649 -16856572.37747  20834518.4024   20834534.6134
      -389.4884       -303.4974
  21688193.0654  -20362198.84948 -15655720.09247  21688192.7764   21688210.1054
       966.2474        752.9174
  22891362.3114   -9599893.31148  -7451412.60446  22891361.7554   22891384.9874
      2028.5264       1580.6624
  24697186.1964    7438431.36347   5811922.37445  24697185.4404   24697200.2714
     -3940.1664      -3070.2924
  21933355.6444  -12349338.14149  -9190414.38847  21933355.1664   21933370.6154
     -2370.2874      -1846.9784
  24421326.2914     -86074.63046    297917.98445  24421326.2034   24421355.2374
     -3955.8014      -3082.4254
  23597883.0744   -7558765.60548  -5726646.91146  23597882.7034   23597903.0654
       266.6194        207.7474
  21138588.5754  -21708942.32148 -16907284.65247  21138588.6734   21138603.2394
      1162.5124        905.8544
 00  9 18  0 24  0.0000000  0  9G 1G31G19G27G 8G28G20G 3G13
  21163531.5984  -18278444.25648 -14044921.52847  21163531.2124   21163547.4034
     -1521.1484      -1185.3094
  23300878.2634   -1185233.51647   -737734.09145  23300878.2454   23300899.5464
      2268.3114       1767.5054
  20836763.7254  -22222235.21449 -16847379.02747  20836763.5474   20836779.8684
      -396.5584       -309.0064
  21682694.1114  -20391096.08148 -15678237.34547  21682693.7124   21682711.0814
       960.7644        748.6444
  22879798.7664   -9660659.34148  -7498762.41646  22879797.9154   22879822.0644
      2023.0084       1576.3584
  21946925.9284  -12278024.67849  -9134845.45647  21946925.5454   21946941.3734
     -2383.4274      -1857.2154
  24443912.6724      32619.32347    390406.29645  24443912.2704   24443942.4544
     -3956.6714      -3083.1084
  23596410.9274   -7566501.05048  -5732674.30846  23596410.8694   23596430.3544
       249.5894        194.4794
  21131985.8704  -21743639.12248 -16934321.05147  21131986.1254   21132000.6284
      1151.1364        896.9874
 00  9 18  0 24 30.0000000  0  9G 1G31G19G27G 8G28G20G 3G13
  21172252.6074  -18232614.06348 -14009209.71347  21172252.2204   21172268.5474
     -1533.9074      -1195.2524
  23287956.6284   -1253140.74647   -790648.47345  23287955.8184   23287977.2574
      2259.0964       1760.3254
  20839047.3334  -22210235.87149 -16838028.90147  20839046.8944   20839063.0684
      -403.1734       -314.1614
  21677223.8824  -20419838.94448 -15700634.30147  21677223.8064   21677241.3734
       955.6954        744.6964
  22868264.2264   -9721270.62148  -7545991.62946  22868263.5574   22868287.0914
      2017.9204       1572.3944
  21960569.6114  -12206327.53649  -9078977.55047  21960569.1314   21960584.7854
     -2396.1134      -1867.1024
  24466502.7994     151325.35147    482904.00145  24466501.7434   24466533.6904
     -3956.8554      -3083.2404
  23595033.7714   -7573735.66848  -5738311.42846  23595033.6324   23595053.5724
       232.9924        181.5494
  21125446.4434  -21778003.93348 -16961098.73147  21125446.6834   21125461.1604
      1140.1364        888.4154
 00  9 18  0 25  0.0000000  0  9G 1G31G19G27G 8G28G20G 3G13
  21181046.9414  -18186399.04148 -13973198.03547  21181046.7414   21181062.8974
     -1547.6274      -1205.9434
  23275087.0384   -1320767.09147   -843344.00445  23275086.5564   23275107.7054
      2248.7944       1752.2974
  20841368.6774  -22198035.82649 -16828522.35147  20841368.6084   20841384.6314
      -410.6994       -320.0274
  21671783.9684  -20448427.99248 -15722911.40247  21671783.5674   21671800.8734
       949.7174        740.0354
  22856759.0574   -9781727.59948  -7593100.60846  22856758.7414   22856781.4964
      2011.9134       1567.7114
  21974285.2934  -12134249.33849  -9022812.69047  21974285.0114   21974300.7354
     -2409.6684      -1877.6664
  24489092.4204     270040.40647    575408.70445  24489092.3734   24489123.6594
     -3958.0224      -3084.1484
  23593752.0684   -7580468.55047  -5743557.58246  23593751.7984   23593771.6434
       215.3444        167.7914
  21118970.8674  -21812034.69748 -16987616.12247  21118970.9124   21118985.3414
      1128.0694        879.0114
 00  9 18  0 25 30.0000000  0  9G 1G31G19G27G 8G28G20G 3G13
  21189917.0024  -18139786.86648 -13936876.90047  21189916.7504   21189933.0584
     -1561.6904      -1216.8994
  23262274.4904   -1388097.09347   -895808.62646  23262274.1414   23262295.1564
      2238.0324       1743.9124
  20843730.5914  -22185623.31649 -16818850.18847  20843730.4164   20843746.5044
      -418.6264       -326.2054
  21666374.9304  -20476851.26348 -15745059.31747  21666374.6384   21666391.9084
       943.3424        735.0704
  22845285.9094   -9842018.19848  -7640079.94546  22845285.0304   22845307.9564
      2005.5314       1562.7404
  21988075.7194  -12061780.34949  -8966343.30347  21988075.3974   21988091.2774
     -2423.4524      -1888.4044
  24511687.3534     388773.66746    667927.60545  24511688.0324   24511718.9384
     -3959.3654      -3085.2114
  23592568.2344   -7586686.23347  -5748402.27546  23592568.0164   23592588.4914
       197.3494        153.7664
  21112560.8934  -21845718.19349 -17013862.90447  21112561.0664   21112575.4964
      1115.6504        869.3364
 00  9 18  0 26  0.0000000  0  9G 1G31G19G27G 8G28G20G 3G13
  21198869.6594  -18092739.74348 -13900216.85247  21198869.4314   21198886.0484
     -1573.7234      -1226.2764
  23249526.2704   -1455090.21147   -948010.77246  23249525.6944   23249546.9654
      2229.2084       1737.0404
  20846140.2534  -22172961.48949 -16808983.81247  20846139.9504   20846156.5094
      -424.4554       -330.7434
  21661004.8144  -20505071.49448 -15767049.02647  21661004.3794   21661021.8114
       939.0684        731.7384
  22833851.2184   -9902104.79648  -7686900.31546  22833850.6924   22833873.8284
      2001.2164       1559.3784
  22001946.9054  -11988885.26649  -8909541.88847  22001946.6064   22001962.1444
     -2435.1124      -1897.4914
  24534292.6294     507559.98647    760487.91245  24534292.1774   24534322.3474
     -3958.6534      -3084.6554
  23591491.1874   -7592350.03948  -5752815.41046  23591490.7644   23591510.7284
       181.3044        141.2694
  21106224.7624  -21879014.64949 -17039808.10947  21106224.9884   21106239.3754
      1105.1994        861.1924
 00  9 18  0 26 30.0000000  0  9G 1G31G19G27G 8G28G20G 3G13
  21207880.5364  -18045388.64348 -13863319.94047  21207880.1254   21207896.6934
     -1582.9824      -1233.4904
  23236817.1864   -1521874.14648  -1000049.94046  23236816.7084   23236837.9034
      2223.0404       1732.2284
  20848572.1654  -22160181.76849 -16799025.60147  20848571.8994   20848587.9104
      -427.5124       -333.1274
  21655647.8284  -20533220.09248 -15788982.91747  21655647.5934   21655664.8894
       937.5684        730.5704
  22822431.2644   -9962118.75748  -7733664.08846  22822430.3914   22822453.3844
      1999.6774       1558.1804
  22015874.3304  -11915697.79948  -8852512.64047  22015873.9394   22015888.8554
     -2443.9614      -1904.3884
  24556881.9034     626265.49947    852985.27445  24556880.8104   24556911.9804
     -3955.0004      -3081.8064
  23590493.9934   -7597589.96748  -5756898.25846  23590493.5244   23590513.3704
       168.0454        130.9374
  21099937.6264  -21912053.36749 -17065552.46547  21099937.7404   21099952.0284
      1097.4674        855.1664
 00  9 18  0 27  0.0000000  0  9G 1G31G19G27G 8G28G20G 3G13
  21216965.3604  -17997649.11748 -13826120.37647  21216964.9564   21216981.3414
     -1598.0854      -1245.2584
  23224165.7094   -1588361.55047  -1051858.06546  23224164.7974   23224185.3044
      2210.9944       1722.8464
  20851042.1634  -22147199.88149 -16788909.83747  20851042.0134   20851058.4484
      -436.3994       -340.0514
  21650320.7114  -20561212.80948 -15810795.32947  21650320.4644   21650337.8754
       930.1934        724.8234
  22811040.1754  -10021975.70848  -7780305.51746  22811039.6384   22811062.8834
      1992.2894       1552.4214
  22029872.6674  -11842135.81448  -8795191.52947  22029872.1524   22029887.8124
     -2458.5994      -1915.7924
  24579469.4994     744971.89346    945483.28545  24579472.0994   24579503.1894
     -3957.1704      -3083.4794
  23589593.6444   -7602320.05648  -5760583.85146  23589593.4004   23589613.3104
       148.8544        115.9864
  21093715.8754  -21944748.36349 -17091029.00547  21093715.9734   21093730.4444
      1083.7964        844.5124
 00  9 18  0 27 30.0000000  0  9G 1G31G19G27G 8G28G20G 3G13
  21226123.3354  -17949522.39748 -13788619.10647  21226123.0054   21226139.5284
     -1609.6374      -1254.2604
  23211569.6594   -1654550.55347  -1103433.68046  23211569.1594   23211589.8304
      2202.3234       1716.0884
  20853550.8524  -22134017.50549 -16778637.84647  20853550.6634   20853567.0064
      -441.7434       -344.2154
  21645023.4574  -20589051.18648 -15832487.48447  21645023.0134   21645040.2744
       926.4144        721.8784
  22799679.2324  -10081676.92348  -7826825.59846  22799678.7604   22799701.8414
      1988.4004       1549.3924
  22043941.1054  -11768202.98548  -8737581.48447  22043940.8674   22043957.1014
     -2469.5684      -1924.3404
  24602060.3254     863675.08647   1037978.77345  24602059.0434   24602089.8674
     -3955.6484      -3082.3044
  23588790.2694   -7606540.85048  -5763872.61346  23588789.7784   23588809.9094
       133.2364        103.8184
  21087559.4984  -21977098.60749 -17116236.88547  21087559.5944   21087574.4554
      1073.5864        836.5584
 00  9 18  0 28  0.0000000  0  9G 1G31G19G27G 8G28G20G 3G13
  21235340.9984  -17901085.02048 -13750875.76147  21235340.6974   21235356.9664
     -1620.7534      -1262.9234
  23199016.9204   -1720514.15648  -1154833.64346  23199016.3804   23199037.2744
      2193.9904       1709.5944
  20856083.2034  -22120711.69049 -16768269.66047  20856082.7774   20856098.7194
      -446.5984       -348.0004
  21639740.4684  -20616812.07148 -15854119.25247  21639740.2084   21639757.4414
       923.0724        719.2744
  22788333.5884  -10141299.10848  -7873284.09646  22788332.8454   22788355.8404
      1985.0404       1546.7714
  22058065.8214  -11693978.29848  -8679743.97347  22058065.3384   22058081.1074
     -2480.0094      -1932.4774
  24624633.2734     982295.74247   1130410.01645  24624632.1314   24624663.4744
     -3953.6094      -3080.7294
  23588069.4914   -7610327.62348  -5766823.15746  23588068.9424   23588089.4254
       117.9934         91.9424
  21081454.4004  -22009179.35849 -17141234.77247  21081454.7734   21081469.6614
      1063.8424        828.9654
 00  9 18  0 28 30.0000000  0  9G 1G31G19G27G 8G28G20G 3G13
  21244627.7884  -17852282.72548 -13712848.07247  21244627.4074   21244644.0244
     -1633.3634      -1272.7514
  23186517.7354   -1786195.25347  -1206013.46846  23186517.8334   23186538.0694
      2184.0824       1701.8754
  20858648.8844  -22107228.46649 -16757763.20947  20858648.5064   20858664.2364
      -452.9434       -352.9454
  21634482.7174  -20644441.42948 -15875648.53247  21634482.4154   21634499.5084
       918.2494        715.5144
  22777012.7144  -10200788.08048  -7919638.79546  22777012.0634   22777034.7244
      1980.1614       1542.9714
  22072255.6054  -11619410.27248  -8621638.91847  22072255.1894   22072270.8454
     -2491.8644      -1941.7174
  24647199.6174    1100885.26846   1222817.00045  24647197.9164   24647232.5914
     -3952.9634      -3080.2134
  23587441.8874   -7613625.34748  -5769392.64646  23587441.5874   23587461.1294
       101.2414         78.8834
  21075411.5834  -22040934.52049 -17165978.95747  21075411.8564   21075426.4264
      1052.5094        820.1344
 00  9 18  0 29  0.0000000  0  9G 1G31G19G27G 8G28G20G 3G13
  21253983.5304  -17803119.61448 -13674539.21347  21253982.9214   21253999.5074
     -1643.5344      -1280.6754
  23174072.6644   -1851594.98747  -1256974.04446  23174072.0394   23174092.5544
      2176.5054       1695.9704
  20861247.5664  -22093572.24749 -16747121.93847  20861247.1804   20861263.0454
      -456.8414       -355.9834
  21629248.7214  -20671943.49948 -15897078.61747  21629248.4304   21629265.9554
       915.8674        713.6604
  22765716.7654  -10260148.14548  -7965893.04746  22765716.0714   22765738.6664
      1977.7344       1541.0804
  22086509.4694  -11544505.02148  -8563271.07147  22086509.0864   22086524.6474
     -2501.2054      -1948.9954
  24669760.7714    1219436.71246   1315194.28045  24669760.1794   24669791.8944
     -3949.7764      -3077.7364
  23586906.3164   -7616436.77348  -5771583.20146  23586906.3834   23586926.3504
        86.8594         67.6784
  21069430.3904  -22072366.23249 -17190471.12147  21069430.6984   21069444.9774
      1043.5814        813.1784
 00  9 18  0 29 30.0000000  0  9G 1G31G19G27G 8G28G20G 3G13
  21263404.9964  -17753606.21248 -13635957.39947  21263404.8294   21263421.7194
     -1655.3164      -1289.8564
  23161678.7714   -1916720.67047  -1307721.04546  23161678.4514   23161699.6664
      2167.2144       1688.7324
  20863876.9524  -22079754.10049 -16736354.48947  20863876.6094   20863892.4984
      -462.3594       -360.2834
  21624037.4304  -20699329.06948 -15918417.93647  21624037.1384   21624054.6924
       911.8674        710.5434
  22754442.7824  -10319389.83448  -8012055.05546  22754442.0934   22754464.9404
      1973.6684       1537.9114
  22100825.3374  -11469275.86848  -8504650.80447  22100824.8394   22100839.7444
     -2512.0674      -1957.4594
  24692309.2164    1337936.79046   1407531.51545  24692309.5794   24692343.4524
     -3948.1954      -3076.4994
  23586462.0624   -7618771.45448  -5773402.26146  23586461.4594   23586481.8274
        70.8334         55.1904
  21063509.0844  -22103483.95149 -17214718.61547  21063509.1394   21063523.4034
      1032.9454        804.8894
 00  9 18  0 30  0.0000000  0  9G 1G31G19G27G 8G28G20G 3G13
  21272899.0814  -17703715.63048 -13597081.66147  21272898.7904   21272915.6144
     -1669.3904      -1300.8234
  23149343.9434   -1981542.34747  -1358231.14746  23149343.4284   23149363.8954
      2155.5924       1679.6714
  20866542.1224  -22065747.28549 -16725439.98747  20866541.9994   20866557.6524
      -470.1234       -366.3354
  21618853.1324  -20726571.56648 -15939645.75547  21618852.9024   21618870.6114
       905.6254        705.6784
  22743197.1154  -10378486.42248  -8058103.98946  22743196.5434   22743218.5834
      1967.3784       1533.0104
  22115207.0554  -11393698.22048  -8445758.98847  22115206.5114   22115221.3954
     -2525.1194      -1967.6294
  24714856.4064    1456409.43446   1499847.46845  24714855.4824   24714886.3744
     -3948.6314      -3076.8404
  23586113.7164   -7620601.68148  -5774828.23746  23586113.8614   23586133.5624
        52.5354         40.9304
  21057652.5954  -22134259.26349 -17238699.27447  21057652.8534   21057667.1834
      1020.0514        794.8414
 00  9 18  0 30 30.0000000  0  9G 1G31G19G27G 8G28G20G 3G13
  21282478.7114  -17653375.56548 -13557855.67147  21282478.1254   21282494.9774
     -1686.3614      -1314.0474
  23137080.8004   -2045984.63048  -1408445.59946  23137079.8394   23137100.6494
      2140.8584       1668.1914
  20869257.2274  -22051479.87349 -16714322.40747  20869256.9464   20869272.8804
      -480.7914       -374.6464
  21613709.9604  -20753598.99348 -15960706.00247  21613709.6244   21613727.4314
       896.4624        698.5394
  22731992.5884  -10437365.89248  -8103983.76846  22731991.9074   22732013.7444
      1958.1024       1525.7854
  22129668.1974  -11317702.43748  -8386541.38947  22129667.9274   22129683.2294
     -2540.9984      -1980.0014
  24737408.0234    1574924.39746   1592196.38245  24737406.7844   24737439.7654
     -3951.9414      -3079.4174
  23585874.8654   -7621854.40048  -5775804.23446  23585874.7644   23585894.9154
        31.2774         24.3654
  21051875.5694  -22164617.68349 -17262355.07447  21051875.9134   21051890.0814
      1004.0924        782.4054
 00  9 18  0 31  0.0000000  0  9G 1G31G19G27G 8G28G20G 3G13
  21292149.9804  -17602551.87648 -13518252.80347  21292149.4814   21292166.2844
     -1699.7374      -1324.4704
  23124896.9504   -2110010.64448  -1458335.66246  23124896.2194   23124916.5034
      2129.6674       1659.4714
  20872027.9114  -22036918.24849 -16702975.53947  20872027.6124   20872043.8694
      -487.8384       -380.1404
  21608614.0224  -20780377.47548 -15981572.27347  21608613.9044   21608631.5634
       890.9324        694.2294
  22720835.8694  -10495994.13448  -8149667.77946  22720835.4114   22720857.2174
      1952.5024       1521.4204
  22144215.2734  -11241257.00748  -8326973.44647  22144214.6154   22144230.7944
     -2553.2134      -1989.5174
  24759976.2004    1693512.79746   1684602.45045  24759974.2644   24760006.9914
     -3951.7354      -3079.2554
  23585752.9454   -7622494.39248  -5776302.77046  23585753.0164   23585773.1104
        13.5754         10.5704
  21046184.9504  -22194522.68949 -17285657.55047  21046185.0534   21046199.4284
       991.6994        772.7484
 00  9 18  0 31 30.0000000  0  9G 1G31G19G27G 8G28G20G 3G13
  21301888.1894  -17551378.22548 -13478377.21747  21301887.6724   21301904.2104
     -1713.2134      -1334.9734
  23112766.8674   -2173750.77148  -1508002.93246  23112766.3444   23112786.9204
      2118.3014       1650.6134
  20874829.2284  -22022196.26949 -16691503.72247  20874828.9404   20874845.1264
      -494.9914       -385.7124
  21603540.2634  -20807040.71148 -16002348.73847  21603539.9584   21603557.9014
       885.2814        689.8264
  22709701.1184  -10554504.81948  -8195260.17446  22709700.4534   22709722.8984
      1946.7674       1516.9494
  22158821.7114  -11164497.88048  -8267161.07147  22158821.2004   22158836.8274
     -2565.4384      -1999.0484
  24782530.3314    1812038.22046   1776959.46445  24782528.6644   24782561.8684
     -3951.3424      -3078.9534
  23585722.8964   -7622654.16748  -5776427.11546  23585722.3374   23585742.4254
        -4.3244         -3.3704
  21040554.8324  -22224107.04349 -17308710.16647  21040555.0204   21040569.8304
       979.1834        762.9974
 00  9 18  0 32  0.0000000  0  9G 1G31G19G27G 8G28G20G 3G13
  21311709.3424  -17499765.60148 -13438159.55147  21311709.1614   21311725.6094
     -1728.4624      -1346.8574
  23100708.9174   -2237112.79948  -1557375.57846  23100708.7854   23100728.9424
      2105.0234       1640.2624
  20877677.6294  -22007225.06449 -16679837.65547  20877677.3914   20877693.7244
      -503.9354       -392.6824
  21598505.3374  -20833499.90148 -16022966.19747  21598504.9944   21598522.7464
       877.8364        684.0254
  22698605.9134  -10612809.01248  -8240691.68746  22698605.1704   22698627.2674
      1939.2204       1511.0704
  22173504.8354  -11087338.39648  -8207036.74747  22173504.3454   22173520.3074
     -2579.4074      -2009.9354
  24805088.7644    1930587.12146   1869334.83545  24805088.4034   24805121.3894
     -3952.6774      -3080.0044
  23585800.8514   -7622243.71148  -5776107.10646  23585800.4464   23585820.2374
       -23.9304        -18.6544
  21035003.4694  -22253280.02349 -17331442.22047  21035003.5814   21035018.3424
       964.8324        751.8124
 00  9 18  0 32 30.0000000  0  9G 1G31G19G27G 8G28G20G 3G13
  21321626.5864  -17447649.13948 -13397549.25647  21321626.3934   21321642.9464
     -1745.7294      -1360.3094
  23088736.5584   -2300028.72348  -1606400.60146  23088735.8734   23088756.0594
      2089.6014       1628.2484
  20880586.4214  -21991940.22749 -16667927.19947  20880586.1364   20880602.2784
      -514.8184       -401.1634
  21593521.6084  -20859690.32248 -16043374.23047  21593521.2074   21593538.9454
       868.4204        676.6874
  22687561.7644  -10670841.88048  -8285911.76346  22687561.3464   22687583.8184
      1929.7084       1503.6564
  22188275.8804  -11009715.78348  -8146551.29447  22188275.3944   22188291.2684
     -2595.2364      -2022.2694
  24827665.5424    2049221.74546   1961776.98644  24827663.6464   24827696.4674
     -3955.9474      -3082.5304
  23585999.7004   -7621197.40348  -5775291.65046  23585999.3674   23586019.1044
       -45.5864        -35.5254
  21029543.0204  -22281974.33349 -17353801.28847  21029543.1164   21029557.5944
       948.3954        739.0054
 00  9 18  0 33  0.0000000  0  9G 1G31G19G27G 8G28G20G 3G13
  21331624.3874  -17395110.97648 -13356610.37847  21331623.8524   21331640.8534
     -1757.7064      -1369.6414
  23076833.2064   -2362577.45048  -1655139.49946  23076832.7664   23076852.7774
      2079.4294       1620.3184
  20883538.8464  -21976424.22649 -16655836.62647  20883538.4494   20883554.6364
      -520.4604       -405.5594
  21588572.9944  -20885694.13448 -16063636.85247  21588572.7304   21588590.6694
       864.2924        673.4734
  22676554.3224  -10728685.52248  -8330984.40246  22676553.6984   22676576.3564
      1925.5464       1500.4134
  22203118.2814  -10931715.44248  -8085771.73647  22203117.9084   22203133.7174
     -2605.6704      -2030.3914
  24850240.3844    2167857.30746   2054219.86845  24850240.5384   24850273.6044
     -3953.9954      -3081.0214
  23586304.3074   -7619596.50848  -5774044.03346  23586304.0834   23586323.1794
       -62.0914        -48.3874
  21024158.2434  -22310270.86149 -17375850.39847  21024158.1594   21024172.6594
       937.1844        730.2694
 00  9 18  0 33 30.0000000  0  9G 1G31G19G27G 8G28G20G 3G13
  21341705.4864  -17342134.72248 -13315330.13247  21341705.0234   21341721.7564
     -1774.2394      -1382.5244
  23065004.0924   -2424739.45148  -1703577.04146  23065003.4484   23065023.8034
      2064.5444       1608.7254
  20886537.6854  -21960660.93049 -16643553.34947  20886537.6644   20886554.0264
      -530.6524       -413.5014
  21583663.4924  -20911495.09149 -16083741.40147  21583663.0514   21583680.9364
       855.5804        666.6844
  22665585.8704  -10786323.78748  -8375897.00546  22665585.4704   22665607.9954
      1916.8004       1493.5994
  22218036.1414  -10853322.73748  -8024686.49347  22218035.7114   22218050.3104
     -2620.6634      -2042.0794
  24872821.0534    2286507.35246   2146674.10445  24872818.9454   24872851.5324
     -3956.3524      -3082.8554
  23586717.9184   -7617423.54448  -5772350.64446  23586717.6024   23586736.3924
       -83.0144        -64.6934
  21018852.1364  -22338151.44749 -17397575.33847  21018852.2264   21018866.9424
       921.2434        717.8464
 00  9 18  0 34  0.0000000  0  9G 1G31G19G27G 8G28G20G 3G13
  21351861.5064  -17288763.32448 -13273741.97447  21351861.1974   21351877.7994
     -1784.3044      -1390.3694
  23053240.9784   -2486554.66948  -1751744.37246  23053240.4794   23053260.5504
      2056.0024       1602.0684
  20889576.4734  -21944693.38449 -16631110.94447  20889576.1554   20889592.5424
      -534.3584       -416.3894
  21578783.9204  -20937136.16349 -16103721.34147  21578783.6264   21578801.3634
       853.3754        664.9624
  22654648.7164  -10843799.17948  -8420682.71346  22654648.1814   22654670.0994
      1914.4244       1491.7484
  22233019.7154  -10774582.77948  -7963330.51047  22233019.0824   22233034.6344
     -2629.1194      -2048.6714
  24895390.7394    2405126.59446   2239104.32044  24895390.9284   24895424.6904
     -3952.1654      -3079.6184
  23587232.2994   -7614720.53648  -5770244.21446  23587231.8494   23587250.4614
       -97.6604        -76.1054
  21013617.7894  -22365656.42149 -17419007.60147  21013617.9634   21013633.0884
       911.8824        710.5514
 00  9 18  0 34 30.0000000  0  9G 1G31G19G27G 8G28G20G 3G13
  21362082.0404  -17235056.08848 -13231892.13247  21362081.3504   21362098.1924
     -1797.6084      -1400.7364
  23041532.8674   -2548079.41248  -1799685.39246  23041532.5754   23041552.4794
      2044.1924       1592.8664
  20892642.3694  -21928581.17049 -16618555.82947  20892642.0214   20892658.5944
      -541.2534       -421.7594
  21573923.6494  -20962676.73849 -16123622.99347  21573923.2054   21573940.9944
       847.9104        660.7074
  22643731.0224  -10901171.33448  -8465387.98346  22643730.2274   22643752.3474
      1908.8524       1487.4104
  22248057.2244  -10695557.66648  -7901752.36847  22248056.9004   22248073.1594
     -2640.6764      -2057.6704
  24917947.2594    2523653.03546   2331462.19645  24917947.9064   24917978.4284
     -3951.0324      -3078.7164
  23587835.4074   -7611546.02348  -5767770.37746  23587835.4614   23587854.7384
      -115.4434        -89.9624
  21008443.8524  -22392844.06749 -17440192.60647  21008444.1184   21008459.2354
       899.1524        700.6324
 00  9 18  0 35  0.0000000  0  9G 1G31G19G27G 8G28G20G 3G13
  21372381.7764  -17180928.32648 -13189714.60147  21372381.2324   21372398.2034
     -1810.1814      -1410.5344
  23029896.9124   -2609225.61248  -1847331.44446  23029896.2664   23029916.4924
      2032.9804       1584.1294
  20895751.7844  -21912239.64549 -16605822.04447  20895751.4594   20895767.8864
      -547.4854       -426.6154
  21569098.4604  -20988032.28849 -16143380.45847  21569098.2084   21569115.7864
       843.1914        657.0274
  22632848.8594  -10958355.39948  -8509946.70346  22632848.3554   22632870.3274
      1904.0814       1483.6904
  22263165.3914  -10616165.20948  -7839888.11347  22263165.0284   22263181.0844
     -2651.4524      -2066.0664
  24940500.5184    2642168.81146   2423811.78244  24940498.7094   24940536.7074
     -3949.2104      -3077.2934
  23588545.5504   -7607814.49548  -5764862.52846  23588545.4144   23588564.5584
      -132.5864       -103.3184
  21003347.2504  -22419627.34249 -17461062.52147  21003347.3734   21003362.2924
       887.0974        691.2404
 00  9 18  0 35 30.0000000  0  9G 1G31G19G27G 8G28G20G 3G13
  21382742.2954  -17126481.26248 -13147288.28447  21382741.7944   21382759.3324
     -1822.8424      -1420.3984
  23018314.3744   -2670091.47148  -1894759.07146  23018313.9214   23018333.4294
      2021.5284       1575.2094
  20898885.8674  -21895770.16849 -16592988.57547  20898885.4254   20898901.8394
      -553.7604       -431.5054
  21564289.7634  -21013304.13849 -16163072.69447  21564289.3004   21564306.4924
       838.3864        653.2834
  22621983.7104  -11015452.59848  -8554437.73146  22621982.8204   22622004.3954
      1899.1354       1479.8354
  22278323.4004  -10536508.63048  -7777818.07147  22278322.9524   22278339.1494
     -2662.2144      -2074.4524
  24963030.5304    2760569.81146   2516071.90844  24963029.8834   24963065.1874
     -3947.3994      -3075.8784
  23589342.7064   -7603625.76448  -5761598.42346  23589342.3034   23589361.7384
      -149.9424       -116.8444
  20998308.1134  -22446106.43649 -17481695.42547  20998308.3994   20998322.8704
       874.8954        681.7324
 00  9 18  0 36  0.0000000  0  8G 1G31G19G27G 8G28G 3G13
  21393188.5834  -17071585.98348 -13104512.71847  21393188.1444   21393205.2864
     -1836.2744      -1430.8624
  23006810.2384   -2730544.87148  -1941865.29046  23006809.4324   23006828.9964
      2009.2264       1565.6184
  20902068.4524  -21879043.90949 -16579955.00047  20902068.2034   20902084.6004
      -560.7824       -436.9784
  21559520.9514  -21038363.17849 -16182599.09547  21559520.4964   21559537.7454
       832.7994        648.9294
  22611158.4124  -11072334.01048  -8598760.62446  22611157.7494   22611180.0614
      1893.4014       1475.3684
  22293556.0404  -10456461.46648  -7715443.60647  22293555.5344   22293571.3174
     -2673.7014      -2083.4064
  23590250.7924   -7598850.11148  -5757876.95046  23590250.3954   23590270.2564
      -167.9024       -130.8354
  20993352.5064  -22472149.96749 -17501988.91947  20993352.4554   20993366.9044
       861.8854        671.5924
 00  9 18  0 36 30.0000000  0  8G 1G31G19G27G 8G28G 3G13
  21403710.8064  -17016291.53648 -13061426.10647  21403710.3874   21403727.3674
     -1849.1044      -1440.8614
  22995375.8554   -2790631.17348  -1988685.45646  22995375.1734   22995395.0584
      1997.4404       1556.4354
  20905290.8194  -21862110.14449 -16566759.74047  20905290.5374   20905306.7474
      -567.2344       -442.0044
  21554783.3344  -21063258.55149 -16201997.93347  21554783.0074   21554800.3134
       827.8194        645.0484
  22600366.2504  -11129048.51148  -8642953.47946  22600365.6124   22600387.7484
      1888.3784       1471.4534
  22308852.6974  -10376075.02648  -7652804.74547  22308852.3604   22308868.1724
     -2684.4814      -2091.8074
  23591262.2114   -7593536.00248  -5753735.89546  23591262.2314   23591281.1244
      -185.4524       -144.5184
  20988470.0674  -22497805.50149 -17521980.06747  20988470.2674   20988484.6944
       849.3604        661.8324
 00  9 18  0 37  0.0000000  0  9G 1G31G10G19G27G 8G28G 3G13
  21414304.2364  -16960623.63148 -13018048.47847  21414303.6824   21414320.6124
     -1863.9574      -1452.4344
  22984006.6764   -2850373.44248  -2035237.53346  22984006.3624   22984026.3314
      1983.4804       1545.5604
  24950330.4164   -2027669.36256  -1560859.96245  24950330.0704   24950358.4894
      2297.4964       1790.2564
  20908547.7904  -21844994.79249 -16553422.96947  20908547.4514   20908563.4624
      -575.7004       -448.6014
  21550071.9784  -21088016.04249 -16221289.32947  21550071.5864   21550088.7414
       820.8414        639.6134
  22589600.6104  -11185621.83548  -8687036.29646  22589600.0204   22589622.1774
      1881.2444       1465.8964
  22324208.7404  -10295377.30848  -7589923.33747  22324208.3694   22324224.2184
     -2697.2254      -2101.7374
  23592371.4054   -7587708.31548  -5749194.62446  23592370.8804   23592389.9734
      -205.0184       -159.7614
  20983657.3974  -22523096.33749 -17541687.02047  20983657.5244   20983671.6594
       834.8324        650.5134
 00  9 18  0 37 30.0000000  0  9G 1G31G10G19G27G 8G28G 3G13
  21424983.2354  -16904504.93648 -12974319.58847  21424982.7794   21424999.6014
     -1876.8974      -1462.5174
  22972718.7464   -2909691.29248  -2081458.90746  22972718.0944   22972737.9454
      1971.4044       1536.1534
  24937253.2764   -2096397.86047  -1614414.10645  24937252.8504   24937281.0604
      2284.7324       1780.2904
  20911853.6584  -21827620.39249 -16539884.34047  20911853.3834   20911869.6434
      -582.2474       -453.7044
  21545401.7354  -21112558.13048 -16240412.88347  21545401.2854   21545418.2674
       815.7284        635.6274
  22578876.4834  -11241976.27448  -8730948.57146  22578875.9314   22578897.8704
      1875.9824       1461.7964
  22339638.7294  -10214293.42348  -7526740.98647  22339638.1354   22339653.5044
     -2708.0084      -2110.1404
  23593592.7474   -7581288.85648  -5744192.23046  23593592.3674   23593610.7334
      -222.6224       -173.4784
  20978929.0454  -22547943.74249 -17561048.43147  20978929.0074   20978943.2184
       822.0714        640.5704
 00  9 18  0 38  0.0000000  0  9G 1G31G10G19G27G 8G28G 3G13
  21435736.1374  -16847998.65648 -12930288.68047  21435735.5724   21435752.5894
     -1891.5224      -1473.9154
  22961499.6324   -2968644.40848  -2127396.05946  22961499.1014   22961518.8704
      1957.4944       1525.3064
  24924247.2954   -2164743.04047  -1667669.61645  24924245.7034   24924274.8884
      2270.2144       1768.9854
  20915197.1704  -21810050.32149 -16526193.24647  20915196.8174   20915213.0854
      -590.4784       -460.1164
  21540760.2214  -21136948.08048 -16259417.87647  21540759.6974   21540776.7124
       808.9294        630.3284
  22568181.6894  -11298175.35648  -8774739.80046  22568181.3284   22568203.3034
      1869.1394       1456.4614
  22355129.3884  -10132888.75848  -7463308.64547  22355128.8714   22355144.5024
     -2720.3454      -2119.7544
  23594914.6444   -7574339.90448  -5738777.23046  23594914.2684   23594933.5714
      -241.9874       -188.5714
  20974273.2694  -22572409.04649 -17580112.13647  20974273.2734   20974287.6194
       807.6054        629.2964
 00  9 18  0 38 30.0000000  0  9G 1G31G10G19G27G 8G28G 3G13
  21446576.6464  -16791029.52548 -12885897.11047  21446576.3284   21446593.4234
     -1906.4154      -1485.5204
  22950365.4234   -3027154.24448  -2172987.79746  22950364.8124   22950384.7904
      1943.1594       1514.1394
  24911328.3094   -2232627.01147  -1720565.72545  24911326.4564   24911354.7374
      2255.3634       1757.4104
  20918592.2594  -21792209.22149 -16512290.97347  20918591.8694   20918607.8174
      -598.9864       -466.7464
  21536161.8014  -21161110.46948 -16278245.53847  21536161.3994   21536178.5604
       801.8874        624.8424
  22557531.5444  -11354143.38348  -8818350.97246  22557530.6574   22557552.7204
      1861.9524       1450.8624
  22370694.8764  -10051090.33048  -7399569.49647  22370694.4324   22370710.3274
     -2732.9014      -2129.5384
  23596351.8284   -7566785.65248  -5732890.58246  23596351.5434   23596370.9884
      -261.6524       -203.8944
  20969704.8294  -22596414.98149 -17598817.90647  20969705.0244   20969718.8304
       792.7984        617.7594
 00  9 18  0 39  0.0000000  0  9G 1G31G10G19G27G 8G28G 3G13
  21457486.8554  -16733694.77648 -12841220.66447  21457486.5664   21457503.8114
     -1918.3174      -1494.7934
  22939297.8374   -3085314.89548  -2218307.45546  22939297.0484   22939316.7314
      1931.7734       1505.2684
  24898479.7984   -2300144.71746  -1773176.40144  24898480.0264   24898506.0054
      2243.4454       1748.1184
  20922020.1774  -21774194.46949 -16498253.40147  20922019.8654   20922035.8944
      -604.4684       -471.0184
  21531588.1444  -21185142.43548 -16296971.57947  21531587.6744   21531605.2914
       797.8344        621.6814
  22546906.0004  -11409977.47348  -8861857.78746  22546905.5734   22546927.8014
      1857.7654       1447.6004
  22386316.5804   -9968997.68448  -7335601.12147  22386316.0504   22386331.8794
     -2742.3704      -2136.9144
  23597885.7234   -7558722.09848  -5726607.08246  23597885.4354   23597904.8234
      -278.3734       -216.9234
  20965206.0034  -22620056.45049 -17617239.63347  20965206.0674   20965219.8944
       780.8924        608.4814
 00  9 18  0 39 30.0000000  0  9G 1G31G10G19G27G 8G28G 3G13
  21468472.5664  -16675966.51348 -12796237.58347  21468472.0564   21468489.0844
     -1928.8294      -1502.9864
  22928301.9724   -3143095.67948  -2263331.12846  22928301.6454   22928321.3924
      1921.6734       1497.3984
  24885707.2014   -2367265.72246  -1825478.07044  24885705.5644   24885731.3884
      2232.7084       1739.7684
  20925486.4204  -21755978.28749 -16484058.86447  20925486.0534   20925501.9064
      -608.5624       -474.2094
  21527045.0614  -21209016.04348 -16315574.20247  21527044.7514   21527062.3384
       795.1554        619.5954
  22536311.7804  -11465649.61048  -8905238.41246  22536311.0904   22536333.0614
      1854.9664       1445.4184
  22401999.0534   -9886585.31548  -7271383.59147  22401998.5304   22402014.7054
     -2750.3984      -2143.1704
  23599522.9014   -7550120.67248  -5719904.45646  23599522.6544   23599541.2524
      -293.6864       -228.8554
  20960781.7854  -22643304.53249 -17635354.85847  20960781.8964   20960796.1874
       770.3734        600.2844
 00  9 18  0 40  0.0000000  0  9G 1G31G10G19G27G 8G28G 3G13
  21479518.8224  -16617917.84148 -12751004.83747  21479518.2114   21479535.0854
     -1940.6604      -1512.2024
  22917365.8594   -3200566.34448  -2308113.16746  22917365.4154   22917384.8624
      1910.1034       1488.3834
  24872995.7384   -2434061.21147  -1877526.13445  24872995.0374   24873023.3084
      2220.6654       1730.3704
  20928977.3024  -21737633.97149 -16469764.48147  20928976.9764   20928992.7804
      -614.0184       -478.4594
  21522518.0864  -21232804.40448 -16334110.40347  21522517.8144   21522535.3514
       791.1544        616.4784
  22525734.4734  -11521233.02748  -8948549.91746  22525734.1894   22525755.6154
      1850.9104       1442.2584
  22417728.1824   -9803928.69348  -7206975.74747  22417727.7124   22417743.1544
     -2759.6624      -2150.3904
  23601247.9604   -7541053.78248  -5712839.12346  23601247.4514   23601266.7014
      -310.3684       -241.8524
  20956418.8014  -22666230.56949 -17653219.16347  20956419.0264   20956433.3444
       758.4394        590.9874
 00  9 18  0 40 30.0000000  0  9G 1G31G10G19G27G 8G28G 3G13
  21490643.8144  -16559454.85448 -12705449.25347  21490643.3924   21490660.3384
     -1955.4044      -1523.6904
  22906506.7584   -3257629.88348  -2352577.98646  22906506.3034   22906525.6224
      1895.5454       1477.0394
  24860365.4884   -2500434.19747  -1929244.93945  24860364.8964   24860392.7994
      2205.6294       1718.6594
  20932510.4514  -21719067.39949 -16455296.92847  20932510.1264   20932526.0064
      -622.3244       -484.9314
  21518024.9404  -21256413.31448 -16352506.77347  21518024.7464   21518042.4844
       784.2124        611.0674
  22515191.8204  -11576633.58748  -8991718.94346  22515191.0664   22515212.7464
      1843.8404       1436.7524
  22433520.9954   -9720935.84548  -7142305.91247  22433520.6054   22433535.7704
     -2771.7624      -2159.8184
  23603079.6684   -7531426.57548  -5705337.18046  23603079.3964   23603098.3944
      -329.9864       -257.1394
  20952135.9674  -22688737.88049 -17670757.19447  20952136.0894   20952150.2684
       743.5214        579.3624
 00  9 18  0 41  0.0000000  0  9G 1G31G10G19G27G 8G28G 3G13
  21501844.8714  -16500593.95048 -12659583.61547  21501844.2924   21501861.3274
     -1967.3674      -1533.0154
  22895722.6594   -3314299.27348  -2396735.69046  22895722.1424   22895741.6644
      1883.6504       1467.7734
  24847812.0504   -2566398.73147  -1980645.45445  24847810.9994   24847838.9574
      2193.2694       1709.0264
  20936082.7544  -21700295.19049 -16440669.15247  20936082.3634   20936098.1654
      -627.9184       -489.2884
  21513563.4024  -21279859.24348 -16370776.15747  21513563.0434   21513580.5644
       780.0894        607.8564
  22504681.0064  -11631867.28148  -9034757.94846  22504680.2474   22504702.1684
      1839.5854       1433.4344
  22449374.1304   -9637625.61148  -7077388.77747  22449373.7094   22449389.0504
     -2780.9984      -2167.0144
  23605015.3554   -7521254.92848  -5697411.00746  23605015.0144   23605033.5994
      -346.8624       -270.2884
  20947929.7644  -22710841.44549 -17687980.63247  20947929.8554   20947944.1344
       731.3284        569.8624
 00  9 18  0 41 30.0000000  0  9G 1G31G10G19G27G 8G28G 3G13
  21513106.3944  -16441413.53548 -12613469.01547  21513105.9364   21513122.9334
     -1978.3304      -1541.5554
  22884999.3744   -3370649.48648  -2440644.70046  22884998.7854   22885018.2534
      1872.6794       1459.2214
  24835321.8494   -2632030.96047  -2031787.10745  24835321.2754   24835349.3674
      2181.8274       1700.1094
  20939679.3014  -21681395.16949 -16425941.79047  20939678.9424   20939694.4534
      -632.4794       -492.8454
  21509117.8604  -21303220.15448 -16388979.29847  21509117.4934   21509134.9704
       776.9654        605.4224
  22494187.2014  -11687012.25748  -9077727.82946  22494186.6694   22494208.3814
      1836.3594       1430.9214
  22465272.8184   -9554078.57748  -7012287.13247  22465272.1464   22465288.0584
     -2789.1504      -2173.3664
  23607039.0324   -7510616.24148  -5689120.91146  23607039.0804   23607057.8124
      -362.7414       -282.6624
  20943785.8004  -22732617.51649 -17704948.90247  20943785.9444   20943799.9104
       720.0754        561.0954
 00  9 18  0 42  0.0000000  0  9G 1G31G10G19G27G 8G28G 3G13
  21524438.8814  -16381859.47048 -12567063.26447  21524438.5484   21524455.5394
     -1990.6964      -1551.1924
  22874347.6754   -3426623.19548  -2484260.35146  22874346.7224   22874366.7154
      1860.1334       1449.4454
  24822905.9334   -2697274.50047  -2082625.89945  24822905.3464   24822932.3844
      2168.9674       1690.0984
  20943310.1244  -21662313.28349 -16411072.64947  20943309.7724   20943325.4404
      -638.4414       -497.4904
  21504698.8844  -21326441.60848 -16407073.79247  21504698.5544   21504715.9104
       772.4014        601.8664
  22483720.4454  -11742013.95448  -9120586.06646  22483719.8624   22483741.3834
      1831.6134       1427.2214
  22481226.1964   -9470242.38348  -6946960.15047  22481225.7314   22481241.3514
     -2798.6834      -2180.7984
  23609162.9754   -7499455.59748  -5680424.07846  23609162.7224   23609181.7024
      -380.0874       -296.1824
  20939714.7514  -22754009.57649 -17721617.96247  20939714.7394   20939729.1194
       707.3334        551.1674
 00  9 18  0 42 30.0000000  0  9G 1G31G10G19G27G 8G28G 3G13
  21535844.1014  -16321924.20948 -12520360.49247  21535843.9354   21535860.9254
     -2005.2994      -1562.5694
  22863769.7264   -3482209.94148  -2527574.48746  22863769.1414   22863788.8274
      1845.2434       1437.8454
  24810566.8074   -2762119.23747  -2133153.95745  24810565.8164   24810593.0264
      2153.6924       1678.1984
  20946977.2704  -21643041.98949 -16396055.96547  20946976.8814   20946992.3474
      -646.6654       -503.8984
  21500307.6134  -21349515.88448 -16425053.60147  21500307.4434   21500324.8964
       765.5834        596.5534
  22473282.5064  -11796864.88048  -9163326.82446  22473281.8134   22473303.4344
      1824.7024       1421.8384
  22497235.5194   -9386111.93848  -6881403.86847  22497234.7904   22497250.9484
     -2810.3334      -2189.8724
  23611387.8684   -7487764.90348  -5671314.26346  23611387.5594   23611406.2174
      -399.6624       -311.4284
  20935718.7264  -22775009.26949 -17737981.32147  20935718.7254   20935732.8524
       692.3094        539.4594
 00  9 18  0 43  0.0000000  0  9G 1G31G10G19G27G 8G28G 3G13
  21547326.8474  -16261583.70048 -12473341.94347  21547326.2514   21547343.3194
     -2017.8754      -1572.3694
  22853270.6324   -3537382.38048  -2570565.79846  22853269.7894   22853289.7684
      1832.3694       1427.8154
  24798308.5904   -2826538.50447  -2183350.57445  24798307.8764   24798332.1784
      2140.4764       1667.8994
  20950685.0224  -21623557.20649 -16380872.90547  20950684.6564   20950699.9694
      -652.7994       -508.6774
  21495949.4654  -21372418.90148 -16442899.98547  21495949.0804   21495966.7394
       760.8354        592.8554
  22462877.8784  -11851540.68848  -9205931.13246  22462877.0034   22462898.6504
      1819.7744       1417.9994
  22513304.8014   -9301665.39148  -6815601.30747  22513304.3924   22513320.9014
     -2819.9024      -2197.3264
  23613717.4334   -7475519.22248  -5661771.95646  23613717.2194   23613736.0344
      -417.2284       -325.1204
  20931802.1594  -22795590.12948 -17754018.29647  20931802.2604   20931816.4534
       679.2424        529.2774
 00  9 18  0 43 30.0000000  0  9G 1G31G10G19G27G 8G28G 3G13
  21558881.0324  -16200863.85948 -12426027.82247  21558880.8784   21558898.0564
     -2028.7264      -1580.8264
  22842845.7824   -3592163.35648  -2613252.09246  22842845.3894   22842864.8504
      1821.0474       1418.9894
  24786126.5054   -2890556.46747  -2233234.56145  24786125.2014   24786151.2334
      2128.8554       1658.8404
  20954428.3764  -21603885.11149 -16365543.97247  20954427.9514   20954443.8424
      -657.3094       -512.1914
  21491618.8014  -21395176.57648 -16460633.11547  21491618.4244   21491636.0694
       757.7424        590.4454
  22452501.3844  -11906067.29848  -9248419.17846  22452500.6644   22452522.7984
      1816.6624       1415.5734
  22529429.5654   -9216931.21048  -6749574.68647  22529428.9094   22529444.8754
     -2827.6704      -2203.3814
  23616147.7634   -7462743.98648  -5651817.00146  23616147.5284   23616167.1784
      -433.0994       -337.4894
  20927960.4454  -22815776.08748 -17769747.55947  20927960.6354   20927975.2134
       667.8404        520.3914
 00  9 18  0 44  0.0000000  0  9G 1G31G10G19G27G 8G28G 3G13
  21570507.4454  -16139767.43248 -12378420.26947  21570506.9044   21570524.6844
     -2043.6584      -1592.4594
  22832495.9084   -3646552.07048  -2655632.74346  22832495.2124   22832514.4974
      1805.5234       1406.8984
  24774020.4904   -2954172.90147  -2282805.69645  24774019.3384   24774045.2754
      2113.0134       1646.5014
  20958206.9554  -21584027.48249 -16350070.36447  20958206.5024   20958222.5054
      -665.8794       -518.8684
  21487315.3384  -21417790.99748 -16478254.63347  21487314.8304   21487332.3234
       750.5764        584.8624
  22442153.4724  -11960446.92848  -9290792.71646  22442152.6664   22442174.2864
      1809.3074       1409.8434
  22545607.2554   -9131913.60248  -6683327.14747  22545606.7374   22545622.1214
     -2839.4874      -2212.5984
  23618679.5814   -7449440.95448  -5641450.77246  23618678.8634   23618698.2554
      -453.0734       -353.0514
  20924194.1834  -22835567.73048 -17785169.55847  20924194.3334   20924209.0054
       652.2994        508.2834
 00  9 18  0 44 30.0000000  0  9G 1G31G10G19G27G 8G28G 3G13
  21582213.3494  -16078252.66448 -12330486.73747  21582212.8254   21582230.5784
     -2055.9934      -1602.0704
  22822229.4534   -3700503.50548  -2697672.66646  22822228.7254   22822248.1544
      1792.5144       1396.7584
  24761999.2224   -3017343.60947  -2332029.50145  24761998.3354   24762025.1944
      2099.6954       1636.1154
  20962028.4884  -21563942.63849 -16334419.78347  20962028.2894   20962044.3584
      -671.8474       -523.5194
  21483046.8334  -21440220.06148 -16495731.72047  21483046.6894   21483064.1584
       746.0074        581.2994
  22431841.1334  -12014637.62648  -9333019.03646  22431840.6164   22431861.5064
      1804.6254       1406.1954
  22561847.1214   -9046573.22548  -6616827.95947  22561846.6794   22561862.8684
     -2848.5794      -2219.6724
  23621318.9064   -7435567.62848  -5630640.16446  23621318.4064   23621337.9814
      -470.5344       -366.6584
  20920511.4304  -22854921.27848 -17800250.17847  20920511.4614   20920526.0504
       639.2764        498.1364
 00  9 18  0 45  0.0000000  0  9G 1G31G10G19G27G 8G28G 3G13
  21593985.5294  -16016389.12648 -12282281.44547  21593985.0924   21594003.1624
     -2069.2234      -1612.3814
  22812033.1314   -3754084.25548  -2739423.74746  22812032.5074   22812051.7164
      1778.5074       1385.8434
  24750049.9194   -3080135.62647  -2380958.21245  24750048.1144   24750077.7164
      2085.4304       1625.0014
  20965880.3884  -21543699.88049 -16318646.08647  20965880.1154   20965896.4524
      -678.7014       -528.8604
  21478801.0064  -21462533.18548 -16513118.45947  21478800.6014   21478818.0844
       740.5104        577.0154
  22421551.5764  -12068708.56548  -9375152.04646  22421550.9514   22421572.3214
      1799.0084       1401.8174
  22578134.7114   -8960981.95248  -6550133.49547  22578134.2614   22578150.4244
     -2858.5274      -2227.4204
  23624054.4204   -7421192.98048  -5619438.96646  23624054.0474   23624073.0274
      -488.8384       -380.9164
  20916898.8534  -22873904.16648 -17815041.96447  20916899.0544   20916913.7694
       625.2654        487.2194
 00  9 18  0 45 30.0000000  0  9G 1G31G10G19G27G 8G28G 3G13
  21605839.3274  -15954096.88748 -12233742.09547  21605838.9954   21605856.8944
     -2081.7754      -1622.1624
  22801922.5034   -3807210.85548  -2780820.94246  22801922.1974   22801942.0004
      1765.0184       1375.3324
  24738187.5594   -3142466.82247  -2429527.85245  24738186.3074   24738215.0574
      2071.7494       1614.3454
  20969777.6454  -21523219.75149 -16302687.60047  20969777.4484   20969794.6964
      -684.8884       -533.6744
  21474592.3194  -21484650.07748 -16530352.25547  21474591.9554   21474609.4184
       735.7324        573.2934
  22411300.2344  -12122579.56948  -9417129.27446  22411299.4184   22411320.6574
      1794.0764       1397.9774
  22594484.5914   -8875062.16948  -6483183.13547  22594483.9914   22594500.3514
     -2867.6514      -2234.5294
  23626900.4094   -7406236.38248  -5607784.32646  23626900.1744   23626919.3604
      -506.5284       -394.7044
  20913372.7154  -22892435.39848 -17829481.80147  20913372.8234   20913387.0884
       611.9094        476.8084
 00  9 18  0 46  0.0000000  0  9G 1G31G10G19G27G 8G28G 3G13
  21617757.7094  -15891466.68648 -12184939.40647  21617757.1234   21617775.1394
     -2093.7324      -1631.4774
  22791883.1854   -3859971.16148  -2821932.71046  22791882.5394   22791902.0304
      1752.1184       1365.2834
  24726397.6524   -3204425.39347  -2477807.13345  24726396.9414   24726424.5564
      2058.6014       1604.0954
  20973703.1884  -21502592.27249 -16286614.20647  20973702.7774   20973718.6554
      -690.4614       -538.0274
  21470403.1854  -21506661.40248 -16547503.78347  21470402.9004   21470420.5374
       731.5034        569.9994
  22401069.2504  -12176341.23048  -9459021.30046  22401068.6434   22401090.0144
      1789.7574       1394.6094
  22610879.6234   -8788906.51648  -6416048.91047  22610879.1444   22610894.9614
     -2876.1854      -2241.1834
  23629839.9974   -7390788.10348  -5595746.55946  23629839.3274   23629859.0684
      -523.5674       -407.9754
  20909915.3834  -22910603.33949 -17843638.53747  20909915.4924   20909929.7344
       599.0984        466.8274
 00  9 18  0 46 30.0000000  0  9G 1G31G10G19G27G 8G28G 3G13
  21629743.1344  -15828482.34248 -12135860.75747  21629742.7324   21629760.5464
     -2105.3664      -1640.5434
  22781916.2514   -3912345.84148  -2862743.98146  22781915.6534   22781935.0044
      1739.3484       1355.3284
  24714681.6124   -3265992.77447  -2525781.65445  24714680.5394   24714707.8994
      2045.6964       1594.0424
  20977659.2254  -21481801.18549 -16270413.22247  20977658.9204   20977675.5014
      -695.7574       -542.1504
  21466238.2214  -21528550.67848 -16564560.26047  21466237.6584   21466254.8814
       727.6284        566.9794
  22390862.1634  -12229976.99448  -9500815.22446  22390861.6154   22390883.7204
      1785.7114       1391.4554
  22627322.3584   -8702500.99248  -6348720.01746  22627321.5754   22627337.7574
     -2884.3394      -2247.5354
  23632876.0064   -7374831.26348  -5583312.54446  23632875.6254   23632895.4334
      -540.3614       -421.0624
  20906530.6774  -22928390.06848 -17857498.21147  20906530.6304   20906544.9754
       586.5154        457.0214
 00  9 18  0 47  0.0000000  0  9G 1G31G10G19G27G 8G28G 3G13
  21641805.2274  -15765095.43348 -12086468.42747  21641804.6794   21641822.9054
     -2118.7164      -1650.9454
  22772032.6304   -3964282.78348  -2903214.14646  22772032.1974   22772051.5774
      1724.7644       1343.9634
  24703049.7764   -3327117.83247  -2573411.55245  24703049.7194   24703076.2634
      2030.9794       1582.5854
  20981656.1654  -21460797.69349 -16254046.75747  20981655.6684   20981672.1104
      -702.7544       -547.6054
  21462105.0344  -21550268.71248 -16581483.28447  21462104.6114   21462122.1264
       722.0104        562.6014
  22380689.2814  -12283437.76848  -9542472.79346  22380688.6144   22380710.4254
      1779.9464       1386.9664
  22643821.1214   -8615798.93148  -6281160.03447  22643820.5484   22643836.7964
     -2894.1054      -2255.1434
  23636018.7424   -7358316.64648  -5570443.94746  23636018.1114   23636037.3244
      -558.8974       -435.5044
  20903227.7894  -22945744.70548 -17871021.20647  20903227.9994   20903242.5504
       572.1544        445.8314
 00  9 18  0 47 30.0000000  0  9G 1G31G10G19G27G 8G28G 3G13
  21653943.8544  -15701307.05948 -12036763.27147  21653943.3754   21653961.4544
     -2133.4414      -1662.4204
  22762233.0664   -4015780.11548  -2943341.75146  22762232.1864   22762251.9334
      1708.7334       1331.4754
  24691503.3324   -3387799.58747  -2620696.04845  24691502.2344   24691528.5204
      2014.8434       1570.0124
  20985693.2364  -21439582.51149 -16237515.30647  20985692.8784   20985709.3724
      -711.1714       -554.1604
  21458004.5224  -21571816.43348 -16598273.60447  21458004.0964   21458021.5174
       714.9424        557.0954
  22370549.1554  -12336724.28648  -9583994.58246  22370548.5494   22370569.9724
      1772.7984       1381.3964
  22660375.7514   -8528803.46548  -6213371.34446  22660375.1754   22660391.2124
     -2905.2104      -2263.7994
  23639267.5554   -7341244.94448  -5557141.31746  23639266.9274   23639285.9254
      -578.7884       -451.0044
  20900007.6034  -22962666.32549 -17884206.76347  20900007.7664   20900022.5004
       556.3294        433.4984
 00  9 18  0 48  0.0000000  0  9G 1G31G10G19G27G 8G28G 3G13
  21666155.6834  -15637133.13248 -11986757.69647  21666155.3184   21666173.4704
     -2145.9074      -1672.1334
  22752514.7064   -4066850.52948  -2983136.69546  22752513.9414   22752533.5744
      1694.8644       1320.6704
  24680037.1234   -3448051.66947  -2667645.72845  24680036.3904   24680062.6644
      2000.8514       1559.1084
  20989767.4384  -21418171.69449 -16220831.47647  20989767.2014   20989783.4704
      -717.3304       -558.9634
  21453933.5114  -21593209.41448 -16614943.33547  21453932.9744   21453950.1654
       710.1574        553.3654
  22360438.8664  -12389852.63048  -9625393.13546  22360438.2474   22360459.8744
      1767.9094       1377.5854
  22676983.0614   -8441532.78148  -6145368.30046  22676982.4384   22676998.2374
     -2913.9724      -2270.6274
  23642618.9514   -7323631.81648  -5543416.89646  23642618.7814   23642637.9944
      -596.5064       -464.8074
  20896867.4034  -22979168.98248 -17897065.85547  20896867.3264   20896881.8944
       542.7734        422.9364
 00  9 18  0 48 30.0000000  0  9G 1G31G10G19G27G 8G28G 3G13
  21678445.9634  -15572549.80348 -11936433.10047  21678445.2064   21678463.1374
     -2159.6224      -1682.8204
  22742882.8054   -4117466.83048  -3022577.76946  22742882.0794   22742901.3534
      1679.5454       1308.7334
  24668657.7604   -3507847.43247  -2714239.84445  24668656.7504   24668684.7934
      1985.6394       1547.2424
  20993883.6444  -21396540.84449 -16203976.12447  20993883.3414   20993899.4754
      -724.7354       -564.7344
  21449896.2764  -21614423.39648 -16631473.57147  21449895.9724   21449913.1104
       704.1104        548.6524
  22350363.5964  -12442798.15748  -9666649.22246  22350362.9254   22350384.5634
      1761.7424       1372.7824
  22693645.9754   -8353964.83548  -6077133.50846  22693645.6114   22693662.2524
     -2923.9094      -2278.3694
  23646078.4614   -7305452.44448  -5529251.28446  23646077.9324   23646097.5924
      -615.4854       -479.5954
  20893811.4974  -22995227.29448 -17909578.69947  20893811.4484   20893826.0684
       527.7914        411.2614
 00  9 18  0 49  0.0000000  0  9G 1G31G10G19G27G 8G28G 3G13
  21690807.2324  -15507588.16448 -11885813.72047  21690806.7674   21690825.0714
     -2170.9574      -1691.6524
  22733331.2884   -4167656.82548  -3061686.65546  22733330.6264   22733349.9274
      1666.5774       1298.6244
  24657360.2324   -3567215.76247  -2760500.85845  24657359.1154   24657388.3744
      1972.5044       1537.0244
  20998035.8694  -21374720.59749 -16186973.18147  20998035.3904   20998051.6724
      -729.7884       -568.6724
  21445887.9844  -21635488.99148 -16647888.17547  21445887.4434   21445904.3864
       700.4274        545.7814
  22340317.0664  -12495591.51948  -9707786.71446  22340316.6934   22340338.0094
      1757.9114       1369.7964
  22710360.4724   -8266132.98748  -6008693.11646  22710359.8574   22710375.9804
     -2931.3574      -2284.1704
  23649639.6194   -7286737.28748  -5514668.24646  23649639.2484   23649659.0614
      -632.0364       -492.4894
  20890834.2484  -23010870.07548 -17921767.76047  20890834.4964   20890849.2864
       515.2104        401.4594
 00  9 18  0 49 30.0000000  0  9G 1G31G10G19G27G 8G28G 3G13
  21703245.0154  -15442227.69248 -11834883.55847  21703244.6394   21703262.7254
     -2186.2494      -1703.5674
  22723866.0524   -4217396.85948  -3100444.91046  22723865.0634   22723884.5024
      1649.5904       1285.3884
  24646149.8924   -3626133.59047  -2806410.85645  24646149.0954   24646176.3934
      1955.4654       1523.7384
  21002228.2424  -21352690.44149 -16169806.71247  21002227.8114   21002243.8444
      -738.7644       -575.6604
  21441911.1564  -21656385.24848 -16664170.84147  21441910.8464   21441927.9264
       692.8064        539.8454
  22330304.0304  -12548211.99648  -9748789.48846  22330303.3064   22330324.5544
      1750.1444       1363.7444
  22727127.9054   -8178019.19248  -5940033.28246  22727127.5084   22727143.7374
     -2942.7324      -2293.0304
  23653307.6324   -7267464.97648  -5499651.05346  23653307.1224   23653326.3964
      -652.6694       -508.5674
  20887940.9914  -23026074.90548 -17933615.56547  20887941.0184   20887955.9374
       498.5864        388.5054
 00  9 18  0 50  0.0000000  0  9G 1G31G10G19G27G 8G28G 3G13
  21715751.0484  -15376508.56548 -11783673.92747  21715750.5944   21715768.9484
     -2194.9084      -1710.3164
  22714479.2864   -4266724.12348  -3138881.52346  22714478.7274   22714498.2094
      1639.0364       1277.1644
  24635016.7434   -3684638.27947  -2851998.98345  24635015.9054   24635042.3224
      1944.9744       1515.5684
  21006452.5304  -21330490.32949 -16152507.89247  21006452.2014   21006467.9954
      -741.1364       -577.5094
  21437959.8084  -21677151.85848 -16680352.49747  21437959.1174   21437976.1384
       691.7714        539.0394
  22320315.6014  -12600699.04048  -9789688.29546  22320314.9484   22320335.7674
      1749.0044       1362.8534
  22743941.2384   -8089664.74748  -5871185.78246  22743940.6554   22743956.7244
     -2947.4024      -2296.6684
  23657073.7364   -7247675.25148  -5484230.72046  23657073.4584   23657092.7204
      -666.5584       -519.3894
  20885123.4994  -23040879.72248 -17945151.68047  20885123.7024   20885138.6294
       488.5144        380.6574
 00  9 18  0 50 30.0010000  0  9G 1G31G10G19G27G 8G28G 3G13
  21728307.7214  -15310522.92848 -11732256.63247  21728307.4014   21728325.4574
     -2203.3934      -1716.9264
  22705153.1064   -4315730.89348  -3177068.41446  22705152.6524   22705171.8374
      1628.5604       1269.0014
  24623943.9344   -3742823.55647  -2897338.19345  24623943.5484   24623970.7404
      1934.5564       1507.4534
  21010691.6714  -21308212.93549 -16135148.87047  21010691.3084   21010707.0274
      -743.3914       -579.2664
  21434014.2204  -21697883.09548 -16696506.58547  21434013.9354   21434030.8014
       690.8974        538.3574
  22310334.7844  -12653148.08948  -9830557.49146  22310334.1104   22310354.7134
      1747.9974       1362.0724
  22760782.6694   -8001163.21348  -5802223.72346  22760782.3004   22760798.6054
     -2951.8714      -2300.1474
  23660921.0904   -7227460.96048  -5468479.53646  23660920.6924   23660939.0404
      -680.3874       -530.1684
  20882364.7924  -23055376.87948 -17956448.08647  20882364.9994   20882379.8114
       478.5364        372.8824
 00  9 18  0 51  0.0010000  0  9G 1G31G10G19G27G 8G28G 3G13
  21740917.5624  -15244261.08248 -11680624.11747  21740916.7174   21740934.9374
     -2214.6054      -1725.6634
  22695892.1364   -4364396.75848  -3214989.66146  22695891.7694   22695911.1104
      1615.2914       1258.6634
  24612935.7554   -3800669.43447  -2942412.88845  24612933.4154   24612963.2584
      1921.2254       1497.0694
  21014948.3244  -21285845.76849 -16117719.88647  21014947.8474   21014963.6524
      -748.3404       -583.1224
  21430079.1824  -21718563.06548 -16712620.71947  21430078.6484   21430095.2954
       687.2554        535.5204
  22300364.1634  -12705541.46648  -9871383.29146  22300363.6794   22300384.2564
      1744.2724       1359.1674
  22777653.6904   -7912508.68448  -5733142.59446  22777653.0034   22777669.1614
     -2958.9594      -2305.6704
  23664851.0874   -7206808.93548  -5452387.19646  23664850.6134   23664869.4004
      -696.9194       -543.0474
  20879667.8244  -23069550.32749 -17967492.22247  20879667.8804   20879682.4584
       465.7994        362.9584
 00  9 18  0 51 30.0010000  0  9G 1G31G10G19G27G 8G28G 3G13
  21753589.9844  -15177667.61148 -11628733.18647  21753589.3474   21753607.2304
     -2225.2474      -1733.9574
  22686706.8004   -4412667.09348  -3252602.71246  22686706.1204   22686725.1564
      1602.4464       1248.6534
  24602002.6614   -3858122.48646  -2987181.49045  24602000.7504   24602029.1354
      1908.5844       1487.2084
  21019231.8664  -21263334.43849 -16100178.56047  21019231.5174   21019247.0464
      -752.7464       -586.5624
  21426163.5954  -21739138.72948 -16728653.53347  21426163.2304   21426179.7724
       684.1844        533.1244
  22290414.6174  -12757827.27948  -9912125.27746  22290413.8234   22290434.9044
      1741.0704       1356.6694
  22794562.9374   -7823646.53748  -5663899.59746  22794562.4964   22794579.3794
     -2965.4504      -2310.7334
  23668874.8004   -7185664.94248  -5435911.50846  23668874.2664   23668892.9474
      -712.9164       -555.5154
  20877042.5804  -23083344.98548 -17978241.21447  20877042.7114   20877057.1614
       453.5704        353.4284
 00  9 18  0 52  0.0010000  0  9G 1G31G10G19G27G 8G28G 3G13
  21766321.3884  -15110762.01548 -11576599.05847  21766320.9774   21766338.8984
     -2235.4584      -1741.9144
  22677592.9974   -4460558.12848  -3289920.20946  22677592.4984   22677611.4304
      1589.9254       1238.8974
  24591141.7584   -3915199.73847  -3031657.34645  24591140.7334   24591169.0044
      1896.1824       1477.5404
  21023539.3174  -21240697.65349 -16082539.40847  21023539.0104   21023554.8014
      -756.7544       -589.6804
  21422264.2664  -21759629.02448 -16744619.84147  21422263.6824   21422280.6434
       681.4824        531.0204
  22280481.5924  -12810024.14148  -9952797.94746  22280480.8934   22280502.6774
      1738.2384       1354.4654
  22811509.2564   -7734598.05048  -5594511.30446  22811508.5654   22811524.6514
     -2971.4504      -2315.4124
  23672989.0894   -7164047.68148  -5419067.03346  23672988.8614   23673006.9504
      -728.5494       -567.6984
  20874486.4204  -23096778.37048 -17988708.71147  20874486.5714   20874500.9514
       441.6074        344.1094
 00  9 18  0 52 30.0010000  0  9G 1G31G10G19G27G 8G28G 3G13
  21779122.4804  -15043490.90248 -11524180.09347  21779122.2884   21779140.3694
     -2250.8254      -1753.8834
  22668562.7494   -4508013.06748  -3326897.90846  22668562.1914   22668580.8824
      1572.2014       1225.0864
  24580363.0804   -3971844.75647  -3075796.36045  24580362.2504   24580389.7654
      1878.6034       1463.8494
  21027881.0344  -21217881.83849 -16064760.85347  21027880.6924   21027896.4224
      -765.8784       -596.7854
  21418390.9424  -21779979.97748 -16760477.59747  21418390.8164   21418408.0164
       673.6954        524.9544
  22270575.8084  -12862078.41548  -9993359.51946  22270575.2424   22270596.9724
      1730.3794       1348.3404
  22828499.7294   -7645312.05348  -5524937.95246  22828499.2764   22828515.7774
     -2982.4844      -2324.0094
  23677203.4884   -7141903.12948  -5401811.67346  23677203.0154   23677221.4684
      -749.2894       -583.8594
  20872009.6754  -23109793.95348 -17998850.68147  20872009.6864   20872023.7764
       424.5444        330.8094
 00  9 18  0 53  0.0010000  0  9G 1G31G10G19G27G 8G28G 3G13
  21792003.6664  -14975803.06848 -11471436.41546  21792002.8064   21792020.9644
     -2260.4134      -1761.3584
  22659625.1154   -4554977.46748  -3363493.38046  22659624.7854   22659643.8734
      1560.0984       1215.6554
  24569677.5944   -4028003.84347  -3119556.67945  24569676.3224   24569703.5724
      1866.6554       1454.5384
  21032266.8594  -21194835.23649 -16046802.45147  21032266.2964   21032281.7214
      -769.2834       -599.4424
  21414555.2924  -21800139.82048 -16776186.46347  21414554.8034   21414571.5314
       671.6034        523.3244
  22260707.7114  -12913938.13448 -10033769.48646  22260706.9634   22260727.9654
      1728.2294       1346.6654
  22845544.6294   -7555739.06448  -5455140.95346  22845544.1174   22845560.7894
     -2987.7274      -2328.0954
  23681527.6414   -7119179.82048  -5384105.35446  23681527.1064   23681545.9144
      -764.2964       -595.5474
  20869622.2054  -23122339.62548 -18008626.49247  20869622.2524   20869636.5154
       413.1454        321.9314
 00  9 18  0 53 30.0010000  0  9G 1G31G10G19G27G 8G28G 3G13
  21804937.4484  -14907834.50248 -11418473.99147  21804937.1584   21804955.1684
     -2272.6414      -1770.8874
  22650756.0334   -4601583.93448  -3399809.94446  22650755.4584   22650774.6494
      1545.2274       1204.0714
  24559056.9804   -4083811.10147  -3163042.85545  24559055.8754   24559083.6264
      1852.0384       1443.1504
  21036670.1894  -21171693.57949 -16028769.99947  21036669.8524   21036685.4084
      -775.3584       -604.1734
  21410729.3014  -21820244.15748 -16791852.07447  21410728.9484   21410745.5384
       666.8784        519.6424
  22250850.1334  -12965739.02248 -10074133.61846  22250849.4834   22250870.3304
      1723.3114       1342.8324
  22862618.8694   -7466017.08048  -5385227.80746  22862618.1324   22862634.1174
     -2995.5654      -2334.2034
  23685936.0124   -7096013.17548  -5366053.58446  23685935.4044   23685954.6294
      -781.9454       -609.3014
  20867298.9484  -23134549.85148 -18018140.86447  20867298.9024   20867312.7944
       399.0594        310.9544
 00  9 18  0 54  0.0010000  0  9G 1G31G10G19G27G 8G28G 3G13
  21817948.0824  -14839465.20448 -11365199.30547  21817947.2294   21817965.4094
     -2283.8864      -1779.6494
  22641978.3254   -4647709.72848  -3435751.96046  22641977.6574   22641997.2834
      1531.2504       1193.1764
  24548526.7684   -4139144.09447  -3206159.43845  24548526.1024   24548554.1784
      1838.3174       1432.4524
  21041114.8844  -21148336.31949 -16010569.57847  21041114.6134   21041130.1464
      -780.4054       -608.1084
  21406936.9494  -21840172.17848 -16807380.30547  21406936.4144   21406953.5204
       663.1244        516.7174
  22241026.3654  -13017360.53948 -10114357.99246  22241025.6984   22241046.7204
      1719.4794       1339.8484
  22879742.9364   -7376027.88248  -5315106.42846  22879742.5204   22879758.5024
     -3002.2894      -2339.4484
  23690451.6794   -7072282.88348  -5347562.64146  23690451.1174   23690470.0064
      -798.6624       -622.3294
  20865062.5844  -23146301.84448 -18027298.20447  20865062.6044   20865076.1904
       385.8694        300.6754
 00  9 18  0 54 30.0010000  0  9G 1G31G10G19G27G 8G28G 3G13
  21831017.2944  -14770784.94848 -11311682.31546  21831016.6884   21831034.9534
     -2295.0684      -1788.3604
  22633275.5984   -4693441.44248  -3471386.91246  22633275.2204   22633294.4764
      1517.2104       1182.2374
  24538069.0294   -4194089.72147  -3248974.15545  24538068.9484   24538097.3154
      1824.4724       1421.6824
  21045583.7964  -21124852.28649 -15992270.41447  21045583.4974   21045599.1614
      -785.5034       -612.0764
  21403161.4074  -21860012.95848 -16822840.57847  21403160.9854   21403177.8494
       659.3454        513.7754
  22231220.1404  -13068891.65448 -10154511.92646  22231219.5014   22231240.5824
      1715.5604       1336.7944
  22896900.4344   -7285862.97648  -5244848.09946  22896899.7944   22896916.8634
     -3008.9794      -2344.6554
  23695057.8874   -7048077.94448  -5328701.80546  23695057.3864   23695076.4804
      -815.3104       -635.3004
  20862896.5554  -23157683.10648 -18036166.64947  20862896.7384   20862910.2444
       372.6134        290.3454
 00  9 18  0 55  0.0010000  0  9G 1G31G10G19G27G 8G28G 3G13
  21844166.9014  -14701683.25048 -11257836.92946  21844166.3554   21844184.7094
     -2310.3984      -1800.3084
  22624670.1174   -4738665.04648  -3506625.93346  22624669.3344   22624688.7554
      1499.0004       1168.0464
  24527708.8624   -4248535.22746  -3291399.20245  24527708.2744   24527735.3144
      1806.5304       1407.6924
  21050097.8494  -21101130.84449 -15973786.26347  21050097.5114   21050113.3414
      -794.6554       -619.2084
  21399423.4284  -21879655.49048 -16838146.38947  21399422.9984   21399440.1614
       651.4774        507.6434
  22221452.0764  -13120221.27148 -10194508.86246  22221451.6164   22221472.3314
      1707.6144       1330.6024
  22914112.9324   -7195414.04748  -5174368.49746  22914112.4224   22914128.9264
     -3019.6634      -2352.9824
  23699775.5244   -7023287.37148  -5309384.64146  23699775.2034   23699794.4204
      -836.0904       -651.4924
  20860822.8644  -23168581.17848 -18044658.55947  20860822.9724   20860836.5704
       355.2194        276.7924
 00  9 18  0 55 30.0010000  0  9G 1G31G10G19G27G 8G28G 3G13
  21857395.8644  -14632165.20848 -11203667.12846  21857395.4094   21857413.4164
     -2321.6854      -1809.1004
  22616160.5534   -4783382.37148  -3541470.46846  22616159.9984   22616179.0004
      1484.6154       1156.8374
  24517444.4974   -4302483.14046  -3333436.53245  24517443.5804   24517469.3374
      1792.4814       1396.7344
  21054656.6094  -21077176.37849 -15955120.50647  21054656.1504   21054671.6084
      -799.8694       -623.2734
  21395722.6024  -21899104.07648 -16853301.08747  21395722.0954   21395738.9334
       647.5554        504.5874
  22211721.7444  -13171353.89748 -10234352.30246  22211720.9894   22211741.7604
      1703.5944       1327.4714
  22931377.3284   -7104687.76348  -5103672.79146  22931376.7004   22931393.6624
     -3026.2984      -2358.1504
  23704603.4564   -6997915.88648  -5289614.81546  23704603.1754   23704622.5734
      -852.9314       -664.6154
  20858840.4324  -23178998.98148 -18052776.25647  20858840.4434   20858853.7404
       341.7544        266.2994
 00  9 18  0 56  0.0010000  0  9G 1G31G10G19G27G 8G28G 3G13
  21870683.0974  -14562341.35648 -11149259.02846  21870682.5974   21870700.1864
     -2332.2114      -1817.3054
  22607727.3704   -4827700.82148  -3576004.21246  22607726.8314   22607745.4284
      1470.9844       1146.2164
  24507253.6464   -4356042.00147  -3375170.75645  24507252.2184   24507277.7064
      1779.1724       1386.3734
  21059238.3414  -21053098.86349 -15936358.86047  21059237.9034   21059253.6624
      -804.2944       -626.7214
  21392037.3374  -21918468.73648 -16868390.42347  21392036.9134   21392053.8384
       644.4434        502.1624
  22202008.0894  -13222399.72848 -10274128.11446  22202007.4654   22202028.2124
      1700.4004       1324.9844
  22948673.5324   -7013796.68748  -5032848.72346  22948673.0704   22948689.5744
     -3032.0804      -2362.6544
  23709521.6554   -6972073.41048  -5269477.98746  23709521.0474   23709540.8084
      -868.8964       -677.0544
  20856928.6484  -23189045.90748 -18060604.96947  20856928.6594   20856941.8024
       329.0474        256.3984
 00  9 18  0 56 30.0010000  0  9G 1G31G10G19G27G 8G28G 3G13
  21884027.9304  -14492214.08948 -11094614.50146  21884027.3854   21884045.2584
     -2345.6624      -1827.7854
  22599370.0424   -4871619.56348  -3610226.51146  22599369.5314   22599388.1434
      1454.2404       1133.1744
  24497135.2184   -4409211.34047  -3416601.37945  24497134.7464   24497160.6944
      1762.7994       1373.6044
  21063843.0574  -21028899.92549 -15917502.51147  21063842.7434   21063858.6414
      -811.7264       -632.5144
  21388367.9454  -21937750.80048 -16883415.37847  21388367.5004   21388384.7524
       638.3254        497.3984
  22192310.7874  -13273360.31648 -10313837.53146  22192310.0344   22192330.3524
      1694.1654       1320.1254
  22966000.3514   -6922744.88048  -4961899.44646  22965999.7874   22966016.4314
     -3040.7414      -2369.4034
  23714528.4624   -6945762.16448  -5248975.91146  23714528.2374   23714547.6504
      -887.9004       -691.8664
  20855087.3074  -23198721.83048 -18068144.60047  20855087.2484   20855100.4314
       313.2624        244.1014
 00  9 18  0 57  0.0010000  0  9G 1G31G10G19G27G 8G28G 3G13
  21897455.8514  -14421650.46148 -11039629.96246  21897455.2294   21897473.3084
     -2357.0094      -1836.6274
  22591114.5364   -4915002.42348  -3644031.25546  22591113.4714   22591132.4864
      1439.5334       1121.7104
  24487117.4704   -4461855.87447  -3457623.04145  24487116.7544   24487143.8294
      1748.5184       1362.4734
  21068497.0334  -21004446.42949 -15898447.90547  21068496.4824   21068512.6924
      -816.9764       -636.6004
  21384739.8964  -21956816.87248 -16898272.07147  21384739.4394   21384756.8094
       634.3394        494.2894
  22182654.6604  -13324101.94848 -10353376.33946  22182653.8114   22182674.6824
      1690.1184       1316.9714
  22983382.2644   -6831401.16248  -4890722.71746  22983381.3534   22983398.6424
     -3047.2514      -2374.4734
  23719650.0274   -6918848.45148  -5228004.36946  23719649.5604   23719669.3594
      -904.7494       -704.9954
  20853342.0244  -23207891.40548 -18075289.69947  20853342.1944   20853355.4974
       299.6214        233.4714
 00  9 18  0 57 30.0010000  0  9G 1G31G10G19G27G 8G28G 3G13
  21910945.3814  -14350762.39948 -10984392.61346  21910944.7324   21910962.8814
     -2367.9694      -1845.1674
  22582939.5114   -4957957.98448  -3677503.05546  22582939.1664   22582958.0124
      1425.1064       1110.4714
  24477178.5734   -4514085.06947  -3498321.04145  24477178.0434   24477205.4964
      1734.4104       1351.4894
  21073177.5954  -20979849.47649 -15879281.54747  21073177.1554   21073193.0154
      -821.9054       -640.4424
  21381131.4404  -21975778.01748 -16913046.97547  21381130.9874   21381148.5574
       630.6984        491.4534
  22173019.4594  -13374735.95248 -10392831.28246  22173018.5474   22173039.2084
      1686.3094       1314.0064
  23000798.8834   -6739879.13248  -4819407.12346  23000798.0844   23000814.7964
     -3053.2874      -2379.1764
  23724865.1004   -6891443.94848  -5206650.40646  23724864.8584   23724884.3284
      -921.2964       -717.8824
  20851672.5004  -23216665.07248 -18082126.29047  20851672.6404   20851685.7834
       286.2284        223.0334
 00  9 18  0 58  0.0010000  0  9G 1G31G10G19G27G 8G28G 3G13
  21924492.9674  -14279568.21348 -10928916.73246  21924492.8324   21924510.9354
     -2379.2334      -1853.9434
  22574843.9154   -5000501.81048  -3710654.03846  22574843.0904   22574862.2544
      1410.1814       1098.8404
  24467313.9024   -4565915.25847  -3538708.11745  24467312.9824   24467342.0134
      1719.9384       1340.2084
  21077881.7324  -20955126.89349 -15860017.24947  21077881.5184   21077897.7974
      -827.2164       -644.5834
  21377539.8494  -21994651.87548 -16927753.85547  21377539.3914   21377556.8664
       626.6544        488.3024
  22163400.8004  -13425280.19348 -10432216.29046  22163400.4324   22163420.8654
      1682.2354       1310.8294
  23018245.2134   -6648198.69248  -4747967.99946  23018244.6754   23018260.9944
     -3059.6624      -2384.1494
  23730170.0354   -6863566.72548  -5184928.09346  23730169.6784   23730189.3084
      -938.1434       -731.0144
  20850075.4074  -23225058.60948 -18088666.74747  20850075.3274   20850088.7074
       272.4104        212.2684
 00  9 18  0 58 30.0010000  0 10G 1G31G10G19G27G 8G 2G28G 3G13
  21938114.1374  -14207990.41948 -10873141.94446  21938113.8954   21938131.7754
     -2393.5924      -1865.1344
  22566841.3054   -5042553.18148  -3743421.30446  22566840.9714   22566860.2654
      1392.2144       1084.8424
  24457542.4274   -4617266.60947  -3578722.05645  24457541.1734   24457569.0384
      1702.4454       1326.5844
  21082625.5304  -20930200.65449 -15840594.25747  21082625.0734   21082641.2654
      -835.5504       -651.0754
  21373979.8274  -22013360.34048 -16942331.89547  21373979.4864   21373996.7814
       619.5944        482.8014
  22153814.8564  -13475656.33448 -10471470.31646  22153814.0084   22153834.5684
      1675.0724       1305.2474
  24660194.7634    -446847.97657   -137087.74645  24660193.5844   24660224.3184
      2669.1164       2079.8024
  23035736.0924   -6556284.71448  -4676346.86746  23035735.6774   23035752.4734
     -3068.9674      -2391.3974
  23735580.0104   -6835138.69248  -5162776.51846  23735579.6324   23735598.9494
      -958.0504       -746.5264
  20848565.0074  -23232992.59548 -18094848.98947  20848565.1534   20848578.5394
       255.5304        199.1134
 00  9 18  0 59  0.0010000  0 10G 1G31G10G19G27G 8G 2G28G 3G13
  21951815.0204  -14135993.78048 -10817040.78646  21951814.4304   21951832.3894
     -2406.1814      -1874.9434
  22558940.1394   -5084073.33348  -3775774.63846  22558939.7424   22558959.5214
      1375.7654       1072.0244
  24447868.4744   -4668100.89747  -3618333.11445  24447867.4594   24447895.8994
      1686.4654       1314.1294
  21087414.5254  -20905034.37449 -15820984.17647  21087414.1274   21087430.0744
      -842.2414       -656.2924
  21370458.0254  -22031866.94348 -16956752.61347  21370457.6864   21370475.3624
       614.1694        478.5744
  22144266.8464  -13525828.26448 -10510565.23346  22144266.2964   22144286.9634
      1669.5464       1300.9434
  24644974.6344    -526825.48147   -199407.09645  24644973.6764   24645003.8684
      2662.7754       2074.8634
  23053276.9874   -6464103.18448  -4604517.32146  23053276.4574   23053293.5924
     -3076.5314      -2397.2924
  23741100.8644   -6806124.32148  -5140168.08046  23741100.5764   23741120.5994
      -976.2744       -760.7274
  20847149.6044  -23240430.38648 -18100644.63547  20847149.7774   20847163.5604
       240.2674        187.2204
 00  9 18  0 59 30.0010000  0 10G 1G31G10G19G27G 8G 2G28G 3G13
  21965578.3954  -14063665.45148 -10760681.17546  21965577.9604   21965596.1294
     -2418.1194      -1884.2434
  22551125.0044   -5125146.02248  -3807779.31146  22551124.2904   22551143.2434
      1359.9524       1059.7044
  24438278.2334   -4718503.03047  -3657607.42945  24438276.7874   24438304.1784
      1671.1724       1302.2114
  21092232.4514  -20879714.96349 -15801254.82447  21092232.0914   21092248.4174
      -848.2134       -660.9444
  21366958.1634  -22050258.11748 -16971083.41247  21366957.9324   21366975.5474
       609.4634        474.9084
  22134741.8514  -13575882.72148 -10549568.62546  22134741.1544   22134762.1214
      1664.7844       1297.2314
  24629781.9414    -606660.51747   -261615.49045  24629781.4704   24629811.2574
      2657.0974       2070.4474
  23070852.9694   -6371742.83648  -4532548.42246  23070852.7804   23070869.4154
     -3083.2924      -2402.5574
  23746717.3914   -6776610.46148  -5117170.46346  23746717.2984   23746737.1954
      -993.7764       -774.3624
  20845812.5334  -23247456.15848 -18106119.26347  20845812.7574   20845826.5724
       225.6984        175.8694
 00  9 18  1  0  0.0010000  0 10G 1G31G10G19G27G 8G 2G28G 3G13
  21979401.5634  -13991024.24348 -10704077.77946  21979401.1474   21979419.3784
     -2425.9604      -1890.3554
  22543391.4284   -5165786.98548  -3839447.56646  22543390.8924   22543409.3024
      1348.1294       1050.4914
  24428766.1124   -4768489.15647  -3696557.60045  24428765.3994   24428791.5444
      1659.9054       1293.4274
  21097076.7794  -20854260.13149 -15781419.93147  21097076.2744   21097092.1264
      -850.1184       -662.4294
  21363477.1594  -22068551.57848 -16985338.04047  21363476.8564   21363494.1844
       608.7924        474.3824
  22125235.5794  -13625837.23948 -10588494.15346  22125235.0974   22125255.9974
      1664.0954       1296.6944
  24614613.4734    -686369.88947   -323725.98645  24614612.7934   24614643.8834
      2655.4964       2069.1974
  23088458.7644   -6279224.09748  -4460456.11146  23088458.5024   23088475.6824
     -3085.9584      -2404.6354
  23752426.0444   -6746615.37048  -5093797.94246  23752425.7434   23752445.8234
     -1007.2254       -784.8414
  20844550.8704  -23254086.92748 -18111286.09547  20844550.9944   20844564.7594
       215.0954        167.6064
 00  9 18  1  0 30.0010000  0 10G 1G31G10G19G27G 8G 2G28G 3G13
  21993296.3984  -13918007.39748 -10647181.68346  21993295.8674   21993314.3164
     -2441.8194      -1902.7114
  22535752.1454   -5205930.46648  -3870728.15646  22535751.6864   22535769.9584
      1328.1214       1034.8984
  24419345.3164   -4817994.44047  -3735133.09145  24419344.0814   24419370.6564
      1640.5024       1278.3084
  21101958.1444  -20828606.30949 -15761429.92747  21101957.8074   21101973.9514
      -860.1414       -670.2404
  21360026.5424  -22086683.80148 -16999467.00647  21360026.3114   21360043.5924
       600.0454        467.5654
  22115760.6754  -13675628.63648 -10627292.58846  22115760.1394   22115780.7144
      1655.2374       1289.7934
  24599480.3244    -765889.10047   -385688.24845  24599479.5734   24599511.1304
      2645.6344       2061.5064
  23106106.6884   -6186485.94948  -4388192.88246  23106106.2224   23106123.5714
     -3096.5874      -2412.9144
  23758237.5564   -6716076.01248  -5070001.33346  23758236.9934   23758257.1864
     -1028.7594       -801.6214
  20843376.2284  -23260258.69048 -18116095.27247  20843376.4514   20843390.2924
       196.3294        152.9854
 00  9 18  1  1  0.0010000  0 10G 1G31G10G19G27G 8G 2G28G 3G13
  22007266.6544  -13844594.19848 -10589976.75846  22007266.2164   22007284.8544
     -2451.5234      -1910.2704
  22528212.5104   -5245552.43748  -3901602.37546  22528211.8684   22528230.2004
      1314.2264       1024.0704
  24410020.3904   -4866995.84147  -3773315.92845  24410019.2774   24410047.4794
      1627.1494       1267.9064
  21106881.9384  -20802732.45549 -15741268.52347  21106881.5124   21106897.7494
      -863.9394       -673.1974
  21356611.0394  -22104633.39348 -17013453.63347  21356610.6244   21356628.2644
       597.4654        465.5584
  22106321.0434  -13725235.30748 -10665947.09046  22106320.3614   22106340.7694
      1652.6344       1287.7664
  24584388.0674    -845195.74247   -447484.89245  24584387.4244   24584419.1604
      2642.1774       2058.8164
  23123799.7844   -6093509.55048  -4315744.09046  23123799.3184   23123817.0884
     -3100.9694      -2416.3284
  23764156.6154   -6684970.74948  -5045763.72846  23764156.1474   23764176.0454
     -1044.1074       -813.5814
  20842293.6934  -23265947.00648 -18120527.77047  20842293.9304   20842307.7274
       183.7544        143.1864
 00  9 18  1  1 30.0010000  0 10G 1G31G10G19G27G 8G 2G28G 3G13
  22021303.6344  -13770830.08948 -10532498.41646  22021303.2934   22021321.9234
     -2467.2374      -1922.5144
  22520763.8264   -5284695.18548  -3932103.16546  22520763.1524   22520781.7084
      1294.1484       1008.4244
  24400783.3064   -4915536.11047  -3811139.41945  24400782.5334   24400810.0894
      1607.7714       1252.8084
  21111838.9784  -20776683.22449 -15720970.48447  21111838.6304   21111854.7064
      -873.8184       -680.8964
  21353221.5464  -22122444.75848 -17027332.64047  21353221.3314   21353238.5504
       588.8124        458.8154
  22096907.8094  -13774701.88248 -10704492.43946  22096906.9964   22096927.7804
      1643.8944       1280.9574
  24569328.6974    -924333.00447   -509149.62645  24569328.0224   24569357.6654
      2632.5624       2051.3234
  23141529.2764   -6000341.66148  -4243146.07946  23141529.0634   23141546.0194
     -3111.3214      -2424.3944
  23770174.8814   -6653344.85748  -5021120.30346  23770174.5964   23770194.2624
     -1065.4564       -830.2244
  20841294.9814  -23271196.14748 -18124618.03847  20841295.1024   20841308.9784
       165.0714        128.6284
 00  9 18  1  2  0.0010000  0 10G 1G31G10G19G27G 8G 2G28G 3G13
  22035421.6134  -13696642.43748 -10474690.04646  22035421.0364   22035439.2964
     -2479.2654      -1931.8894
  22513420.9534   -5323282.74548  -3962171.34546  22513420.4274   22513438.8324
      1277.6424        995.5644
  24391647.6734   -4963540.31247  -3848545.20845  24391646.6764   24391675.0064
      1591.8404       1240.3894
  21116843.3954  -20750385.08549 -15700478.48647  21116843.1154   21116859.1884
      -880.1174       -685.8034
  21349872.4504  -22140044.06948 -17041046.35847  21349872.1594   21349889.6744
       583.7904        454.9004
  22087535.1354  -13823954.91548 -10742871.40546  22087534.6524   22087554.9214
      1638.8174       1276.9984
  24554316.4444   -1003226.59547   -570624.56245  24554315.6964   24554343.4194
      2626.4154       2046.5404
  23159308.8004   -5906911.06348  -4170343.39446  23159308.1604   23159325.4904
     -3118.0554      -2429.6444
  23776306.1414   -6621125.32448  -4996014.12946  23776305.9374   23776325.2864
     -1083.1664       -844.0264
  20840394.0444  -23275931.91148 -18128308.27647  20840394.1124   20840407.8514
       149.9444        116.8394
 00  9 18  1  2 30.0010000  0 10G 1G31G10G19G27G 8G 2G28G 3G13
  22049597.9244  -13622143.60748 -10416639.20346  22049597.5584   22049616.3204
     -2488.3624      -1938.9764
  22506162.4054   -5361424.44548  -3991892.10846  22506161.6744   22506180.5694
      1264.0734        984.9894
  24382593.7234   -5011118.58547  -3885619.10245  24382593.1264   24382620.7874
      1578.9234       1230.3264
  21121873.9534  -20723949.76949 -15679879.61847  21121873.4904   21121889.7234
      -883.4024       -688.3614
  21346542.8204  -22157543.05048 -17054681.89447  21346542.2194   21346559.5194
       581.7584        453.3184
  22078182.1994  -13873105.95848 -10781170.89746  22078181.4674   22078201.4464
      1636.7044       1275.3544
  24539327.6534   -1081987.04647   -631995.75945  24539327.4684   24539356.5054
      2623.2244       2044.0524
  23177116.8334   -5813331.71548  -4097424.60246  23177116.5124   23177133.0754
     -3121.6844      -2432.4784
  23782528.4874   -6588424.72848  -4970533.21046  23782528.3974   23782548.3844
     -1097.9384       -855.5334
  20839569.7284  -23280263.88548 -18131683.85747  20839569.6714   20839583.5684
       137.7674        107.3524
 00  9 18  1  3  0.0010000  0 10G 1G31G10G19G27G 8G 2G28G 3G13
  22063833.7664  -13547335.77248 -10358347.58646  22063833.3084   22063851.6194
     -2499.8004      -1947.8894
  22498989.1494   -5399119.57748  -4021264.89046  22498988.5904   22499007.2534
      1247.9884        972.4554
  24373621.8934   -5058270.32347  -3922360.69945  24373620.7294   24373648.8824
      1563.5214       1218.3254
  21126930.1874  -20697378.56749 -15659174.85647  21126929.8154   21126945.9764
      -889.0444       -692.7594
  21343231.6714  -22174942.93748 -17068240.24247  21343231.2534   21343248.5614
       577.2694        449.8204
  22068848.2664  -13922156.57248 -10819392.13746  22068847.3954   22068867.2814
      1632.2414       1271.8774
  24524363.9424   -1160614.71347   -693263.46345  24524363.4114   24524393.8684
      2617.6154       2039.6704
  23194951.9304   -5719607.87948  -4024393.22246  23194951.4764   23194969.1014
     -3127.5904      -2437.0754
  23788843.1014   -6555244.70248  -4944678.65246  23788842.6694   23788862.4744
     -1115.0674       -868.8854
  20838822.1974  -23284192.67748 -18134745.23647  20838822.2694   20838835.9574
       123.1554         95.9664
 00  9 18  1  3 30.0010000  0 10G 1G31G10G19G27G 8G 2G28G 3G13
  22078145.6014  -13472127.64448 -10299744.05146  22078145.0974   22078163.4754
     -2512.1184      -1957.4904
  22491918.9784   -5436273.66548  -4050216.06946  22491918.5224   22491937.1174
      1230.9124        959.1494
  24364748.2214   -5104902.13047  -3958697.11145  24364747.7894   24364775.4564
      1547.1914       1205.5964
  21132029.9844  -20670579.37949 -15638292.45547  21132029.5924   21132045.6494
      -895.6564       -697.9104
  21339956.8454  -22192151.55548 -17081649.51047  21339956.4134   21339973.9204
       571.9174        445.6494
  22059550.8304  -13971014.66748 -10857463.37546  22059550.1994   22059570.1944
      1626.8074       1267.6444
  24509444.2984   -1239016.40047   -754355.03845  24509443.0954   24509474.8634
      2611.0844       2034.5894
  23212831.1074   -5625649.50548  -3951179.08546  23212830.7604   23212848.3444
     -3134.3744      -2442.3654
  23795265.6644   -6521493.75048  -4918379.18546  23795265.2014   23795284.5994
     -1133.0564       -882.9014
  20838169.1404  -23287624.78548 -18137419.64047  20838169.2664   20838182.8664
       107.6204         83.8614
 00  9 18  1  4  0.0010000  0 10G 1G31G10G19G27G 8G 2G28G 3G13
  22092527.4364  -13396549.62648 -10240852.27546  22092527.2364   22092545.8284
     -2524.0414      -1966.7804
  22484946.7464   -5472914.05648  -4078766.97746  22484946.0224   22484964.8484
      1214.1174        946.0624
  24355967.6214   -5151042.03947  -3994650.25945  24355966.6214   24355994.3064
      1531.1584       1193.1134
  21137167.5154  -20643581.74149 -15617255.41747  21137167.1014   21137183.1064
      -901.8744       -702.7574
  21336712.7654  -22209198.45848 -17094932.84847  21336712.5394   21336729.9784
       566.8984        441.7414
  22050284.5164  -14019709.40948 -10895407.32246  22050283.6324   22050303.8874
      1621.7384       1263.6924
  24494563.1664   -1317220.38947   -815292.64945  24494562.2654   24494592.0594
      2604.8414       2029.7284
  23230749.6674   -5531488.71448  -3877807.25046  23230749.2604   23230767.3604
     -3140.7204      -2447.3034
  23801791.0174   -6487201.93348  -4891658.26946  23801790.7644   23801810.2454
     -1150.6904       -896.6424
  20837605.2774  -23290588.67348 -18139729.18447  20837605.2134   20837618.7714
        92.3444         71.9554
 00  9 18  1  4 30.0010000  0 10G 1G31G10G19G27G 8G 2G28G 3G13
  22106977.4654  -13320616.84948 -10181684.07646  22106976.9014   22106995.6104
     -2541.1794      -1980.1324
  22478069.5164   -5509052.35148  -4106926.65246  22478069.0564   22478088.0434
      1192.0384        928.8614
  24347278.6894   -5196703.21647  -4030230.36945  24347277.7074   24347304.2794
      1509.8774       1176.5204
  21142340.0484  -20616399.47749 -15596074.46247  21142339.7574   21142355.5654
      -913.3584       -711.7074
  21333497.1654  -22226097.36648 -17108100.85447  21333496.6774   21333513.9224
       556.6274        433.7344
  22041046.3564  -14068255.08348 -10933235.08746  22041045.5744   22041065.9484
      1611.4604       1255.6844
  24479716.2764   -1395239.75247   -876086.45445  24479714.8074   24479744.6204
      2593.4054       2020.8194
  23248704.4204   -5437141.75348  -3804290.38046  23248703.5414   23248721.3264
     -3152.1704      -2456.2284
  23808416.6484   -6452384.05348  -4864527.44046  23808416.2114   23808435.8444
     -1173.5224       -914.4334
  20837127.8784  -23293096.82448 -18141683.59447  20837127.8644   20837141.7244
        71.8444         55.9834
 00  9 18  1  5  0.0010000  0 10G 1G31G10G19G27G 8G 2G28G 3G13
  22121515.9354  -13244215.46848 -10122150.74446  22121515.6144   22121534.5504
     -2554.5714      -1990.5684
  22471310.4164   -5544571.66048  -4134604.02046  22471309.9174   22471328.4594
      1173.5264        914.4384
  24338703.4324   -5241768.84947  -4065346.45245  24338701.9484   24338729.8574
      1492.1974       1162.7554
  21147569.8004  -20588918.45349 -15574660.71647  21147569.3214   21147585.0014
      -921.0874       -717.7294
  21330331.2804  -22242733.40948 -17121063.96747  21330331.0684   21330348.3884
       550.0774        428.6334
  22031858.4574  -14116536.78048 -10970857.15346  22031857.8534   22031878.3824
      1604.8454       1250.5284
  24464926.0934   -1472958.79547   -936646.27245  24464925.1894   24464953.6634
      2585.5644       2014.7064
  23266714.4034   -5342496.25748  -3730540.80146  23266713.9764   23266731.3704
     -3159.8914      -2462.2524
  23815164.4264   -6416925.81948  -4836897.60846  23815163.9074   23815183.4494
     -1192.6944       -929.3734
  20836759.0634  -23295033.97148 -18143193.07947  20836759.0704   20836773.0194
        54.9774         42.8414
 00  9 18  1  5 30.0010000  0 10G 1G31G10G19G27G 8G 2G28G 3G13
  22136141.2294  -13167359.67548 -10062263.31946  22136141.0024   22136159.9174
     -2568.6684      -2001.5514
  22464667.4834   -5579483.15248  -4161807.76946  22464666.6084   22464685.0154
      1154.2894        899.4444
  24330239.0374   -5286251.10347  -4100007.96445  24330238.3964   24330264.2464
      1473.7894       1148.4034
  21152853.4774  -20561152.09649 -15553024.64547  21152852.9144   21152868.8644
      -929.5574       -724.3274
  21327213.4574  -22259119.99348 -17133832.81547  21327213.0154   21327230.4304
       542.8124        422.9744
  22022718.5674  -14164568.16048 -11008284.15746  22022717.9514   22022738.5764
      1597.5754       1244.8624
  24450190.4344   -1550390.02047   -996981.78945  24450189.1514   24450219.8284
      2577.0084       2008.0454
  23284778.6974   -5247568.25848  -3656570.99646  23284778.3494   23284795.9054
     -3168.2114      -2468.7344
  23822030.9124   -6380841.22948  -4808779.68146  23822030.2284   23822049.6974
     -1212.4914       -944.8014
  20836497.0364  -23296411.79948 -18144266.73647  20836497.1654   20836510.9024
        37.3754         29.1254
 00  9 18  1  6  0.0010000  0 10G 1G31G10G19G27G 8G 2G28G 3G13
  22150836.7494  -13090135.83048 -10002089.09946  22150836.2574   22150855.0814
     -2577.4784      -2008.4214
  22458124.0064   -5613870.14948  -4188602.81446  22458123.3044   22458141.3004
      1140.2304        888.4894
  24321869.0114   -5330233.92447  -4134280.33645  24321868.2434   24321894.5354
      1460.5204       1138.0724
  21158175.1314  -20533185.85749 -15531232.86547  21158174.8204   21158190.6384
      -932.7664       -726.8284
  21324126.5344  -22275342.24948 -17146473.53647  21324126.0344   21324142.6314
       540.7724        421.3804
  22013610.0374  -14212434.51348 -11045582.54646  22013609.4774   22013629.8724
      1595.5034       1243.2464
  24435495.0124   -1627617.76847  -1057158.72845  24435493.6594   24435523.6664
      2573.6134       2005.3974
  23302880.0644   -5152445.56548  -3582449.52246  23302879.4714   23302897.2554
     -3171.2224      -2471.0794
  23828999.6514   -6344216.26748  -4780240.58446  23828999.0684   23829019.2204
     -1227.0094       -956.1174
  20836324.8394  -23297315.53048 -18144970.98547  20836325.0324   20836339.0444
        24.9694         19.4584
 00  9 18  1  6 30.0010000  0 10G 1G31G10G19G27G 8G 2G28G 3G13
  22165593.0544  -13012591.78448  -9941665.36746  22165592.8504   22165611.1764
     -2591.9804      -2019.7194
  22451671.2104   -5647777.38948  -4215024.02446  22451670.9054   22451689.2194
      1120.3344        872.9884
  24313586.0574   -5373762.78247  -4168198.95245  24313584.9484   24313612.0094
      1441.5164       1123.2594
  21163526.1104  -20505066.50649 -15509321.74447  21163525.8504   21163541.5264
      -941.7494       -733.8304
  21321061.9164  -22291446.94248 -17159022.62847  21321061.5354   21321078.1654
       532.9914        415.3194
  22004523.6324  -14260182.85048 -11082788.96846  22004522.9554   22004542.9644
      1587.7114       1237.1774
  24420828.9224   -1704687.80047  -1117212.79046  24420827.8404   24420856.8044
      2564.5024       1998.2964
  23321009.2154   -5057177.14848  -3508214.48246  23321008.5994   23321026.1444
     -3179.8974      -2477.8434
  23836063.0484   -6307098.99348  -4751317.94146  23836062.5144   23836083.0244
     -1247.3264       -971.9454
  20836234.8024  -23297790.14048 -18145340.87747  20836234.8344   20836248.6584
         6.7994          5.2994
 00  9 18  1  7  0.0010000  0 10G 1G31G10G19G27G 8G 2G28G 3G13
  22180428.2394  -12934636.00248  -9880920.80446  22180427.4824   22180445.8654
     -2605.1344      -2029.9694
  22445328.1054   -5681109.88448  -4240997.37046  22445327.7494   22445346.0354
      1101.7224        858.4824
  24305405.2744   -5416743.90447  -4201690.73445  24305404.3514   24305432.9934
      1423.8414       1109.4844
  21168924.2024  -20476701.36849 -15487219.09947  21168923.7554   21168939.4974
      -949.3794       -739.7744
  21318037.2114  -22307341.35748 -17171407.84547  21318036.8304   21318053.1774
       526.5434        410.2894
  21995477.3324  -14307720.51048 -11119831.22146  21995476.7854   21995496.9184
      1581.2314       1232.1264
  24406209.3294   -1781506.77747  -1177071.25845  24406209.0994   24406237.6854
      2556.7204       1992.2394
  23339182.9014   -4961673.13048  -3433795.74546  23339182.4214   23339199.9594
     -3187.1664      -2483.5064
  23843237.5164   -6269397.38348  -4721939.97446  23843236.9984   23843256.6164
     -1266.2154       -986.6644
  20836243.6584  -23297741.36448 -18145302.90247  20836243.9644   20836258.1384
       -10.1134         -7.8794
 00  9 18  1  7 30.0010000  0 10G 1G31G10G19G27G 8G 2G28G 3G13
  22195320.6314  -12856374.67348  -9819938.15046  22195320.0484   22195339.0964
     -2612.4964      -2035.7044
  22439074.7044   -5713970.81748  -4266603.27446  22439074.2574   22439092.7064
      1088.7814        848.3984
  24297312.4024   -5459280.89247  -4234836.40345  24297311.6234   24297339.5924
      1411.7804       1100.0854
  21174348.7114  -20448195.36749 -15465006.69347  21174348.3874   21174364.0574
      -951.2634       -741.2424
  21315033.0214  -22323130.68448 -17183711.22947  21315032.5484   21315048.8314
       525.8464        409.7524
  21986451.2924  -14355152.51148 -11156791.13646  21986450.5234   21986471.1714
      1580.5484       1231.5924
  24391618.1774   -1858178.97047  -1236815.35945  24391617.3294   24391645.9234
      2554.5774       1990.5624
  23357381.3504   -4866040.86248  -3359277.05946  23357380.4194   23357398.2704
     -3188.5894      -2484.6144
  23850502.4974   -6231217.32048  -4692189.18646  23850502.1554   23850521.7354
     -1279.3524       -996.8984
  20836332.8464  -23297274.26548 -18144938.97547  20836332.8244   20836346.9944
       -21.2754        -16.5754
 00  9 18  1  8  0.0010000  0 10G 1G31G10G19G27G 8G 2G28G 3G13
  22210272.3994  -12777802.48248  -9758713.27246  22210272.0404   22210291.0944
     -2623.3684      -2044.1754
  22432912.7614   -5746352.01948  -4291835.35746  22432912.2234   22432930.7234
      1072.2344        835.5074
  24289303.6634   -5501365.98747  -4267629.96245  24289303.6014   24289330.2784
      1396.1694       1087.9214
  21179801.2694  -20419542.47649 -15442679.79847  21179800.9624   21179816.8264
      -956.6984       -745.4784
  21312049.4544  -22338808.40448 -17195927.65747  21312049.1134   21312065.0824
       521.6034        406.4474
  21977446.4674  -14402472.82548 -11193664.01946  21977445.7834   21977466.1744
      1576.3104       1228.2914
  24377057.5234   -1934697.10047  -1296439.42745  24377056.7874   24377085.3174
      2548.9634       1986.1924
  23375603.9444   -4770276.49948  -3284655.45646  23375603.6664   23375620.7394
     -3193.4494      -2488.4054
  23857860.4514   -6192553.40248  -4662061.40246  23857859.7894   23857879.6884
     -1295.9924      -1009.8664
  20836502.4534  -23296381.78048 -18144243.58447  20836502.6454   20836516.9584
       -35.9594        -28.0174
 00  9 18  1  8 30.0010000  0 10G 1G31G10G19G27G 8G 2G28G 3G13
  22225280.6384  -12698936.55948  -9697259.50346  22225280.0574   22225299.0194
     -2635.3864      -2053.5444
  22426839.2134   -5778267.61048  -4316704.61846  22426838.5484   22426857.5864
      1054.4044        821.6124
  24281378.0094   -5543013.68247  -4300082.66045  24281377.1384   24281405.0064
      1379.3314       1074.7964
  21185278.5884  -20390758.84649 -15420251.04047  21185278.2134   21185294.5874
      -963.2964       -750.6194
  21309084.0694  -22354390.41548 -17208069.49247  21309083.6574   21309099.9994
       516.1444        402.1904
  21968460.0054  -14449697.30548 -11230462.22847  21968459.2374   21968479.9884
      1570.8634       1224.0464
  24362523.3914   -2011076.11347  -1355955.09645  24362522.8424   24362550.7654
      2542.0064       1980.7664
  23393849.1474   -4674398.47148  -3209945.19546  23393848.4844   23393866.6444
     -3199.4804      -2493.1034
  23865306.6054   -6153422.20348  -4631569.48646  23865305.9014   23865326.5624
     -1313.8054      -1023.7454
  20836750.5594  -23295078.65648 -18143228.20547  20836750.7624   20836765.0424
       -51.9544        -40.4844
 00  9 18  1  9  0.0010000  0 10G 1G31G10G19G27G 8G 2G28G 3G13
  22240363.1794  -12619675.90148  -9635498.14646  22240362.5824   22240382.1654
     -2648.0444      -2063.4054
  22420874.4604   -5809613.07848  -4341129.61046  22420873.7404   22420892.7794
      1035.8734        807.1704
  24273555.6994   -5584121.32347  -4332114.51145  24273554.1644   24273582.3104
      1361.7914       1061.1364
  21190800.5014  -20361742.74049 -15397641.14647  21190799.9184   21190816.1884
      -970.5364       -756.2594
  21306156.9864  -22369774.60648 -17220057.25947  21306156.4964   21306172.3554
       510.0244        397.4204
  21959510.8224  -14496723.99848 -11267106.32046  21959510.2424   21959530.6604
      1564.7594       1219.2884
  24348034.5894   -2087213.12448  -1415282.20146  24348034.0084   24348062.6474
      2534.4124       1974.8524
  23412134.7514   -4578307.20148  -3135068.77146  23412134.0074   23412152.0804
     -3206.0314      -2498.2104
  23872861.0424   -6113722.70648  -4600634.76446  23872860.5674   23872880.4634
     -1332.2074      -1038.0844
  20837096.5784  -23293261.44648 -18141812.23347  20837096.6714   20837110.8674
       -68.6404        -53.4844
 00  9 18  1  9 30.0010000  0 10G 1G31G10G19G27G 8G 2G28G 3G13
  22255512.0364  -12540068.57648  -9573466.66046  22255511.6254   22255530.8124
     -2659.5114      -2072.3404
  22415009.9004   -5840433.73048  -4365145.65146  22415009.2254   22415027.7874
      1018.4014        793.5584
  24265827.5424   -5624734.53347  -4363761.09445  24265826.9814   24265854.1854
      1345.3104       1048.2854
  21196357.3754  -20332541.23949 -15374886.82547  21196357.0754   21196373.1864
      -976.7014       -761.0614
  21303257.9514  -22385007.69348 -17231927.08147  21303257.6474   21303273.7454
       505.0784        393.5674
  21950590.5334  -14543600.10548 -11303633.06647  21950589.9114   21950610.2284
      1559.7764       1215.4074
  24333582.0274   -2163154.47147  -1474456.84845  24333581.5724   24333610.4324
      2527.9194       1969.7874
  23430451.5604   -4482052.43848  -3060064.95546  23430451.0644   23430468.3584
     -3211.4164      -2502.4064
  23880514.6164   -6073503.03048  -4569294.66146  23880514.2934   23880533.8194
     -1349.5364      -1051.5854
  20837531.3054  -23290976.62148 -18140031.87847  20837531.2824   20837545.7024
       -84.1794        -65.5924
 00  9 18  1 10  0.0010000  0 10G 1G31G10G19G27G 8G 2G28G 3G13
  22270737.5854  -12460057.63348  -9511120.65446  22270737.2594   22270756.6864
     -2672.8724      -2082.7514
  22409255.6714   -5870669.55648  -4388705.96946  22409255.3634   22409274.2454
       998.9614        778.4094
  24258204.1944   -5664793.85047  -4394976.04745  24258202.7964   24258231.1374
      1326.9854       1034.0114
  21201960.6614  -20303096.27149 -15351942.76247  21201960.2114   21201976.3854
      -984.7214       -767.3144
  21300399.3694  -22400031.46548 -17243633.90047  21300398.8014   21300414.9514
       498.1834        388.1954
  21941709.8864  -14590267.50448 -11339997.17247  21941709.3714   21941729.5414
      1552.9104       1210.0574
  24319178.9584   -2238841.04447  -1533432.94245  24319178.5174   24319207.3684
      2519.5184       1963.2484
  23448809.5004   -4385578.23048  -2984890.15346  23448808.8904   23448826.4564
     -3218.5794      -2507.9834
  23888277.8244   -6032705.96748  -4537504.61946  23888277.2774   23888297.2934
     -1368.6264      -1066.4684
  20838066.4744  -23288164.69748 -18137840.77647  20838066.5494   20838080.6694
      -101.6454        -79.2034
 00  9 18  1 10 30.0010000  0 10G 1G31G10G19G27G 8G 2G28G 3G13
  22286036.0374  -12379667.61648  -9448479.27946  22286035.4214   22286054.6974
     -2685.4764      -2092.5724
  22403609.7954   -5900341.73548  -4411827.07846  22403608.9974   22403627.5714
       980.1794        763.7724
  24250682.5074   -5704321.57847  -4425776.73145  24250681.0344   24250708.5324
      1309.2424       1020.1814
  21207605.2394  -20273430.90649 -15328826.94047  21207605.0614   21207621.4214
      -991.9894       -772.9764
  21297575.5094  -22414869.15848 -17255195.68547  21297575.1464   21297591.3224
       492.0344        383.4024
  21932865.0644  -14636749.50248 -11376216.84146  21932864.2344   21932884.1744
      1546.8064       1205.2994
  24304821.6084   -2314295.34647  -1592228.12845  24304820.4174   24304847.8084
      2511.7984       1957.2344
  23467205.2794   -4288910.54448  -2909564.67346  23467204.3764   23467221.6134
     -3224.9174      -2512.9264
  23896145.8044   -5991355.70948  -4505283.55146  23896145.7114   23896165.8294
     -1387.0424      -1080.8194
  20838697.6064  -23284848.49348 -18135256.72947  20838697.5534   20838711.9244
      -118.4434        -92.2944
 00  9 18  1 11  0.0010000  0 10G 1G31G10G19G27G 8G 2G28G 3G13
  22301394.7234  -12298957.31548  -9385588.33446  22301394.1614   22301413.4894
     -2695.9064      -2100.6964
  22398059.8794   -5929506.31348  -4434552.66446  22398059.3884   22398077.5644
       963.3864        750.6874
  24243249.7524   -5743374.30047  -4456207.27445  24243248.7584   24243276.1844
      1293.5914       1007.9884
  21213281.7324  -20243603.17149 -15305584.60047  21213281.2144   21213297.4554
      -997.2504       -777.0774
  21294776.2564  -22429578.42548 -17266657.42447  21294776.0314   21294792.0504
       487.8964        380.1784
  21924044.0274  -14683104.04248 -11412337.18847  21924043.2734   21924062.8844
      1542.6834       1202.0904
  24290496.0864   -2389574.34647  -1650886.74346  24290495.2454   24290522.4134
      2506.1624       1952.8434
  23485625.3984   -4192109.08848  -2834134.87946  23485624.6494   23485642.3964
     -3229.2054      -2516.2694
  23904109.4954   -5949510.87248  -4472676.97346  23904108.6934   23904128.5884
     -1403.3414      -1093.5204
  20839413.3384  -23281084.85448 -18132324.02747  20839413.5734   20839428.1724
      -133.1834       -103.7794
 00  9 18  1 11 30.0010000  0 10G 1G31G10G19G27G 8G 2G28G 3G13
  22316830.1824  -12217843.90048  -9322383.27246  22316829.6914   22316849.0944
     -2712.4534      -2113.5934
  22392622.9694   -5958077.36748  -4456815.76346  22392622.3704   22392640.4674
       940.4894        732.8474
  24235925.0114   -5781866.88847  -4486201.34245  24235925.0994   24235950.7474
      1271.8644        991.0544
  21219004.4044  -20213529.16549 -15282150.36647  21219004.0184   21219020.5864
     -1008.5324       -785.8664
  21292017.7134  -22444075.29748 -17277953.69647  21292017.4034   21292033.6174
       477.7284        372.2574
  21915263.0714  -14729247.08948 -11448292.73547  21915262.3284   21915282.2204
      1532.5494       1194.1914
  24276219.0604   -2464593.23347  -1709342.62846  24276218.8734   24276247.1494
      2494.3104       1943.6034
  23504086.8014   -4095092.32248  -2758537.16046  23504086.3214   23504103.9134
     -3239.4074      -2524.2224
  23912181.3934   -5907088.26448  -4439620.17946  23912181.1744   23912200.3724
     -1425.6974      -1110.9404
  20840230.8524  -23276789.11248 -18128976.70647  20840230.9594   20840245.6264
      -154.0344       -120.0254
 00  9 18  1 12  0.0010000  0 10G 1G31G10G19G27G 8G 2G28G 3G13
  22332337.8364  -12136352.05048  -9258883.33346  22332337.2784   22332356.5274
     -2723.4854      -2122.1924
  22387295.3224   -5986076.59548  -4478633.28446  22387294.8184   22387312.1674
       922.9564        719.1844
  24228702.2304   -5819821.85447  -4515776.45145  24228701.7174   24228728.7894
      1255.3624        978.1994
  21224769.4884  -20183232.56449 -15258542.70347  21224769.1884   21224785.9384
     -1014.3834       -790.4284
  21289295.0064  -22458383.14149 -17289102.65847  21289294.4654   21289310.8874
       472.9704        368.5474
  21906517.7664  -14775202.29048 -11484101.91247  21906516.9944   21906537.2974
      1527.8634       1190.5394
  24261988.4574   -2539374.92947  -1767613.69046  24261987.7144   24262016.5944
      2487.9574       1938.6524
  23522583.7244   -3997886.69148  -2682792.32246  23522583.5384   23522601.5114
     -3244.1584      -2527.9214
  23920359.0944   -5864112.86548  -4406132.58646  23920358.5844   23920378.2464
     -1442.5164      -1124.0494
  20841145.2694  -23271983.52648 -18125232.09947  20841145.5394   20841159.9724
      -169.5004       -132.0804
 00  9 18  1 12 30.0010000  0 10G 1G31G10G19G27G 8G 2G28G 3G13
  22347917.4344  -12054482.72948  -9195089.25246  22347916.7364   22347936.0564
     -2733.7994      -2130.2254
  22382075.8224   -6013502.13748  -4500003.78046  22382075.1504   22382093.3884
       906.0464        706.0094
  24221582.5604   -5857237.54847  -4544931.31045  24221581.5934   24221608.8594
      1239.6524        965.9574
  21230577.3604  -20152713.14549 -15234761.38447  21230576.8944   21230593.4514
     -1019.5924       -794.4854
  21286608.2804  -22472501.68949 -17300104.20247  21286607.9114   21286624.4364
       468.9164        365.3934
  21897808.7594  -14820969.45448 -11519764.55447  21897807.8554   21897828.2394
      1523.8284       1187.3974
  24247803.5634   -2613918.14947  -1825698.95846  24247802.8444   24247830.5314
      2482.2164       1934.1864
  23541117.5234   -3900494.00248  -2606901.77746  23541116.7924   23541133.9444
     -3248.0984      -2530.9924
  23928642.0774   -5820585.57748  -4372214.99046  23928641.7884   23928660.6624
     -1458.6004      -1136.5774
  20842157.1364  -23266666.96048 -18121089.32947  20842157.3284   20842171.6124
      -184.2974       -143.6074
 00  9 18  1 13  0.0010000  0 10G 1G31G10G19G27G 8G 2G28G 3G13
  22363544.3664  -11972359.96748  -9131097.68746  22363544.0004   22363563.6104
     -2744.0084      -2138.1844
  22376942.9994   -6040474.92848  -4521021.48146  22376942.5504   22376960.8404
       889.1674        692.8544
  24214542.6074   -5894236.16547  -4573761.21145  24214541.7854   24214567.7904
      1223.9664        953.7304
  21236403.9494  -20122093.57749 -15210902.01447  21236403.5754   21236419.9414
     -1024.6684       -798.4434
  21283934.7214  -22486553.42849 -17311053.62947  21283934.2814   21283950.1864
       464.9184        362.2734
  21889111.2324  -14866671.28048 -11555376.27746  21889110.7324   21889131.2584
      1519.9014       1184.3374
  24233639.9364   -2688344.89347  -1883693.49946  24233639.5344   24233667.1404
      2476.6054       1929.8084
  23559662.5774   -3803039.56748  -2530963.04446  23559661.9244   23559679.4114
     -3251.8594      -2533.9254
  23937006.3644   -5776630.24548  -4337963.86646  23937005.7694   23937024.8174
     -1474.6634      -1149.0954
  20843242.7534  -23260961.77448 -18116643.74547  20843242.8354   20843257.4384
      -199.0274       -155.0864
 00  9 18  1 13 30.0010000  0 10G 1G31G10G19G27G 8G 2G28G 3G13
  22379237.7904  -11889892.61748  -9066837.59746  22379237.1704   22379256.4654
     -2753.4664      -2145.5514
  22371914.2674   -6066900.76348  -4541612.96346  22371913.4034   22371931.6494
       872.9124        680.1894
  24207599.1164   -5930724.04347  -4602193.14745  24207598.3354   24207624.7244
      1208.9654        942.0444
  21242267.1654  -20091281.62549 -15186892.69347  21242266.9064   21242283.0384
     -1029.0844       -801.8864
  21281291.0434  -22500446.06349 -17321879.02147  21281290.4384   21281306.8574
       461.6314        359.7114
  21880444.6254  -14912215.78648 -11590865.41947  21880443.9524   21880464.3384
      1516.6764       1181.8224
  24219517.4184   -2762562.19947  -1941524.86746  24219516.5224   24219543.4764
      2471.5994       1925.9154
  23578235.6044   -3705433.52748  -2454906.17146  23578235.0174   23578253.5464
     -3254.8124      -2536.2264
  23945469.0434   -5732155.63548  -4303308.13846  23945468.8624   23945487.9424
     -1489.9474      -1161.0094
  20844420.6524  -23254774.47548 -18111822.48747  20844420.5204   20844434.8904
      -213.0804       -166.0374
 00  9 18  1 14  0.0010000  0 10G 1G31G10G19G27G 8G 2G28G 3G13
  22394978.8434  -11807174.62048  -9002382.19546  22394978.1804   22394997.3814
     -2762.9504      -2152.9414
  22366971.7434   -6092870.69748  -4561849.19246  22366971.2444   22366989.6274
       856.5314        667.4234
  24200734.3474   -5966793.09147  -4630298.69945  24200733.4424   24200761.4704
      1193.8184        930.2444
  21248149.7644  -20060370.12849 -15162805.79347  21248149.2534   21248165.3754
     -1033.6174       -805.4164
  21278659.8144  -22514272.05849 -17332652.52347  21278659.4104   21278675.5664
       458.2144        357.0504
  21871790.3814  -14957695.31348 -11626303.91447  21871789.7124   21871809.8904
      1513.3164       1179.2014
  24205415.7204   -2836661.90247  -1999264.60246  24205415.0654   24205443.1234
      2466.4834       1921.9204
  23596820.0524   -3607771.12448  -2378805.47146  23596819.2754   23596837.8714
     -3257.8884      -2538.6154
  23954013.6764   -5687255.55748  -4268320.88346  23954013.4474   23954032.4324
     -1505.3114      -1172.9784
  20845671.7894  -23248197.64748 -18106697.71147  20845672.0664   20845686.5654
      -227.2664       -177.0904
 00  9 18  1 14 30.0010000  0 10G 1G31G10G19G27G 8G 2G28G 3G13
  22410790.3954  -11724084.11548  -8937636.52746  22410790.2354   22410809.2744
     -2775.9534      -2163.0724
  22362140.8274   -6118259.99948  -4581632.97446  22362139.9764   22362158.0974
       836.5554        651.8584
  24193973.4864   -6002319.02447  -4657981.00945  24193972.6084   24194000.8714
      1175.0734        915.6344
  21254074.4124  -20029236.21349 -15138545.55747  21254074.0164   21254089.9534
     -1041.5744       -811.6204
  21276064.9774  -22527908.09549 -17343278.03547  21276064.5734   21276080.6854
       451.3034        351.6654
  21863171.7904  -15002987.00848 -11661596.04047  21863170.8144   21863191.1244
      1506.4654       1173.8654
  24191361.0224   -2910520.06047  -2056816.07346  24191360.1184   24191387.9834
      2457.9114       1915.2474
  23615438.4834   -3509931.42748  -2302566.62246  23615437.8394   23615455.2834
     -3264.2984      -2543.6134
  23962661.5224   -5641807.90748  -4232906.94646  23962661.3674   23962681.3554
     -1524.1214      -1187.6304
  20847021.6384  -23241106.87148 -18101172.44747  20847021.5194   20847035.7374
      -244.9954       -190.9064
 00  9 18  1 15  0.0010000  0 10G 1G31G10G19G27G 8G 2G28G 3G13
  22426675.0994  -11640611.28848  -8872592.95546  22426674.4504   22426694.0164
     -2790.3834      -2174.3174
  22357421.9954   -6143055.60048  -4600954.12046  22357421.3084   22357439.7904
       814.9954        635.0574
  24187318.7794   -6037289.69047  -4685230.67445  24187317.9584   24187345.4424
      1154.8314        899.8684
  21260043.5014  -19997868.80049 -15114103.39447  21260043.1064   21260059.2814
     -1051.1074       -819.0444
  21273508.1454  -22541342.91049 -17353746.71147  21273507.7384   21273523.9314
       442.8544        345.0814
  21854590.5034  -15048079.70048 -11696733.08847  21854590.0134   21854609.8544
      1498.1254       1167.3664
  24177354.5314   -2984125.01548  -2114170.27146  24177353.6944   24177381.1604
      2447.6984       1907.2904
  23634092.5054   -3411905.68148  -2226182.77046  23634092.1684   23634108.5444
     -3272.1944      -2549.7644
  23971416.2504   -5595802.89048  -4197058.76846  23971415.9954   23971435.1354
     -1544.3724      -1203.4114
  20848470.4134  -23233490.44548 -18095237.58347  20848470.5034   20848485.0284
      -264.2874       -205.9384
 00  9 18  1 15 30.0010000  0 10G 1G31G10G19G27G 8G 2G28G 3G13
  22442634.5764  -11556744.83248  -8807242.66246  22442633.8924   22442653.6534
     -2800.2624      -2182.0154
  22352819.4594   -6167243.25848  -4619801.55646  22352818.8054   22352836.8884
       797.9344        621.7644
  24180770.7334   -6071691.71847  -4712037.24445  24180770.1624   24180799.4274
      1139.1044        887.6064
  21266059.6174  -19966255.31449 -15089469.51747  21266059.1244   21266074.9014
     -1056.0744       -822.9144
  21270992.1854  -22554563.71649 -17364048.59247  21270991.9124   21271008.3464
       438.9764        342.0584
  21846050.4064  -15092960.89248 -11731705.32147  21846049.4794   21846069.2934
      1494.3044       1164.3884
  24163399.4084   -3057463.49148  -2171316.87146  24163398.0684   24163424.5314
      2441.9554       1902.8194
  23652783.1804   -3313683.85148  -2149646.14846  23652782.6314   23652799.0974
     -3275.4634      -2552.3124
  23980279.4684   -5549229.03648  -4160767.38046  23980278.9694   23980297.7484
     -1560.1294      -1215.6884
  20850022.6524  -23225334.43348 -18088882.27047  20850022.7904   20850037.3234
      -279.0404       -217.4324
 00  9 18  1 16  0.0010000  0 10G 1G31G10G19G27G 8G 2G28G 3G13
  22458640.7114  -11472630.86348  -8741699.49746  22458640.2954   22458659.8874
     -2806.0094      -2186.4944
  22348305.0564   -6190966.15648  -4638286.82746  22348304.4844   22348322.2654
       784.8844        611.5944
  24174305.8364   -6105668.83747  -4738512.69945  24174305.2274   24174333.0794
      1127.3734        878.4704
  21272094.6794  -19934540.49849 -15064756.63547  21272094.3124   21272109.7944
     -1056.9614       -823.6084
  21268489.6514  -22567715.39549 -17374296.57647  21268489.2224   21268505.6894
       439.1224        342.1704
  21837522.4844  -15137775.62548 -11766625.75347  21837521.7354   21837541.2844
      1494.5604       1164.5874
  24149465.4164   -3130679.41848  -2228367.99246  24149465.1074   24149492.2434
      2440.3874       1901.5924
  23671482.7884   -3215413.24448  -2073071.61946  23671482.2944   23671500.4954
     -3274.5834      -2551.6204
  23989222.3134   -5502232.25648  -4124146.38146  23989221.9104   23989240.9244
     -1571.7064      -1224.7094
  20851650.0324  -23216783.49848 -18082219.21347  20851649.9874   20851664.2774
      -289.7324       -225.7664
 00  9 18  1 16 30.0010000  0 10G 1G31G10G19G27G 8G 2G28G 3G13
  22474697.5104  -11388251.30448  -8675949.38446  22474697.1064   22474717.1174
     -2818.9934      -2196.6134
  22343883.2944   -6214203.47148  -4656393.71746  22343882.4934   22343900.7144
       764.5544        595.7524
  24167924.7594   -6139200.92947  -4764641.43945  24167923.8984   24167951.2774
      1108.4064        863.6884
  21278152.6654  -19902704.95249 -15039949.66647  21278152.2124   21278168.3524
     -1065.1414       -829.9814
  21266003.8094  -22580778.47449 -17384475.52847  21266003.3534   21266019.9004
       432.0324        336.6454
  21829010.7784  -15182504.30148 -11801479.13747  21829010.0844   21829029.2444
      1487.5274       1159.1084
  24135559.5864   -3203752.86347  -2285308.09446  24135558.3744   24135586.3134
      2431.4624       1894.6404
  23690195.8484   -3117076.63148  -1996445.74246  23690195.4084   23690213.1874
     -3280.8914      -2556.5384
  23998248.6564   -5454794.20648  -4087181.49646  23998248.4084   23998268.0574
     -1590.5124      -1239.3644
  20853355.9884  -23207817.82948 -18075232.97947  20853356.1024   20853370.5514
      -307.6754       -239.7454
 00  9 18  1 17  0.0010000  0 10G 1G31G10G19G27G 8G 2G28G 3G13
  22490809.5624  -11303583.19848  -8609974.42646  22490809.0424   22490828.8174
     -2828.0384      -2203.6614
  22339558.5814   -6236929.08248  -4674101.87046  22339557.9004   22339575.8924
       748.0174        582.8654
  24161633.0514   -6172262.78047  -4790403.74645  24161632.7084   24161659.1084
      1093.2494        851.8794
  21284238.2674  -19870724.62649 -15015029.86747  21284237.7984   21284253.9354
     -1069.3864       -833.2924
  21263539.2384  -22593728.31649 -17394566.22047  21263538.9214   21263555.6674
       428.8244        334.1454
  21820519.7624  -15227122.69148 -11836246.55947  21820519.0974   21820538.3294
      1484.4464       1156.7054
  24121685.4744   -3276658.90947  -2342117.76046  24121684.8584   24121712.4794
      2426.4394       1890.7264
  23708926.1114   -3018652.26648  -1919751.43646  23708925.6994   23708943.0534
     -3283.2284      -2558.3584
  24007364.2634   -5406892.60848  -4049855.49746  24007363.8224   24007382.8994
     -1605.4434      -1251.0014
  20855145.8014  -23198412.17948 -18067903.90447  20855145.8874   20855160.2154
      -321.8314       -250.7794
 00  9 18  1 17 30.0010000  0 10G 1G31G10G19G27G 8G 2G28G 3G13
  22506987.4774  -11218570.80648  -8543731.18446  22506986.7324   22507006.4384
     -2838.1544      -2211.5414
  22335342.8934   -6259084.59748  -4691365.78846  22335341.9974   22335359.8314
       730.3064        569.0644
  24155442.7624   -6204796.55947  -4815754.57745  24155441.8444   24155468.3234
      1076.9664        839.1804
  21290361.9744  -19838542.80549 -14989953.03747  21290361.5514   21290378.1794
     -1074.8204       -837.5254
  21261107.3774  -22606507.76049 -17404524.13847  21261106.9674   21261123.7894
       424.4374        330.7274
  21812060.4694  -15271573.90548 -11870883.71247  21812059.8324   21812079.3924
      1480.1664       1153.3714
  24107855.7824   -3349339.81048  -2398752.02146  24107854.8304   24107882.5244
      2420.2534       1885.9054
  23727682.4284   -2920085.13248  -1842945.85346  23727682.0294   23727699.1044
     -3286.6304      -2561.0114
  24016577.7144   -5358471.18247  -4012124.36146  24016577.5734   24016596.8914
     -1621.4004      -1263.4354
  20857030.4444  -23188508.44448 -18060186.70347  20857030.4954   20857044.6484
      -337.1454       -262.7104
 00  9 18  1 18  0.0010000  0 10G 1G31G10G19G27G 8G 2G28G 3G13
  22523225.7854  -11133236.72548  -8477237.26246  22523225.6654   22523245.1704
     -2850.7504      -2221.3584
  22331231.0154   -6280689.65248  -4708200.77546  22331230.4354   22331248.2274
       710.0664        553.2964
  24149348.7244   -6236822.65547  -4840709.82145  24149347.4864   24149373.5794
      1058.1624        824.5384
  21296519.9474  -19806180.64649 -14964735.67847  21296519.5044   21296536.5494
     -1082.6954       -843.6614
  21258703.8854  -22619137.91549 -17414365.74047  21258703.5294   21258720.2434
       417.5884        325.3894
  21803629.6054  -15315878.91948 -11905406.93547  21803628.6924   21803647.9674
      1473.4204       1148.1134
  24094063.9274   -3421816.06948  -2455226.81246  24094063.1784   24094090.8704
      2411.5164       1879.0954
  23746461.5114   -2821399.00248  -1766047.52046  23746461.0084   23746478.0214
     -3292.4334      -2565.5384
  24025885.6324   -5309552.39247  -3974005.66745  24025885.5134   24025904.9744
     -1639.8394      -1277.8054
  20859005.8914  -23178127.41648 -18052097.58247  20859006.0144   20859020.1184
      -354.9274       -276.5684
 00  9 18  1 18 30.0010000  0 10G 1G31G10G19G27G 8G 2G28G 3G13
  22539540.7074  -11047500.69248  -8410430.14046  22539540.4284   22539560.4264
     -2866.5204      -2233.6474
  22327240.0584   -6301661.06748  -4724542.01346  22327239.2884   22327257.3344
       686.5444        534.9654
  24143366.2044   -6268258.87747  -4865205.39745  24143365.0264   24143391.3484
      1036.0724        807.3234
  21302727.8354  -19773556.31449 -14939314.01847  21302727.5504   21302744.5314
     -1093.7874       -852.3054
  21256344.3314  -22631536.84249 -17424027.15247  21256344.0054   21256360.6324
       407.5294        317.5534
  21795241.9394  -15359956.41748 -11939752.86647  21795241.0314   21795260.7464
      1463.4884       1140.3754
  24080326.5064   -3494005.19948  -2511477.88846  24080325.7914   24080352.7044
      2399.5974       1869.8104
  23765277.7244   -2722514.58148  -1688994.68946  23765277.4144   23765295.6484
     -3301.3844      -2572.5054
  24035305.7874   -5260056.19447  -3935437.01745  24035305.0374   24035323.1844
     -1661.4264      -1294.6194
  20861087.8024  -23167187.08748 -18043572.63447  20861087.7404   20861102.0214
      -375.9374       -292.9374
 00  9 18  1 19  0.0010000  0 10G 1G31G10G19G27G 8G 2G28G 3G13
  22555927.5764  -10961388.89548  -8343330.21546  22555927.1324   22555947.6084
     -2873.9314      -2239.4204
  22323365.2514   -6322022.08648  -4740407.60346  22323364.5524   22323382.7054
       671.2524        523.0484
  24137492.3094   -6299128.73347  -4889259.63845  24137491.2314   24137516.8634
      1022.2814        796.5784
  21308981.0504  -19740694.57849 -14913707.38447  21308980.6794   21308997.7554
     -1096.6434       -854.5314
  21254024.4044  -22643729.04249 -17433527.47047  21254023.7124   21254040.2514
       405.7144        316.1374
  21786892.3004  -15403831.16548 -11973940.82147  21786891.6604   21786911.5144
      1461.8194       1139.0744
  24066638.4694   -3565931.30248  -2567524.02546  24066638.0414   24066665.4924
      2395.8964       1866.9274
  23784128.7574   -2623459.02148  -1611808.62946  23784128.0224   23784144.8284
     -3301.9334      -2572.9334
  24044829.6354   -5210008.59947  -3896438.69946  24044829.6194   24044847.3374
     -1674.6874      -1304.9614
  20863271.3524  -23155711.55348 -18034630.64247  20863271.3214   20863285.8834
      -388.7004       -302.8854
 00  9 18  1 19 30.0010000  0 10G 1G31G10G19G27G 8G 2G28G 3G13
  22572376.1424  -10874951.00548  -8275976.18246  22572375.5494   22572395.9504
     -2888.1694      -2250.5154
  22319597.5344   -6341819.84748  -4755834.27146  22319596.9214   22319615.0924
       649.0154        505.7224
  24131716.3104   -6329479.87447  -4912909.66145  24131715.1374   24131740.8124
      1001.5674        780.4324
  21315270.4394  -19707643.96049 -14887953.55647  21315270.1054   21315286.8554
     -1106.3484       -862.0914
  21251733.8514  -22655762.89949 -17442904.35847  21251733.5514   21251750.4374
       396.9764        309.3314
  21778572.4994  -15447551.48148 -12008008.44647  21778571.6814   21778591.6014
      1453.1994       1132.3594
  24052992.0934   -3637642.23948  -2623402.49246  24052991.2884   24053018.6874
      2385.2644       1858.6454
  23803001.3434   -2524283.04848  -1534528.64546  23803000.7394   23803017.8894
     -3309.3974      -2578.7544
  24054448.5534   -5159459.19448  -3857049.32146  24054448.0674   24054467.1924
     -1694.7924      -1320.6224
  20865547.5904  -23143748.77348 -18025308.97447  20865547.6864   20865562.2294
      -408.3804       -318.2184
 00  9 18  1 20  0.0010000  0 10G 1G31G10G19G27G 8G 2G28G 3G13
  22588893.1654  -10788155.35348  -8208343.35646  22588892.5614   22588912.5084
     -2897.8844      -2258.0884
  22315944.1724   -6361019.57748  -4770794.92946  22315943.2564   22315961.3854
       631.2524        491.8794
  24126045.7324   -6359278.73747  -4936129.31945  24126044.4664   24126070.4964
       985.3354        767.7804
  21321601.7304  -19674371.41649 -14862026.78947  21321601.5164   21321618.2964
     -1111.5384       -866.1374
  21249480.3984  -22667605.18749 -17452131.99947  21249480.0144   21249496.7174
       392.8004        306.0744
  21770288.1964  -15491084.23948 -12041929.92247  21770287.4754   21770307.2484
      1449.1474       1129.2014
  24039393.7634   -3709104.23148  -2679087.00846  24039392.9854   24039419.7144
      2379.1584       1853.8874
  23821902.5194   -2424956.11148  -1457131.01546  23821901.6364   23821919.2194
     -3312.1754      -2580.9174
  24064169.0484   -5108376.47148  -3817244.37846  24064168.8604   24064187.6474
     -1710.4064      -1332.7954
  20867923.1814  -23131264.94148 -18015581.27547  20867923.3614   20867937.6074
      -423.5994       -330.0794
 00  9 18  1 20 30.0010000  0 10G 1G31G10G19G27G 8G 2G28G 3G13
  22605471.5134  -10701037.49148  -8140459.44046  22605470.9654   22605490.9214
     -2911.6734      -2268.8294
  22312397.3534   -6379653.90448  -4785314.98546  22312396.8924   22312415.0794
       609.3194        474.7884
  24120472.7504   -6388558.28647  -4958944.28345  24120472.4424   24120499.4404
       964.8944        751.8574
  21327969.2314  -19640911.26849 -14835953.82447  21327968.9324   21327985.2784
     -1120.8934       -873.4264
  21247257.0684  -22679289.49649 -17461236.50447  21247256.5974   21247273.1754
       384.4684        299.5814
  21762033.6034  -15534463.55648 -12075731.80647  21762032.7704   21762052.2374
      1440.9934       1122.8484
  24025836.2344   -3780350.37448  -2734603.32246  24025835.3954   24025862.5204
      2368.8824       1845.8794
  23840825.4984   -2325514.05348  -1379643.65346  23840824.6464   23840842.2714
     -3319.0024      -2586.2374
  24073984.6544   -5056795.79348  -3777051.41146  24073984.0184   24074002.7594
     -1730.0274      -1348.0824
  20870391.5994  -23118293.06348 -18005473.27747  20870391.5614   20870405.9164
      -442.9404       -345.1484
 00  9 18  1 21  0.0010000  0 10G 1G31G10G19G27G 8G 2G28G 3G13
  22622118.5214  -10613554.15148  -8072290.73546  22622118.3114   22622138.4034
     -2919.7544      -2275.1274
  22308967.7604   -6397676.75348  -4799358.55146  22308966.9034   22308985.3684
       593.0304        462.0924
  24115008.0994   -6417273.33647  -4981319.35545  24115007.3154   24115035.3514
       950.2144        740.4204
  21334380.7234  -19607218.91849 -14809699.93647  21334380.3264   21334396.4784
     -1124.5254       -876.2574
  21245071.7624  -22690771.32849 -17470183.22747  21245071.3414   21245088.0254
       381.7934        297.4974
  21753816.2014  -15577644.91848 -12109379.45247  21753815.3854   21753834.9864
      1438.4654       1120.8774
  24012327.4384   -3851335.77748  -2789916.42446  24012326.8594   24012354.2384
      2364.3254       1842.3244
  23859777.9964   -2225914.97748  -1302033.93446  23859777.3564   23859795.1914
     -3320.1544      -2587.1334
  24083902.5874   -5004674.11748  -3736436.85646  24083902.2984   24083920.5764
     -1743.9324      -1358.9214
  20872961.4944  -23104788.66048 -17994950.32147  20872961.5094   20872975.8344
      -456.5794       -355.7784
 00  9 18  1 21 30.0010000  0 10G 1G31G10G19G27G 8G 2G28G 3G13
  22638818.8884  -10525795.08848  -8003907.17846  22638818.0244   22638838.6554
     -2931.2054      -2284.0504
  22305637.8384   -6415175.49548  -4812993.70846  22305637.1764   22305655.0494
       573.2234        446.6584
  24109634.5654   -6445511.48347  -5003322.79645  24109633.4234   24109661.6834
       932.0324        726.2484
  21340819.6324  -19573382.32049 -14783333.62347  21340819.1964   21340835.1704
     -1131.6084       -881.7764
  21242908.5104  -22702138.61149 -17479040.68947  21242908.2184   21242924.5674
       375.6964        292.7444
  21745619.9234  -15620716.43948 -12142941.49947  21745619.2504   21745638.9274
      1432.5174       1116.2424
  23998852.2514   -3922147.92748  -2845094.51446  23998851.4204   23998878.5284
      2356.1924       1835.9864
  23878744.2424   -2126249.26647  -1224372.26346  23878743.5584   23878759.5484
     -3324.6234      -2590.6144
  24093907.2254   -4952101.08448  -3695470.61746  24093906.7254   24093925.1394
     -1761.2774      -1372.4294
  20875615.8654  -23090838.90748 -17984080.33647  20875615.9884   20875630.2664
      -473.7314       -369.1424
 00  9 18  1 22  0.0010000  0 10G 1G31G10G19G27G 8G 2G28G 3G13
  22655577.2364  -10437727.37548  -7935283.12246  22655576.8884   22655597.5594
     -2940.6014      -2291.3744
  22302414.3514   -6432113.93548  -4826192.26246  22302413.7894   22302431.6604
       555.3914        432.7654
  24104357.7834   -6473237.99147  -5024927.54445  24104356.7974   24104384.6324
       915.8374        713.6324
  21347292.5894  -19539367.11149 -14756828.13247  21347292.1504   21347308.0364
     -1136.6834       -885.7314
  21240774.0134  -22713356.81049 -17487781.97847  21240773.5204   21240789.6394
       371.5734        289.5314
  21737451.2584  -15663643.70748 -12176391.14247  21737450.4344   21737470.3484
      1428.5664       1113.1634
  23985416.4954   -3992752.03448  -2900110.50346  23985415.5664   23985442.3834
      2350.1324       1831.2654
  23897728.6564   -2026485.06348  -1146633.79646  23897728.2174   23897744.6664
     -3326.9724      -2592.4504
  24104003.2754   -4899043.75148  -3654126.94446  24104002.7634   24104021.4634
     -1776.5394      -1384.3224
  20878361.9444  -23076409.27948 -17972836.41347  20878361.7114   20878375.8994
      -488.8564       -380.9304
 00  9 18  1 22 30.0010000  0 10G 1G31G10G19G27G 8G 2G28G 3G13
  22672407.8814  -10349284.97948  -7866367.09946  22672407.1974   22672428.0234
     -2954.2584      -2302.0164
  22299310.3224   -6448423.63948  -4838900.87746  22299309.9704   22299327.5064
       533.1874        415.4644
  24099192.0024   -6500384.65747  -5046080.47445  24099191.2394   24099218.2274
       895.2294        697.5694
  21353812.1544  -19505106.32649 -14730131.31247  21353811.7704   21353827.4064
     -1146.1264       -893.0874
  21238679.8964  -22724358.31049 -17496354.41247  21238679.5034   21238696.2314
       363.1254        282.9504
  21729322.5204  -15706359.55148 -12209676.02747  21729321.7264   21729341.4524
      1420.2954       1106.7154
  23972033.4614   -4063080.26848  -2954911.52446  23972032.9614   23972059.1094
      2339.6894       1823.1254
  23916744.5884   -1926557.45648  -1068767.99546  23916743.7794   23916761.4974
     -3333.6204      -2597.6304
  24114203.4714   -4845436.60748  -3612354.91346  24114203.2884   24114222.0144
     -1796.0444      -1399.5244
  20881211.4374  -23061432.53148 -17961166.14947  20881211.6294   20881225.8404
      -508.3824       -396.1444
 00  9 18  1 23  0.0010000  0 10G 1G31G10G19G27G 8G 2G28G 3G13
  22689297.9514  -10260527.83548  -7797205.81446  22689297.3784   22689317.8394
     -2963.8914      -2309.5204
  22296315.6334   -6464161.89148  -4851164.20746  22296314.8964   22296332.5064
       514.9944        401.2884
  24094125.7634   -6527009.13847  -5066826.50645  24094124.8374   24094151.4574
       878.6634        684.6554
  21360367.4584  -19470658.35549 -14703288.66347  21360366.8824   21360382.4134
     -1151.4924       -897.2684
  21236616.7224  -22735201.17649 -17504803.24147  21236616.2734   21236632.3794
       358.6864        279.4914
  21721222.5864  -15748922.44148 -12242841.71347  21721222.0644   21721241.7424
      1416.0984       1103.4474
  23958691.6154   -4133190.41548  -3009542.61846  23958691.4354   23958717.7694
      2333.3114       1818.1574
  23935778.4144   -1826526.84548   -990821.98446  23935777.9704   23935796.5804
     -3336.1334      -2599.5864
  24124497.2374   -4791339.34948  -3570200.91246  24124497.0154   24124516.1414
     -1811.4824      -1411.5514
  20884154.5854  -23045965.64348 -17949113.96247  20884154.6504   20884168.9714
      -523.8124       -408.1664
 00  9 18  1 23 30.0010000  0 10G 1G31G10G19G27G 8G 2G28G 3G13
  22706245.7444  -10171465.24748  -7727806.50746  22706245.1674   22706265.6964
     -2973.0144      -2316.6304
  22293427.8574   -6479335.26248  -4862987.37246  22293427.2074   22293444.8674
       497.1674        387.3944
  24089157.5934   -6553118.86947  -5087171.44445  24089156.4854   24089182.7934
       862.5244        672.0864
  21366956.6854  -19436031.00149 -14676306.19947  21366956.1304   21366971.6364
     -1156.4224       -901.1124
  21234581.6864  -22745893.34349 -17513134.62947  21234581.3154   21234597.7384
       354.6994        276.3834
  21713150.8694  -15791339.90548 -12275894.08047  21713150.0804   21713169.5894
      1412.2854       1100.4744
  23945390.5264   -4203089.57948  -3064009.28946  23945389.5054   23945416.6734
      2327.2844       1813.4594
  23954831.4314   -1726403.48148   -912803.75446  23954830.8304   23954848.6344
     -3338.1654      -2601.1714
  24134882.8914   -4736761.25648  -3527672.20946  24134882.4524   24134902.3204
     -1826.4064      -1423.1864
  20887189.6214  -23030016.06848 -17936685.65247  20887189.7704   20887204.0204
      -538.8534       -419.8884
 00  9 18  1 24  0.0010000  0 10G 1G31G10G19G27G 8G 2G28G 3G13
  22723238.2364  -10082167.03048  -7658223.60246  22723238.2114   22723259.0724
     -2981.3754      -2323.1464
  22290635.5044   -6494010.42748  -4874422.33046  22290634.8884   22290652.1304
       479.9934        374.0114
  24084273.2414   -6578781.77647  -5107168.21445  24084272.5674   24084298.3814
       847.1584        660.1154
  21373566.6124  -19401292.75849 -14649237.33247  21373566.1624   21373582.2994
     -1160.6424       -904.4004
  21232562.8424  -22756502.72749 -17521401.52347  21232562.5034   21232578.9744
       351.3964        273.8094
  21705093.3224  -15833680.58848 -12308886.60547  21705092.6814   21705112.1884
      1409.1784       1098.0524
  23932115.4224   -4272845.60148  -3118364.38446  23932114.9524   23932142.5904
      2321.9494       1809.3004
  23973889.0884   -1626257.70647   -834767.81046  23973888.5904   23973904.4584
     -3339.4104      -2602.1494
  24145346.7724   -4681772.46948  -3484823.51746  24145346.5724   24145365.4034
     -1840.6114      -1434.2564
  20890303.5554  -23013652.38848 -17923934.65847  20890303.6864   20890317.7794
      -553.2004       -431.0694
 00  9 18  1 24 30.0010000  0 10G 1G31G10G19G27G 8G 2G28G 3G13
  22740286.9534   -9992578.16148  -7588414.22246  22740286.3274   22740307.4344
     -2989.7704      -2329.6904
  22287948.2624   -6508129.90848  -4885424.30246  22287947.6514   22287965.3754
       462.7344        360.5654
  24079485.3834   -6603940.42747  -5126772.07245  24079484.7184   24079509.9404
       831.5734        647.9684
  21380208.7424  -19366387.05749 -14622037.98647  21380208.3494   21380224.6604
     -1164.9664       -907.7714
  21230570.3144  -22766972.46349 -17529559.57547  21230569.9124   21230586.3704
       348.0344        271.1894
  21697061.4254  -15875887.64548 -12341774.99447  21697060.8074   21697080.2014
      1405.9724       1095.5544
  23918879.7894   -4342401.20448  -3172563.29846  23918879.1374   23918906.1184
      2316.5394       1805.0854
  23992960.3514   -1526035.60147   -756672.35246  23992959.7944   23992977.1834
     -3340.6344      -2603.1034
  24155899.8924   -4626317.77648  -3441611.71546  24155899.5004   24155917.8214
     -1854.8684      -1445.3664
  20893506.9614  -22996817.16048 -17910816.22047  20893506.9764   20893521.2394
      -567.6594       -442.3344
 00  9 18  1 25  0.0010000  0 10G 1G31G10G19G27G 8G 2G28G 3G13
  22757387.7714   -9902716.41048  -7518392.19746  22757387.2464   22757407.6654
     -3001.4914      -2338.8204
  22285364.0064   -6521708.39448  -4896004.73646  22285363.5794   22285381.2494
       441.9794        344.3934
  24074791.3714   -6628610.58947  -5145995.31345  24074790.6024   24074815.5784
       812.6254        633.2054
  21386879.6534  -19331330.06249 -14594720.74547  21386879.2714   21386896.1574
     -1172.6904       -913.7864
  21228601.2724  -22777318.45449 -17537621.22947  21228601.0194   21228617.4904
       341.2064        265.8724
  21689051.6794  -15917977.30148 -12374571.88947  21689051.1594   21689070.4844
      1399.4134       1090.4434
  23905679.0094   -4411772.07748  -3226618.26846  23905678.3974   23905704.7314
      2307.7244       1798.2184
  24012042.3544   -1425755.43947   -678531.78646  24012041.8594   24012059.8704
     -3345.1764      -2606.6324
  24166537.5924   -4570414.96148  -3398050.75046  24166537.3264   24166555.7484
     -1872.4684      -1459.0744
  20896797.1264  -22979526.22348 -17897342.68247  20896797.1704   20896811.4414
      -585.5384       -456.2664
 00  9 18  1 25 30.0010000  0 10G 1G31G10G19G27G 8G 2G28G 3G13
  22774555.2554   -9812498.51948  -7448092.64746  22774554.8214   22774575.2314
     -3010.4294      -2345.7864
  22282898.9564   -6534660.47448  -4906097.08346  22282898.7534   22282916.0664
       424.0394        330.4154
  24070205.6124   -6652707.05947  -5164771.49245  24070204.8974   24070230.7214
       796.4014        620.5614
  21393595.6384  -19296036.95549 -14567219.56547  21393595.2864   21393611.9754
     -1177.6244       -917.6324
  21226672.0774  -22787455.86749 -17545520.34847  21226671.5414   21226688.1294
       337.2024        262.7494
  21681080.6204  -15959864.86748 -12407211.31347  21681080.0264   21681099.5464
      1395.6224       1087.4884
  23892529.4464   -4480873.00948  -3280462.88246  23892528.5394   23892553.9154
      2301.6364       1793.4734
  24031151.9674   -1325334.87548   -600281.86146  24031151.6054   24031168.5084
     -3346.8724      -2607.9604
  24177276.1454   -4513980.73848  -3354075.71146  24177275.9054   24177294.1164
     -1887.1914      -1470.5474
  20900190.5404  -22961694.64048 -17883447.86047  20900190.5864   20900204.3994
      -600.6304       -468.0254
 00  9 18  1 26  0.0010000  0 10G 1G31G10G19G27G 8G 2G28G 3G13
  22791772.3784   -9722018.78948  -7377589.06346  22791772.1544   22791792.4874
     -3022.6144      -2355.2804
  22280536.4744   -6547077.64148  -4915772.62646  22280535.8134   22280553.0684
       402.6914        313.7814
  24065711.1194   -6676322.18247  -5183172.62045  24065710.2224   24065735.6434
       776.8524        605.3354
  21400338.7964  -19260600.52949 -14539606.71447  21400338.4444   21400355.4264
     -1185.8934       -924.0744
  21224765.0204  -22797477.16849 -17553328.99147  21224764.6264   21224781.1724
       329.8204        256.9974
  21673130.4114  -16001642.90248 -12439765.39147  21673129.7754   21673149.3144
      1388.4584       1081.9084
  23879413.4364   -4549796.23548  -3334168.99646  23879412.5484   23879439.0824
      2292.1874       1786.1104
  24050270.0734   -1224868.84348   -521996.44746  24050269.7154   24050286.8684
     -3351.8864      -2611.8684
  24188097.8914   -4457109.92847  -3309760.51946  24188097.4054   24188115.7514
     -1905.2374      -1484.6094
  20903669.2484  -22943414.26548 -17869203.32447  20903669.2874   20903683.0934
      -619.1064       -482.4244
 00  9 18  1 26 30.0010000  0 10G 1G31G10G19G27G 8G 2G28G 3G13
  22809064.8514   -9631147.12748  -7306780.08746  22809064.3254   22809085.1894
     -3034.1234      -2364.2484
  22278300.4444   -6558826.95348  -4924927.74346  22278299.5994   22278316.9534
       381.8994        297.5774
  24061333.5564   -6699323.77447  -5201095.67645  24061333.5364   24061358.5484
       757.9334        590.5894
  21407134.6834  -19224889.22149 -14511779.64847  21407134.2234   21407150.7204
     -1193.5524       -930.0414
  21222905.0324  -22807250.34749 -17560944.29147  21222904.7364   21222921.0914
       323.0564        251.7274
  21665225.9754  -16043179.85448 -12472131.61047  21665225.3554   21665244.2204
      1381.8994       1076.7964
  23866355.8404   -4618409.64048  -3387633.62646  23866355.3004   23866382.0934
      2283.3774       1779.2444
  24069421.1534   -1124227.93148   -443574.76046  24069420.3994   24069437.0784
     -3356.1344      -2615.1794
  24199028.1954   -4399672.08247  -3265003.41946  24199027.5994   24199046.1924
     -1922.6084      -1498.1444
  20907258.3094  -22924553.78448 -17854506.74847  20907258.4064   20907272.1414
      -636.8944       -496.2844
 00  9 18  1 27  0.0010000  0 10G 1G31G10G19G27G 8G 2G28G 3G13
  22826403.7774   -9540033.79548  -7235782.80646  22826403.2454   22826423.7844
     -3042.2724      -2370.5974
  22276163.4974   -6570055.96248  -4933677.42046  22276162.7374   22276180.2204
       364.5134        284.0324
  24057044.4924   -6721860.02747  -5218656.13745  24057043.6964   24057069.4444
       742.3174        578.4204
  21413954.2984  -19189051.69449 -14483854.24747  21413953.9514   21413970.4954
     -1197.8534       -933.3934
  21221064.2384  -22816923.92349 -17568481.99347  21221063.8184   21221080.0334
       319.6664        249.0874
  21657338.8004  -16084624.30948 -12504425.75347  21657338.1034   21657357.1524
      1378.7424       1074.3404
  23853329.8334   -4686861.37148  -3440972.28646  23853328.9804   23853355.7994
      2277.9004       1774.9784
  24088576.5874   -1023563.33347   -365134.69545  24088575.9264   24088592.8314
     -3357.0484      -2615.8864
  24210036.6414   -4341817.89747  -3219921.98246  24210036.7224   24210054.5824
     -1936.5294      -1508.9924
  20910929.5664  -22905261.03148 -17839473.33947  20910929.5504   20910943.4874
      -651.4064       -507.5924
 00  9 18  1 27 30.0010000  0 10G 1G31G10G19G27G 8G 2G28G 3G13
  22843796.7644   -9448634.50648  -7164562.69346  22843796.1224   22843817.0204
     -3050.2764      -2376.8354
  22274133.8404   -6580717.95548  -4941985.25946  22274133.3004   22274151.1774
       347.0224        270.3994
  24052852.8634   -6743884.69947  -5235817.94945  24052851.8674   24052878.9594
       726.7564        566.2944
  21420806.8724  -19153042.11149 -14455794.78747  21420806.4874   21420822.5544
     -1202.1114       -936.7114
  21219250.8144  -22826451.85249 -17575906.21247  21219250.5504   21219266.8444
       316.2844        246.4504
  21649478.3534  -16125930.34048 -12536612.03047  21649477.5804   21649496.8134
      1375.6154       1071.8994
  23840343.5254   -4755104.96448  -3494148.75146  23840342.7514   23840369.3584
      2272.4214       1770.7044
  24107745.5084    -922831.14947   -286641.94645  24107744.8444   24107761.8484
     -3357.8024      -2616.4724
  24221133.9364   -4283503.09847  -3174481.61146  24221133.8104   24221151.5714
     -1950.3564      -1519.7644
  20914691.6874  -22885490.24748 -17824067.43747  20914691.8774   20914705.6784
      -665.8884       -518.8774
 00  9 18  1 28  0.0010000  0 10G 1G31G10G19G27G 8G 2G28G 3G13
  22861236.9544   -9356983.69248  -7093146.58946  22861236.5464   22861257.2814
     -3059.3504      -2383.9064
  22272207.2064   -6590844.60648  -4949875.95046  22272206.3664   22272223.7214
       328.4904        255.9624
  24048753.7564   -6765430.40547  -5252606.56045  24048752.5704   24048778.2884
       710.0384        553.2694
  21427685.8584  -19116893.44349 -14427626.93047  21427685.3674   21427701.1814
     -1207.4424       -940.8654
  21217459.1574  -22835866.68749 -17583242.29547  21217458.8484   21217475.0524
       311.7994        242.9564
  21641638.1064  -16167131.16048 -12568716.33747  21641637.3174   21641656.4084
      1371.3964       1068.6124
  23827390.3924   -4823172.92448  -3547188.36146  23827389.6924   23827415.8744
      2265.8564       1765.5904
  24126920.8624    -822066.32048   -208123.70346  24126920.4124   24126936.5284
     -3359.4984      -2617.8004
  24232310.8824   -4224762.13547  -3128709.17545  24232310.4224   24232328.4614
     -1965.2344      -1531.3634
  20918538.7724  -22865273.47248 -17808314.01047  20918538.8974   20918552.7594
      -681.5054       -531.0464
 00  9 18  1 28 30.0010000  0 10G 1G31G10G19G27G 8G 2G28G 3G13
  22878730.3094   -9265054.68048  -7021513.70646  22878729.7704   22878751.2924
     -3068.2094      -2390.8074
  22270387.2134   -6600406.93448  -4957326.89446  22270386.5674   22270403.9734
       309.9994        241.5514
  24044749.6764   -6786468.63647  -5268999.75245  24044748.4634   24044774.5974
       693.4894        540.3664
  21434596.5714  -19080577.42349 -14399328.65847  21434596.1254   21434611.8934
     -1212.6684       -944.9394
  21215694.6624  -22845139.92249 -17590468.07947  21215694.2614   21215710.1594
       307.4254        239.5484
  21633823.4654  -16208198.25248 -12600716.43947  21633822.6104   21633841.2674
      1367.3194       1065.4364
  23814475.6904   -4891036.72848  -3600068.87246  23814474.9604   23814500.8024
      2259.4614       1760.6064
  24146106.1304    -721243.05548   -129559.85546  24146105.7574   24146122.8684
     -3361.0564      -2619.0124
  24243575.4204   -4165568.59847  -3082584.05246  24243575.3124   24243593.2034
     -1979.9654      -1542.8384
  20922476.2334  -22844582.95048 -17792191.42947  20922476.3214   20922490.1064
      -696.9114       -543.0514
 00  9 18  1 29  0.0010000  0 10G 1G31G10G19G27G 8G 2G28G 3G13
  22896276.7134   -9172850.04548  -6949666.05446  22896276.2024   22896296.9374
     -3078.9354      -2399.1664
  22268675.0854   -6609404.84848  -4964338.02246  22268674.4324   22268691.5904
       289.6714        225.7104
  24040842.2604   -6806999.82747  -5284997.83145  24040841.2054   24040867.2724
       675.1414        526.0774
  21441538.5864  -19044095.07449 -14370900.79947  21441538.2264   21441554.0454
     -1219.7084       -950.4244
  21213956.7904  -22854272.17349 -17597584.00347  21213956.3984   21213972.2764
       301.2004        234.6974
  21626033.8624  -16249132.18448 -12632612.78647  21626033.0654   21626051.7734
      1361.3304       1060.7684
  23801600.2734   -4958696.58048  -3652790.43446  23801599.5294   23801625.2324
      2251.0794       1754.0724
  24165301.8404    -620364.51247    -50952.94845  24165301.0164   24165318.3234
     -3364.3934      -2621.6144
  24254925.1524   -4105924.86747  -3036108.14946  24254924.8104   24254942.8744
     -1996.5054      -1555.7274
  20926503.1724  -22823419.10648 -17775700.02547  20926503.5304   20926517.5944
      -714.2194       -556.5384
 00  9 18  1 29 30.0010000  0 10G 1G31G10G19G27G 8G 2G28G 3G13
  22913873.6174   -9080379.43048  -6877611.13446  22913873.1204   22913893.4804
     -3085.8234      -2404.5344
  22267068.7394   -6617845.22648  -4970914.71046  22267067.9294   22267085.0834
       272.9834        212.7064
  24037030.0414   -6827031.65547  -5300606.78045  24037029.3164   24037055.4344
       660.3634        514.5614
  21448511.0394  -19007454.29349 -14342349.48147  21448510.5714   21448526.2274
     -1223.0874       -953.0574
  21212244.2804  -22863271.30649 -17604596.22447  21212243.7604   21212259.8984
       298.6694        232.7264
  21618267.6694  -16289941.20548 -12664411.80947  21618267.0924   21618285.8294
      1359.0844       1059.0194
  23788761.8234   -5026160.25048  -3705359.13446  23788761.3494   23788787.3564
      2246.4724       1750.4864
  24184506.6614    -519440.73947     27689.30945  24184506.0614   24184522.5414
     -3363.8874      -2621.2254
  24266358.1474   -4045841.31947  -2989289.55746  24266357.7574   24266375.6114
     -2009.1364      -1565.5664
  20930619.3624  -22801789.61548 -17758845.79247  20930619.5744   20930633.6844
      -727.7894       -567.1134
 00  9 18  1 30  0.0010000  0 10G 1G31G10G19G27G 8G 2G28G 3G13
  22931518.6254   -8987655.41148  -6805358.75546  22931518.1144   22931538.8604
     -3097.0984      -2413.3194
  22265566.4194   -6625738.36248  -4977064.99646  22265565.7914   22265582.8474
       251.8924        196.2744
  24033311.1124   -6846574.91847  -5315835.03745  24033310.1604   24033336.8014
       641.2294        499.6544
  21455511.4474  -18970666.08149 -14313683.29247  21455511.2304   21455526.7574
     -1230.8234       -959.0854
  21210554.7854  -22872147.99749 -17611513.03747  21210554.3384   21210570.4694
       291.7694        227.3484
  21610523.6974  -16330636.28748 -12696122.05047  21610523.1794   21610541.6214
      1352.4734       1053.8664
  23775958.9644   -5093438.23748  -3757783.14546  23775958.5394   23775984.8894
      2237.4124       1743.4244
  24203718.2444    -418485.21647    106356.20545  24203717.7504   24203734.5224
     -3367.7984      -2624.2704
  24277873.0644   -3985330.58147  -2942138.17046  24277872.9794   24277890.7704
     -2026.1864      -1578.8494
  20934822.1294  -22779705.32148 -17741637.16547  20934822.1364   20934836.1044
      -745.7924       -581.1384
 00  9 18  1 30 30.0010000  0 10G 1G31G10G19G27G 8G 2G28G 3G13
  22949222.6714   -8894617.43448  -6732861.73446  22949222.0084   22949243.5424
     -3106.3884      -2420.5574
  22264180.5484   -6633021.27948  -4982739.81546  22264179.7464   22264196.9494
       232.6544        181.2834
  24029697.1674   -6865567.08147  -5330633.88745  24029696.3404   24029721.7204
       623.9984        486.2254
  21462551.7884  -18933668.19349 -14284853.70047  21462551.3744   21462567.2814
     -1236.7024       -963.6664
  21208900.8424  -22880839.83349 -17618285.80947  21208900.2714   21208916.3574
       286.7024        223.4024
  21602813.1984  -16371154.98748 -12727694.85447  21602812.5984   21602830.8204
      1347.6804       1050.1344
  23763203.8894   -5160467.74548  -3810013.49446  23763203.0214   23763228.5114
      2230.2474       1737.8394
  24222946.8054    -317438.03048    185094.49146  24222946.1854   24222963.7884
     -3369.7034      -2625.7444
  24289480.9144   -3924331.94347  -2894606.58446  24289480.6524   24289497.5394
     -2041.3374      -1590.6584
  20939123.3284  -22757103.83848 -17724025.55047  20939123.1704   20939137.1314
      -761.9214       -593.7074
 00  9 18  1 31  0.0010000  0 10G 1G31G10G19G27G 8G 2G28G 3G13
  22966973.8004   -8801333.42448  -6660173.01846  22966973.5044   22966995.4634
     -3114.8944      -2427.1844
  22262898.1504   -6639759.36848  -4987990.11946  22262897.6354   22262914.4824
       214.1724        166.8804
  24026175.1214   -6884074.09147  -5345054.69245  24026173.9904   24026200.1644
       607.4644        473.3384
  21469619.2294  -18896527.09949 -14255912.51047  21469618.7794   21469635.0564
     -1241.7934       -967.6354
  21207269.3684  -22889412.60549 -17624965.80847  21207268.9754   21207285.0904
       282.4434        220.0834
  21595123.2454  -16411563.61848 -12759181.89647  21595122.5364   21595141.3744
      1343.7054       1047.0364
  23750482.0604   -5227314.62048  -3862101.53446  23750481.8684   23750507.5034
      2223.7964       1732.8124
  24242179.2294    -216367.43347    263850.96246  24242178.7694   24242195.7754
     -3370.7524      -2626.5634
  24301168.2864   -3862913.99447  -2846748.26646  24301167.9954   24301185.2894
     -2055.6054      -1601.7754
  20943509.5344  -22734051.86548 -17706062.91347  20943509.6634   20943523.7634
      -777.2844       -605.6794
 00  9 18  1 31 30.0010000  0 10G 1G31G10G19G27G 8G 2G28G 3G13
  22984778.1654   -8707774.23148  -6587269.88746  22984777.8344   22984798.8154
     -3123.4344      -2433.8394
  22261725.3644   -6645920.56748  -4992790.91846  22261724.7664   22261741.9194
       195.5484        152.3724
  24022752.0084   -6902064.77847  -5359073.16545  24022751.2074   24022776.7104
       590.8894        460.4324
  21476719.7484  -18859211.60249 -14226835.44147  21476719.5124   21476736.0124
     -1246.9904       -971.6834
  21205666.6944  -22897835.16649 -17631528.74647  21205666.2454   21205682.0064
       278.0354        216.6474
  21587460.3804  -16451830.98448 -12790558.86147  21587459.6744   21587478.7634
      1339.6004       1043.8384
  23737802.1874   -5293947.60248  -3914022.88346  23737801.4544   23737827.3214
      2217.3154       1727.7644
  24261421.5704    -115244.54747    342648.21445  24261421.2374   24261438.7634
     -3371.8424      -2627.4184
  24312940.2504   -3801047.27347  -2798540.25046  24312939.9034   24312958.2014
     -2069.9114      -1612.9224
  20947988.3584  -22710517.40348 -17687724.31347  20947988.1874   20948002.0444
      -792.7354       -617.7184
 00  9 18  1 32  0.0010000  0 10G 1G31G10G19G27G 8G 2G28G 3G13
  23002625.0894   -8613987.44848  -6514189.39146  23002624.9694   23002645.6684
     -3129.6194      -2438.6604
  22260653.8894   -6651550.37548  -4997177.65646  22260653.4774   22260670.4594
       179.2064        139.6364
  24019417.5624   -6919585.48147  -5372725.45145  24019416.6324   24019441.2334
       576.5834        449.2774
  21483845.4624  -18821767.45149 -14197658.11647  21483845.0164   21483861.3774
     -1249.9094       -973.9594
  21204083.5744  -22906153.23649 -17638010.25847  21204083.2664   21204099.1164
       275.9004        214.9834
  21579815.6144  -16492003.32148 -12821861.78047  21579814.9654   21579834.0214
      1337.8354       1042.4614
  23725154.0144   -5360412.24348  -3965813.02446  23725153.3804   23725179.2104
      2213.1014       1724.4774
  24280666.0034     -14117.54147    421448.70245  24280665.4894   24280681.3814
     -3370.5714      -2626.4324
  24324789.5524   -3738779.59247  -2750019.74445  24324789.4324   24324807.2324
     -2081.8564      -1622.2314
  20952549.3874  -22686546.59048 -17669045.70347  20952549.5534   20952563.7464
      -805.9324       -628.0014
 00  9 18  1 32 30.0010000  0 10G 1G31G10G19G27G 8G 2G28G 3G13
  23020535.5324   -8519867.61048  -6440849.36746  23020535.4024   23020556.2534
     -3144.0354      -2449.8944
  22259704.1524   -6656540.83848  -5001066.19946  22259703.4514   22259720.5524
       154.4884        120.3764
  24016192.7834   -6936528.63747  -5385927.68045  24016191.9874   24016216.8224
       553.9964        431.6774
  21491015.8834  -18784087.70049 -14168297.21247  21491015.5324   21491031.4524
     -1261.1444       -982.7124
  21202540.8474  -22914259.11749 -17644326.41947  21202540.6404   21202556.4904
       265.4584        206.8474
  21572209.5804  -16531973.24248 -12853006.96747  21572209.0004   21572227.8314
      1327.7284       1034.5864
  23712558.7794   -5426601.11748  -4017388.28046  23712558.2164   23712583.3174
      2200.5244       1714.6794
  24299930.4434      87118.26447    500333.97745  24299929.8424   24299946.0444
     -3377.4894      -2631.8134
  24336734.0034   -3676005.43547  -2701104.57745  24336733.5474   24336752.2894
     -2102.0394      -1637.9654
  20957214.4134  -22662031.86948 -17649943.26647  20957214.3254   20957228.6864
      -827.4224       -644.7474
 00  9 18  1 33  0.0010000  0 10G 1G31G10G19G27G 8G 2G28G 3G13
  23038523.2714   -8425339.45148  -6367191.18246  23038523.1744   23038543.9374
     -3155.9034      -2459.1414
  22258890.5644   -6660814.33548  -5004396.05246  22258890.1764   22258907.1924
       132.2984        103.0854
  24013092.7864   -6952817.16047  -5398619.82145  24013092.0944   24013116.7184
       533.8174        415.9614
  21498246.0244  -18746095.67049 -14138692.97547  21498245.5164   21498261.0714
     -1269.8224       -989.4724
  21201053.6624  -22922075.57249 -17650417.04547  21201053.1244   21201068.9694
       257.5244        200.6644
  21564656.4994  -16571663.78948 -12883934.45447  21564655.8954   21564674.9254
      1320.1144       1028.6544
  23700030.2154   -5492436.88748  -4068688.38546  23700029.6114   23700054.2834
      2190.4274       1706.8074
  24319229.8754     188537.66547    579362.21845  24319229.1904   24319245.5604
     -3381.8774      -2635.2334
  24348791.0694   -3612650.23047  -2651736.65146  24348790.6364   24348808.0094
     -2119.6494      -1651.6794
  20961996.8534  -22636897.25748 -17630357.80847  20961996.9294   20962011.6124
      -846.3844       -659.5214
 00  9 18  1 33 30.0010000  0 10G 1G31G10G19G27G 8G 2G28G 3G13
  23056566.6214   -8330522.05548  -6293307.61346  23056565.9914   23056587.9624
     -3165.1554      -2466.3504
  22258191.5054   -6664487.10748  -5007257.79146  22258190.9934   22258208.0464
       112.6494         87.7734
  24010095.3854   -6968568.28547  -5410893.21645  24010094.2604   24010119.1744
       516.2884        402.2954
  21505512.1934  -18707908.61749 -14108936.75947  21505511.9204   21505527.8274
     -1275.9274       -994.2314
  21199598.8364  -22929719.77749 -17656373.44847  21199598.3424   21199614.2084
       252.1874        196.5044
  21557134.4204  -16611192.17448 -12914735.58747  21557133.7634   21557152.6334
      1315.0874       1024.7364
  23687546.4934   -5558036.46848  -4119804.39246  23687545.6314   23687571.0124
      2182.9974       1701.0184
  24338541.6884     290021.35447    658440.55945  24338540.9964   24338557.6634
     -3383.6264      -2636.6004
  24360934.5534   -3548833.35548  -2602009.08346  24360934.1594   24360952.3584
     -2134.6724      -1663.3854
  20966875.3874  -22611259.20348 -17610380.04547  20966875.4824   20966890.4264
      -862.7684       -672.2904
 00  9 18  1 34  0.0010000  0 10G 1G31G10G19G27G 8G 2G28G 3G13
  23074657.1314   -8235457.35048  -6219231.34746  23074656.7754   23074678.6694
     -3172.6384      -2472.1824
  22257599.5654   -6667599.09848  -5009682.54646  22257598.6784   22257615.5644
        94.6734         73.7654
  24007192.7844   -6983821.70747  -5422778.79345  24007191.9364   24007216.5844
       500.4434        389.9534
  21512808.3844  -18669566.53349 -14079059.74647  21512807.9784   21512823.9474
     -1280.3754       -997.6994
  21198169.2574  -22937231.31649 -17662226.47847  21198168.9604   21198184.5954
       248.4564        193.5974
  21549635.5194  -16650598.49448 -12945441.61847  21549634.7304   21549653.2764
      1311.7654       1022.1474
  23675099.9334   -5623439.77648  -4170767.48046  23675099.2964   23675124.6784
      2177.1564       1696.4664
  24357857.1594     391527.23047    737536.27245  24357856.1914   24357873.1634
     -3383.5714      -2636.5584
  24373158.3964   -3484596.35747  -2551954.12746  24373158.1384   24373176.3864
     -2147.8964      -1673.6924
  20971842.1944  -22585157.47248 -17590040.98547  20971842.3064   20971857.3784
      -877.4794       -683.7514
 00  9 18  1 34 30.0010000  0 10G 1G31G10G19G27G 8G 2G28G 3G13
  23092786.7934   -8140187.52648  -6144995.23446  23092786.0624   23092807.6194
     -3181.7324      -2479.2684
  22257106.2004   -6670189.78548  -5011701.05846  22257105.6804   22257122.4664
        75.0224         58.4544
  24004376.6254   -6998618.23947  -5434308.37545  24004375.9214   24004399.7364
       482.9644        376.3304
  21520126.1214  -18631110.07349 -14049093.58147  21520126.0024   21520141.9994
     -1286.4414      -1002.4234
  21196757.3894  -22944650.68749 -17668007.68647  21196756.9614   21196772.7354
       243.1614        189.4734
  21542151.9624  -16689923.12948 -12976083.98547  21542151.3014   21542169.9174
      1306.7704       1018.2574
  23662683.7314   -5688686.83048  -4221608.81646  23662682.9134   23662707.7934
      2169.6574       1690.6254
  24377168.5454     493012.47047    816615.91345  24377167.6604   24377185.3464
     -3385.1184      -2637.7624
  24385453.9794   -3419981.84647  -2501605.00745  24385453.2684   24385470.8934
     -2162.6924      -1685.2184
  20976889.5854  -22558633.27348 -17569372.72747  20976889.5364   20976904.4374
      -893.8194       -696.4844
 00  9 18  1 35  0.0010000  0 10G 1G31G10G19G27G 8G 2G28G 3G13
  23110975.0464   -8044607.44148  -6070517.35346  23110974.5624   23110996.1834
     -3191.7254      -2487.0554
  22256732.8764   -6672151.89648  -5013229.76246  22256732.2444   22256748.7594
        54.3724         42.3604
  24001667.1734   -7012850.93247  -5445398.59845  24001666.1064   24001692.0704
       464.5014        361.9454
  21527486.4534  -18592432.32649 -14018954.93247  21527485.8974   21527501.6884
     -1293.5054      -1007.9334
  21195383.4144  -22951870.52549 -17673633.42647  21195382.9684   21195398.7064
       236.7704        184.4924
  21534704.1964  -16729059.11948 -13006579.34947  21534703.5984   21534722.5424
      1300.7964       1013.5994
  23650317.5444   -5753670.34848  -4272244.78946  23650316.6764   23650341.6784
      2161.1844       1684.0204
  24396496.7214     594581.83147    895761.12045  24396496.1704   24396512.3564
     -3387.5754      -2639.6764
  24397841.5884   -3354884.97647  -2450879.93145  24397841.0504   24397858.6274
     -2178.4544      -1697.5104
  20982037.3364  -22531579.79448 -17548292.04447  20982037.4814   20982052.4044
      -911.1664       -710.0014
 00  9 18  1 35 30.0010000  0 10G 1G31G10G19G27G 8G 2G28G 3G13
  23129228.3004   -7948683.47748  -5995771.50846  23129227.9714   23129249.8844
     -3201.1524      -2494.4004
  22256485.4044   -6673449.42948  -5014240.61646  22256484.7924   22256501.7544
        34.2064         26.6454
  23999072.8404   -7026484.25147  -5456021.76045  23999072.5514   23999098.1374
       446.4974        347.9074
  21534894.9644  -18553497.69249 -13988616.14347  21534894.6364   21534910.8604
     -1300.0884      -1013.0594
  21194054.1254  -22958855.03149 -17679075.78547  21194053.7504   21194069.6024
       230.9354        179.9464
  21527299.4014  -16767970.82948 -13036899.95147  21527298.8224   21527317.5514
      1295.2884       1009.3074
  23638008.2554   -5818354.59248  -4322647.58746  23638007.3554   23638031.8394
      2153.2114       1677.8094
  24415846.6854     696268.23247    974997.42345  24415846.1304   24415862.7434
     -3389.4804      -2641.1504
  24410327.0114   -3289272.16847  -2399752.83045  24410326.4714   24410343.6844
     -2193.5784      -1709.2874
  20987293.0484  -22503961.37848 -17526771.15147  20987293.0794   20987308.0564
      -927.9484       -723.0784
 00  9 18  1 36  0.0010000  0 10G 1G31G10G19G27G 8G 2G28G 3G13
  23147527.8654   -7852520.65148  -5920839.52046  23147526.8894   23147548.6734
     -3211.8814      -2502.7594
  22256345.3664   -6674184.75548  -5014813.39846  22256344.8164   22256361.5114
        12.6224          9.8274
  23996572.6464   -7039621.57547  -5466258.47145  23996571.9394   23996596.5704
       427.1474        332.8414
  21542333.1174  -18514409.46349 -13958157.66047  21542332.6024   21542349.0864
     -1308.0394      -1019.2564
  21192750.1504  -22965707.19149 -17684415.00347  21192749.7894   21192765.5324
       223.6864        174.2964
  21519917.3854  -16806761.50948 -13067126.22747  21519916.8944   21519935.4404
      1288.4554       1003.9824
  23625735.8354   -5882842.63048  -4372897.50046  23625735.0404   23625759.7484
      2143.8224       1670.4944
  24435199.2794     797966.81947   1054243.29245  24435199.1844   24435214.9074
     -3392.7354      -2643.6994
  24422890.4974   -3223248.60047  -2348305.54945  24422890.1854   24422906.5784
     -2210.1164      -1722.1794
  20992636.5924  -22475881.02848 -17504890.29947  20992636.5864   20992651.3064
      -946.2254       -737.3204
 00  9 18  1 36 30.0010000  0 10G 1G31G10G19G27G 8G 2G28G 3G13
  23165893.1684   -7756009.90448  -5845636.43146  23165892.6734   23165914.7734
     -3222.1194      -2510.7394
  22256333.5874   -6674246.93148  -5014861.66046  22256332.7744   22256349.5414
        -8.4674         -6.6054
  23994189.0924   -7052151.88047  -5476022.19945  23994187.7704   23994212.1674
       408.2304        318.0984
  21549821.2964  -18475056.93949 -13927493.22947  21549820.8684   21549837.4344
     -1315.4704      -1025.0454
  21191492.5514  -22972315.79349 -17689564.41947  21191492.0594   21191507.6894
       216.9134        169.0184
  21512579.7524  -16845320.04248 -13097171.60947  21512579.1994   21512597.8294
      1282.0534        998.9954
  23613521.9374   -5947023.29848  -4422907.89046  23613521.3734   23613546.1244
      2134.9204       1663.5584
  24454574.6294     899786.13647   1133583.17845  24454573.6684   24454589.9064
     -3395.2694      -2645.6814
  24435552.3234   -3156705.74247  -2296453.66645  24435552.0754   24435570.4394
     -2226.0304      -1734.5784
  20998088.9274  -22447228.12448 -17482563.29547  20998089.0664   20998103.6414
      -963.9494       -751.1304
 00  9 18  1 37  0.0010000  0 10G 1G31G10G19G27G 8G 2G28G 3G13
  23184317.9644   -7659187.80648  -5770190.72746  23184317.9254   23184339.2474
     -3232.1084      -2518.5214
  22256442.9374   -6673670.12748  -5014412.03446  22256442.3944   22256459.1854
       -29.4214        -22.9324
  23991912.8284   -7064110.13447  -5485340.16045  23991912.1104   23991937.7394
       389.5674        303.5514
  21557353.3814  -18435474.97949 -13896650.03447  21557353.0494   21557369.4094
     -1322.7834      -1030.7444
  21190274.1804  -22978715.31849 -17694550.91647  21190273.9144   21190289.7594
       210.2814        163.8514
  21505280.1514  -16883681.30348 -13127063.27647  21505279.3594   21505297.4494
      1275.8304        994.1464
  23601360.5784   -6010931.05248  -4472705.63946  23601359.9424   23601384.3864
      2126.1554       1656.7284
  24473965.8164    1001689.24447   1212988.40845  24473964.8524   24473982.7404
     -3397.6924      -2647.5554
  24448306.4364   -3089680.41747  -2244225.86345  24448306.4934   24448324.1004
     -2241.7614      -1746.8364
  21003643.7994  -22418037.77948 -17459817.50447  21003643.8224   21003658.2004
      -981.5024       -764.8094
 00  9 18  1 37 30.0010000  0 10G 1G31G10G19G27G 8G 2G28G 3G13
  23202793.0624   -7562100.25548  -5694538.17046  23202792.6034   23202814.3384
     -3240.0284      -2524.6944
  22256665.9434   -6672498.06548  -5013498.57246  22256665.2854   22256681.8494
       -48.3834        -37.7074
  23989737.9034   -7075540.91347  -5494247.10945  23989736.9834   23989761.6204
       372.8784        290.5444
  21564920.8834  -18395707.51849 -13865662.29447  21564920.6674   21564936.9504
     -1328.0414      -1034.8404
  21189087.9474  -22984949.49949 -17699408.56847  21189087.5784   21189103.3824
       205.6894        160.2724
  21498009.3374  -16921889.21748 -13156835.44547  21498008.6754   21498026.2544
      1271.6124        990.8584
  23589242.8204   -6074609.79648  -4522324.93846  23589242.0394   23589266.2854
      2119.4284       1651.4854
  24493364.0774    1103630.43447   1292423.44745  24493363.6724   24493380.5764
     -3398.0524      -2647.8444
  24461144.6304   -3022218.89347  -2191658.24645  24461144.6074   24461161.7074
     -2255.3974      -1757.4584
  21009292.2324  -22388354.08148 -17436687.27747  21009292.4354   21009306.6954
      -997.0704       -776.9414
 00  9 18  1 38  0.0010000  0 10G 1G31G10G19G27G 8G 2G28G 3G13
  23221320.1414   -7464741.07347  -5618673.97146  23221319.5414   23221341.3504
     -3250.3404      -2532.7304
  22257003.8424   -6670722.28348  -5012114.66846  22257003.1184   22257019.4874
       -69.8564        -54.4404
  23987664.5414   -7086436.21547  -5502736.80145  23987663.8744   23987688.5114
       353.7054        275.6084
  21572525.4294  -18355746.65449 -13834523.83547  21572525.0604   21572541.1354
     -1335.8224      -1040.9034
  21187934.5984  -22991010.03949 -17704130.92447  21187934.1784   21187950.0234
       198.5664        154.7214
  21490768.7994  -16959935.77848 -13186481.90547  21490768.2124   21490786.6074
      1264.8834        985.6154
  23577169.7714   -6138051.24148  -4571759.35246  23577169.0404   23577193.0684
      2110.2124       1644.3064
  24512771.0624    1205615.16147   1371892.49345  24512770.9044   24512786.4144
     -3400.8284      -2650.0144
  24474065.9574   -2954314.71347  -2138745.63346  24474066.0154   24474082.5494
     -2271.3844      -1769.9214
  21015036.2534  -22358168.92448 -17413166.31947  21015036.4734   21015050.8224
     -1015.0814       -790.9754
 00  9 18  1 38 30.0010000  0 10G 1G31G10G19G27G 8G 2G28G 3G13
  23239896.2924   -7367125.47447  -5542609.95246  23239895.6004   23239916.8734
     -3256.7384      -2537.7144
  22257453.7794   -6668355.61548  -5010270.32746  22257453.1964   22257469.7334
       -87.3604        -68.0784
  23985691.0334   -7096809.33647  -5510819.58745  23985690.2184   23985714.8944
       338.4614        263.7304
  21580164.0434  -18315605.98449 -13803245.32347  21580163.6624   21580179.6754
     -1339.6564      -1043.8894
  21186811.5344  -22996910.07749 -17708728.17947  21186811.2064   21186827.0254
       195.3514        152.2154
  21483557.2354  -16997834.19948 -13216012.90847  21483556.5584   21483574.5084
      1262.0944        983.4414
  23565139.4704   -6201268.57548  -4621019.17546  23565138.9344   23565162.8984
      2104.8964       1640.1634
  24532183.3574    1307627.26347   1451382.51245  24532182.8384   24532199.1164
     -3399.4904      -2648.9514
  24487068.7654   -2885983.54247  -2085500.11446  24487067.8234   24487085.5644
     -2283.3584      -1779.2624
  21020873.2644  -22327496.79948 -17389265.90147  21020873.0684   21020887.4604
     -1029.1314       -801.9234
 00  9 18  1 39  0.0010000  0 10G 1G31G10G19G27G 8G 2G28G 3G13
  23258516.7564   -7269272.03747  -5466360.63546  23258516.2404   23258538.6124
     -3266.4454      -2545.2764
  22258013.6374   -6665414.29048  -5007978.18446  22258013.0764   22258029.4364
      -108.3394        -84.4274
  23983812.6924   -7106677.03447  -5518508.54145  23983811.7294   23983837.0004
       319.7844        249.1784
  21587833.3724  -18275301.73549 -13771839.29447  21587833.0774   21587848.9744
     -1346.9194      -1049.5534
  21185716.1954  -23002665.73249 -17713212.94747  21185715.9464   21185731.6464
       188.7244        147.0534
  21476370.5044  -17035600.96748 -13245441.32947  21476369.7584   21476387.6284
      1255.9314        978.6404
  23553148.5684   -6264278.31848  -4670117.24446  23553147.7874   23553172.4244
      2096.1614       1633.3584
  24551597.3664    1409649.21647   1530880.44545  24551596.9334   24551612.2654
     -3401.5284      -2650.5584
  24500148.7084   -2817243.82247  -2031936.10545  24500148.7954   24500164.9084
     -2298.7824      -1791.2844
  21026799.6324  -22296353.42848 -17364998.28047  21026799.6134   21026813.9984
     -1046.6634       -815.5834
 00  9 18  1 39 30.0010000  0 10G 1G31G10G19G27G 8G 2G28G 3G13
  23277190.5364   -7171141.68447  -5389895.53646  23277190.4884   23277211.5904
     -3274.6644      -2551.6854
  22258689.9614   -6661857.25148  -5005206.25546  22258689.3624   22258706.0564
      -127.9044        -99.6724
  23982038.8744   -7115998.73547  -5525772.03245  23982037.7824   23982062.6804
       302.5584        235.7524
  21595541.8924  -18234793.05849 -13740273.94447  21595541.5864   21595557.5814
     -1352.7814      -1054.1184
  21184656.3734  -23008235.81749 -17717553.11047  21184655.9954   21184671.5944
       183.5114        142.9914
  21469216.3454  -17073195.24448 -13274735.33847  21469215.5934   21469232.9954
      1251.1424        974.9094
  23541205.2504   -6327039.29148  -4719021.47446  23541204.5784   23541228.6914
      2088.8204       1627.6374
  24571020.4084    1511719.38047   1610416.11545  24571019.6044   24571035.7294
     -3402.2114      -2651.0834
  24513314.7824   -2748057.71747  -1978024.39945  24513313.7694   24513331.4854
     -2312.7144      -1802.1254
  21032823.0734  -22264698.63848 -17340332.14947  21032823.2274   21032837.4934
     -1062.7544       -828.1224
 00  9 18  1 40  0.0010000  0 10G 1G31G10G19G27G 8G 2G28G 3G13
  23295912.3204   -7072756.80747  -5313232.11145  23295911.8504   23295934.3194
     -3285.0814      -2559.8014
  22259480.0364   -6657704.31848  -5001969.99246  22259479.4304   22259496.1494
      -149.7154       -116.6704
  23980364.4704   -7124794.99047  -5532626.09345  23980363.2714   23980389.5684
       283.1564        220.6354
  21603285.5444  -18194100.53249 -13708565.37747  21603285.0074   21603300.9304
     -1360.8154      -1060.3814
  21183627.5794  -23013640.34649 -17721764.28547  21183627.1724   21183642.7144
       176.0694        137.1914
  21462090.8394  -17110637.29448 -13303910.75647  21462090.1284   21462108.2894
      1244.1624        969.4714
  23529305.6194   -6389571.70648  -4767747.64346  23529305.0564   23529329.0864
      2079.2714       1620.1974
  24590448.0704    1613815.00247   1689971.51845  24590447.8854   24590463.7394
     -3404.8584      -2653.1464
  24526559.8334   -2678447.46747  -1923782.28945  24526559.9414   24526576.8074
     -2328.7654      -1814.6394
  21038940.1114  -22232552.96848 -17315283.51747  21038940.3394   21038954.4874
     -1081.0314       -842.3654
 00  9 18  1 40 30.0010000  0 10G 1G31G10G19G27G 8G 2G28G 3G13
  23314702.5244   -6974015.08547  -5236290.63945  23314702.1954   23314723.9334
     -3299.2714      -2570.8574
  22260403.4774   -6652851.18448  -4998188.09746  22260402.8914   22260419.4584
      -175.4144       -136.6924
  23978810.0344   -7132962.17547  -5538989.95645  23978809.2064   23978834.6814
       259.7804        202.4214
  21611083.1904  -18153120.25349 -13676632.57447  21611083.0154   21611099.0114
     -1372.7954      -1069.7144
  21182650.5844  -23018774.77449 -17725764.98147  21182650.1294   21182665.7074
       164.6624        128.3044
  21455014.3794  -17147822.70648 -13332886.19847  21455013.6644   21455031.8484
      1233.1914        960.9224
  23517469.0084   -6451771.01448  -4816214.24046  23517468.5324   23517492.3284
      2065.7814       1609.6884
  24609901.3564    1716038.38947   1769626.48945  24609900.3664   24609915.4254
     -3411.5834      -2658.3894
  24539907.0934   -2608310.94547  -1869130.08345  24539906.3394   24539923.4324
     -2348.6334      -1830.1104
  21045170.4224  -22199812.06348 -17289771.05847  21045170.4854   21045184.8364
     -1103.2724       -859.6954
 00  9 18  1 41  0.0010000  0 10G 1G31G10G19G27G 8G 2G28G 3G13
  23333564.6004   -6874895.92747  -5159055.05345  23333564.4054   23333585.8354
     -3308.1814      -2577.7974
  22261464.6204   -6647275.14348  -4993842.89747  22261464.0704   22261480.4384
      -195.8894       -152.6484
  23977380.1444   -7140477.88347  -5544846.18145  23977379.2044   23977404.8884
       241.7294        188.3574
  21618940.4294  -18111829.30549 -13644457.68747  21618939.9294   21618956.1584
     -1379.4964      -1074.9344
  21181729.2444  -23023616.37349 -17729537.50847  21181728.7924   21181744.2904
       158.5414        123.5344
  21447991.1694  -17184728.97648 -13361644.11047  21447990.3894   21448008.3934
      1227.5534        956.5284
  23505700.3224   -6513614.62048  -4864403.69046  23505699.5884   23505723.1944
      2057.6014       1603.3164
  24629380.4744    1818409.95647   1849396.93845  24629379.6524   24629395.5094
     -3412.8164      -2659.3474
  24553356.5524   -2537627.74847  -1814051.90145  24553356.6714   24553373.2114
     -2363.1364      -1841.4164
  21051518.1454  -22166454.44348 -17263778.03947  21051518.0854   21051532.7034
     -1120.1404       -872.8394
 00  9 18  1 41 30.0010000  0 10G 1G31G10G19G27G 8G 2G28G 3G13
  23352475.7204   -6775514.63247  -5081615.19345  23352475.3074   23352497.2794
     -3318.0724      -2585.5064
  22262641.6424   -6641089.22348  -4989022.47747  22262640.9444   22262657.3814
      -217.3894       -169.4014
  23976051.9914   -7147455.90547  -5550283.44545  23976051.2904   23976076.1804
       222.5894        173.4424
  21626834.9024  -18070341.41249 -13612129.35747  21626834.6924   21626850.7244
     -1387.2364      -1080.9664
  21180841.9004  -23028278.22949 -17733169.98547  21180841.4324   21180857.0674
       151.3784        117.9534
  21440999.1704  -17221469.36348 -13390272.76747  21440998.7224   21441016.8724
      1220.8564        951.3104
  23493977.6444   -6575215.60548  -4912404.09546  23493977.1944   23494000.5394
      2048.3174       1596.0794
  24648867.2094    1920814.13247   1929192.73145  24648867.0784   24648882.9214
     -3415.0354      -2661.0744
  24566889.2004   -2466513.44247  -1758637.75745  24566888.7954   24566905.3844
     -2378.6614      -1853.5144
  21057961.3944  -22132593.29748 -17237392.66347  21057961.4384   21057976.0574
     -1138.1504       -886.8724
 00  9 18  1 42  0.0010000  0 10G 1G31G10G19G27G 8G 2G28G 3G13
  23371445.0774   -6675831.51347  -5003940.15245  23371444.2934   23371467.3494
     -3328.1184      -2593.3334
  22263942.4074   -6634252.07148  -4983694.61947  22263941.6574   22263958.3484
      -239.0924       -186.3104
  23974834.5194   -7153855.22647  -5555269.74145  23974833.5854   23974858.5604
       203.3494        158.4514
  21634775.2594  -18028614.96849 -13579615.15347  21634774.9974   21634791.0434
     -1395.2234      -1087.1894
  21179996.8814  -23032718.47049 -17736629.77147  21179996.3474   21180012.0174
       143.9524        112.1664
  21434046.9574  -17258002.25748 -13418739.76747  21434046.3234   21434064.5194
      1213.9044        945.8944
  23482309.1234   -6636532.34848  -4960182.98946  23482308.4284   23482332.0824
      2038.8444       1588.6964
  24668368.1264    2023290.49047   2009044.77245  24668367.8744   24668382.2144
     -3417.3954      -2662.9174
  24580510.8944   -2394928.82447  -1702857.15646  24580510.0314   24580527.2474
     -2394.3494      -1865.7354
  21064508.2514  -22098187.44848 -17210582.85147  21064508.3174   21064523.2564
     -1156.2774       -900.9954
 00  9 18  1 42 30.0010000  0 10G 1G31G10G19G27G 8G 2G28G 3G13
  23390478.8194   -6575808.44847  -4926000.23745  23390477.7824   23390500.9444
     -3338.2714      -2601.2454
  22265374.9794   -6626723.20848  -4977827.77847  22265374.4604   22265391.0134
      -261.0204       -203.3974
  23973733.6784   -7159635.76247  -5559773.86345  23973732.8504   23973757.7614
       183.8034        143.2184
  21642768.9474  -17986609.77649 -13546883.72247  21642768.3834   21642784.2024
     -1403.3744      -1093.5394
  21179201.6584  -23036896.47849 -17739885.22047  21179201.2194   21179216.8064
       136.3414        106.2364
  21427142.4454  -17294287.02048 -13447013.40147  21427141.7344   21427159.3804
      1206.7504        940.3174
  23470702.6614   -6697524.72148  -5007709.13846  23470702.0124   23470725.3114
      2029.1354       1581.1324
  24687888.5244    2125877.03347   2088982.60545  24687888.1064   24687904.3614
     -3419.8954      -2664.8614
  24594229.4284   -2322836.24947  -1646680.87145  24594229.0604   24594246.2554
     -2410.0554      -1877.9784
  21071166.6984  -22063197.38648 -17183317.80347  21071166.7074   21071181.4164
     -1174.6174       -915.2864
 00  9 18  1 43  0.0010000  0 10G 1G31G10G19G27G 8G 2G28G 3G13
  23409550.7334   -6475587.20647  -4847905.88145  23409550.5394   23409572.7394
     -3344.8614      -2606.3814
  22266912.9714   -6618642.48748  -4971530.94647  22266912.2494   22266928.5074
      -279.4764       -217.7794
  23972724.4334   -7164937.83147  -5563905.13545  23972723.7014   23972748.7134
       167.9364        130.8504
  21650788.7104  -17944465.89949 -13514044.24347  21650788.1864   21650803.8844
     -1408.0214      -1097.1614
  21178430.1344  -23040951.58249 -17743044.89347  21178429.4814   21178445.0794
       132.2314        103.0324
  21420258.0724  -17330463.82548 -13475202.90747  21420257.2364   21420275.0324
      1203.1214        937.4914
  23459131.2554   -6758332.26948  -5055091.26046  23459130.4004   23459153.9474
      2022.9174       1576.2874
  24707404.2774    2228432.23947   2168896.16645  24707403.5064   24707418.6834
     -3418.8804      -2664.0794
  24608017.7484   -2250377.48448  -1590219.15746  24608016.8144   24608033.3954
     -2422.2164      -1887.4534
  21077909.0654  -22027763.42948 -17155706.86647  21077909.2994   21077924.3334
     -1189.4364       -926.8354
 00  9 18  1 43 30.0010000  0 10G 1G31G10G19G27G 8G 2G28G 3G13
  23428667.5214   -6375128.69347  -4769626.65145  23428667.0394   23428689.2034
     -3353.7554      -2613.3134
  22268562.9554   -6609968.91448  -4964772.18347  22268562.4264   22268578.5904
      -300.1784       -233.9084
  23971814.5494   -7169721.00547  -5567632.07245  23971812.8934   23971837.5644
       149.6034        116.5694
  21658842.5864  -17902142.22449 -13481064.68447  21658842.0974   21658857.9534
     -1415.0324      -1102.6244
  21177689.2964  -23044842.61849 -17746076.73747  21177688.9084   21177704.6194
       125.7364         97.9724
  21413401.9304  -17366491.35248 -13503276.08847  21413401.2794   21413419.1014
      1197.1424        932.8324
  23447602.5274   -6818913.93248  -5102297.37846  23447601.5994   23447625.3324
      2014.4314       1569.6724
  24726920.7464    2330994.67447   2248815.39945  24726920.6504   24726935.9494
     -3420.0664      -2665.0044
  24621883.0244   -2177513.96147  -1533442.10045  24621882.2294   24621898.8034
     -2436.7164      -1898.7514
  21084744.5324  -21991844.30448 -17127717.88347  21084744.5444   21084759.3464
     -1206.5774       -940.1924
 00  9 18  1 44  0.0010000  0 10G 1G31G10G19G27G 8G 2G28G 3G13
  23447833.7534   -6274409.92847  -4691144.60545  23447832.7804   23447855.4204
     -3361.9914      -2619.7274
  22270330.9964   -6600677.64748  -4957532.10047  22270330.3324   22270346.8544
      -320.3744       -249.6464
  23971006.5304   -7173960.70347  -5570935.51645  23971006.0464   23971030.9174
       131.9014        102.7734
  21666935.2774  -17859613.84249 -13447925.61647  21666935.0674   21666950.7414
     -1421.3954      -1107.5844
  21176984.8434  -23048544.16449 -17748960.92147  21176984.2404   21177000.0604
       119.8834         93.4114
  21406579.4354  -17402344.59348 -13531213.45547  21406578.6524   21406596.4364
      1191.7884        928.6604
  23436121.4104   -6879244.76448  -5149308.02746  23436120.3504   23436144.1154
      2006.4964       1563.4894
  24746443.3924    2433587.27847   2328758.12845  24746442.4324   24746458.1914
     -3420.6154      -2665.4234
  24635829.4574   -2104222.69847  -1476331.64146  24635829.2344   24635845.1824
     -2450.5234      -1909.5114
  21091676.8434  -21955416.01048 -17099332.14047  21091676.9684   21091691.5304
     -1223.1204       -953.0814
 00  9 18  1 44 30.0010000  0 10G 1G31G10G19G27G 8G 2G28G 3G13
  23467060.1234   -6173377.39847  -4612418.09445  23467059.5594   23467080.9774
     -3373.1404      -2628.4194
  22272227.3344   -6590712.80848  -4949767.15247  22272226.5164   22272242.8044
      -343.5434       -267.7004
  23970313.8694   -7177602.04347  -5573772.68045  23970312.7664   23970337.7394
       111.2554         86.6784
  21675077.8754  -17816825.22949 -13414583.77147  21675077.3754   21675093.0304
     -1430.7894      -1114.9024
  21176326.8014  -23052000.50049 -17751654.03547  21176326.4354   21176342.0864
       110.9824         86.4764
  21399800.3544  -17437967.77448 -13558971.55847  21399799.5904   21399817.1184
      1183.4194        922.1384
  23424699.1384   -6939268.88348  -5196079.68646  23424698.5114   23424721.4114
      1995.5754       1554.9804
  24765981.9244    2536263.19647   2408765.48145  24765981.4164   24765997.0034
     -3423.9574      -2668.0214
  24649867.6134   -2030450.84047  -1418846.75645  24649867.2284   24649884.2564
     -2467.1614      -1922.4744
  21098716.3734  -21918423.59848 -17070506.82647  21098716.4794   21098730.7764
     -1242.6124       -968.2704
 00  9 18  1 45  0.0010000  0 10G 1G31G10G19G27G 8G 2G28G 3G13
  23486352.7614   -6071991.42747  -4533416.17545  23486352.3014   23486374.9804
     -3385.4664      -2638.0164
  22274259.5324   -6580032.72848  -4941444.85747  22274258.6924   22274274.9804
      -367.9434       -286.7134
  23969741.8994   -7180603.72647  -5576111.44245  23969740.2874   23969765.8434
        89.3684         69.6294
  21683277.4094  -17773734.86049 -13381006.79347  21683277.0994   21683292.7464
     -1441.4124      -1123.1824
  21175723.9994  -23055169.65749 -17754123.36447  21175723.4244   21175738.9284
       100.8304         78.5644
  21393072.7024  -17473319.25448 -13586517.92947  21393072.1354   21393090.0624
      1173.7974        914.6384
  23413342.5854   -6998944.77948  -5242579.99246  23413341.7864   23413364.6134
      1983.4044       1545.4964
  24785543.8014    2639062.44647   2488869.00945  24785543.1874   24785558.5914
     -3428.8444      -2671.8394
  24664004.9414   -1956159.10047  -1360956.86746  24664004.7584   24664020.0104
     -2485.0804      -1936.4364
  21105871.2054  -21880825.86248 -17041209.83447  21105871.2304   21105885.2274
     -1263.3484       -984.4294
 00  9 18  1 45 30.0010000  0 10G 1G31G10G19G27G 8G 2G28G 3G13
  23505721.2044   -5970209.89247  -4454106.02145  23505720.0284   23505743.1664
     -3397.4344      -2647.3524
  22276436.1844   -6568592.99848  -4932530.61147  22276435.5744   22276451.8114
      -392.2304       -305.6404
  23969301.5784   -7182921.99147  -5577917.65645  23969299.9444   23969324.5944
        67.6374         52.7004
  21691542.9394  -17730298.43549 -13347160.14547  21691542.6004   21691558.6204
     -1451.8734      -1131.3334
  21175183.8154  -23058006.87849 -17756334.06247  21175183.2074   21175198.7194
        90.8194         70.7624
  21386405.7154  -17508354.48748 -13613817.89347  21386404.9874   21386423.0164
      1164.2924        907.2324
  23402061.5864   -7058227.88448  -5288774.22646  23402060.8964   23402083.4554
      1971.3654       1536.1144
  24805137.6194    2742027.71847   2569102.10745  24805137.0514   24805150.8534
     -3433.1484      -2675.1974
  24678247.9574   -1881305.40247  -1302629.02445  24678247.6654   24678265.7144
     -2502.7914      -1950.2344
  21113149.2694  -21842578.44648 -17011406.59647  21113149.3184   21113163.4074
     -1283.9704      -1000.4994
 00  9 18  1 46  0.0010000  0 10G 1G31G10G19G27G 8G 2G28G 3G13
  23525128.9824   -5868219.91547  -4374633.43445  23525129.0294   23525151.2444
     -3403.9784      -2652.4494
  22278722.4244   -6556579.17248  -4923169.02547  22278721.5914   22278737.7714
      -410.8514       -320.1514
  23968954.5254   -7184742.55447  -5579336.07745  23968953.2264   23968977.7704
        51.5404         40.1544
  21699839.3084  -17686701.18349 -13313188.16047  21699838.7264   21699854.7484
     -1456.7524      -1135.1364
  21174671.6844  -23060696.94549 -17758430.08047  21174671.1474   21174686.6094
        86.3854         67.3084
  21379763.2704  -17543258.59948 -13641015.68047  21379762.4944   21379780.6764
      1160.3914        904.1934
  23390819.3714   -7117303.44648  -5334806.73246  23390818.6494   23390842.0004
      1964.9014       1531.0774
  24824726.6334    2844971.47547   2649318.41745  24824725.7414   24824740.3174
     -3431.9114      -2674.2234
  24692563.2984   -1806077.11147  -1244009.27745  24692562.8724   24692579.6744
     -2514.6534      -1959.4754
  21120516.1634  -21803867.28948 -16981241.99947  21120515.8234   21120529.9344
     -1298.9134      -1012.1424
 00  9 18  1 46 30.0010000  0 10G 1G31G10G19G27G 8G 2G28G 3G13
  23544588.3154   -5765957.79447  -4294948.78645  23544588.3314   23544611.9374
     -3413.4204      -2659.7954
  22281129.8564   -6543925.80148  -4913309.09647  22281129.3964   22281145.5844
      -432.5974       -337.0944
  23968714.8994   -7186000.29847  -5580315.94145  23968713.9694   23968738.3354
        32.3894         25.2314
  21708178.1914  -17642877.54049 -13279039.76647  21708177.8174   21708194.1064
     -1464.7344      -1141.3534
  21174200.3034  -23063173.82149 -17760359.99047  21174199.8294   21174215.3184
        78.8654         61.4494
  21373158.7124  -17577965.79748 -13668060.02347  21373157.9314   21373175.9814
      1153.4404        898.7784
  23379629.1024   -7176105.84548  -5380626.36846  23379628.1504   23379651.6114
      1955.3684       1523.6504
  24844323.7504    2947957.26147   2729567.50545  24844322.6074   24844338.2354
     -3433.6444      -2675.5824
  24706962.6054   -1730411.16747  -1185048.56845  24706962.1874   24706977.8224
     -2529.6024      -1971.1324
  21127982.9404  -21764627.03648 -16950665.12147  21127982.9194   21127996.9794
     -1316.9874      -1026.2264
 00  9 18  1 47  0.0010000  0 10G 1G31G10G19G27G 8G 2G28G 3G13
  23564097.0784   -5663444.98147  -4215068.81745  23564096.3844   23564118.7504
     -3418.4994      -2663.7614
  22283655.8134   -6530652.20048  -4902965.89647  22283654.9554   22283671.3764
      -450.0054       -350.6594
  23968578.0854   -7186715.26647  -5580872.85745  23968577.8774   23968601.7914
        17.5774         13.6864
  21716556.8264  -17598846.93549 -13244730.10347  21716556.3484   21716572.7194
     -1468.3624      -1144.1824
  21173765.8764  -23065456.36649 -17762138.47247  21173765.4374   21173780.9994
        75.5994         58.9044
  21366587.6104  -17612495.32348 -13694965.96147  21366586.9984   21366604.8164
      1150.7294        896.6644
  23368487.3874   -7234654.22848  -5426248.07746  23368486.7454   23368509.3774
      1950.1434       1519.5794
  24863924.6104    3050963.99447   2809832.88145  24863923.7884   24863939.0014
     -3431.2004      -2673.6874
  24721440.4974   -1654328.72848  -1125763.21146  24721440.1884   24721455.5494
     -2540.2244      -1979.4094
  21135546.6554  -21724877.38948 -16919691.30947  21135546.7654   21135561.0214
     -1330.7034      -1036.9134
 00  9 18  1 47 30.0010000  0 10G 1G31G10G19G27G 8G 2G28G 3G13
  23583642.0554   -5560736.82947  -4135036.59645  23583641.5054   23583663.5054
     -3430.0574      -2672.7674
  22286289.1194   -6516811.87648  -4892181.10747  22286288.7004   22286304.6374
      -474.0854       -369.4224
  23968535.3984   -7186941.51647  -5581048.95445  23968534.4564   23968558.4784
        -3.8854         -3.0354
  21724964.8264  -17554662.71549 -13210300.76847  21724964.5184   21724980.5714
     -1478.6914      -1152.2304
  21173358.0544  -23067597.69749 -17763806.93147  21173357.6444   21173373.2904
        65.7424         51.2244
  21360040.6224  -17646900.25248 -13721774.79547  21360039.7964   21360057.7534
      1141.4044        889.3984
  23357384.0664   -7293001.89348  -5471713.37746  23357383.1934   23357405.8774
      1938.2844       1510.3344
  24883520.2534    3153935.95447   2890071.12645  24883519.4634   24883533.8594
     -3435.0704      -2676.6934
  24735986.6764   -1577886.11247  -1066197.22845  24735986.4564   24736000.9074
     -2557.3484      -1992.7544
  21143197.2764  -21684673.28648 -16888363.38247  21143197.2164   21143211.8284
     -1351.0154      -1052.7424
 00  9 18  1 48  0.0010000  0 10G 1G31G10G19G27G 8G 2G28G 3G13
  23603250.9184   -5457688.71647  -4054739.49345  23603250.3064   23603273.9824
     -3439.3644      -2680.0244
  22289058.8674   -6502258.52948  -4880840.72847  22289058.1454   22289073.9594
      -495.8414       -386.3724
  23968613.0534   -7186533.37347  -5580730.73745  23968611.8884   23968636.1574
       -23.0134        -17.9434
  21733430.1994  -17510178.32249 -13175637.53147  21733429.7354   21733445.4994
     -1486.6394      -1158.4224
  21173005.8464  -23069450.74949 -17765250.75147  21173005.3094   21173020.7204
        58.1484         45.3044
  21353544.9034  -17681034.00048 -13748372.31247  21353544.1434   21353561.7854
      1134.4024        883.9424
  23346346.6694   -7351002.39148  -5516908.16246  23346345.8444   23346368.3964
      1928.7504       1502.9094
  24903135.4514    3257017.92247   2970395.08346  24903134.8374   24903149.2144
     -3436.6774      -2677.9444
  24750628.3514   -1500939.25347  -1006238.32445  24750627.8504   24750644.2804
     -2572.0724      -2004.2204
  21150962.3004  -21643868.24448 -16856567.18947  21150962.0704   21150976.6534
     -1368.9944      -1066.7504
 00  9 18  1 48 30.0010000  0 10G 1G31G10G19G27G 8G 2G28G 3G13
  23622903.5414   -5354413.11847  -3974265.13445  23622903.1864   23622925.5204
     -3448.3654      -2687.0274
  22291942.7014   -6487102.46548  -4869030.71547  22291942.1494   22291958.2314
      -517.3554       -403.1374
  23968790.9524   -7185601.62047  -5580004.52445  23968789.9014   23968813.7754
       -41.9154        -32.6674
  21741931.3914  -17465503.91049 -13140826.23747  21741930.8514   21741946.4154
     -1494.4354      -1164.4974
  21172686.7514  -23071125.40549 -17766555.55647  21172686.2724   21172701.6654
        50.7304         39.5264
  21347080.1414  -17715006.57048 -13774844.22347  21347079.3444   21347096.7224
      1127.5564        878.6074
  23335354.2124   -7408765.72248  -5561918.14746  23335353.4944   23335376.2694
      1919.4074       1495.6254
  24922750.0604    3360097.49747   3050717.19845  24922749.6154   24922763.0174
     -3438.1364      -2679.0784
  24765345.2484   -1423600.48747   -945974.13045  24765344.5154   24765361.8834
     -2586.5594      -2015.5104
  21158820.3924  -21602572.84549 -16824388.89947  21158820.4504   21158834.8814
     -1386.7914      -1080.6174
 00  9 18  1 49  0.0010000  0 10G 1G31G10G19G27G 8G 2G28G 3G13
  23642603.9894   -5250889.77947  -3893597.72345  23642603.5794   23642626.9494
     -3453.5314      -2691.0604
  22294945.5544   -6471321.89148  -4856734.07947  22294944.8484   22294960.6994
      -535.1284       -416.9854
  23969070.9394   -7184124.45247  -5578853.31045  23969070.1794   23969094.1804
       -57.0124        -44.4224
  21750473.0134  -17420617.37649 -13105849.62647  21750472.5244   21750488.1854
     -1498.4754      -1167.6444
  21172406.2204  -23072599.07249 -17767703.72847  21172405.7734   21172421.2214
        47.0694         36.6734
  21340649.8624  -17748795.54549 -13801173.09747  21340649.3034   21340666.8174
      1124.5004        876.2264
  23324411.3534   -7466269.77148  -5606726.09146  23324410.5734   23324433.0204
      1913.7974       1491.2584
  24942367.6124    3463195.10547   3131053.34645  24942367.0944   24942382.6864
     -3435.5874      -2677.0894
  24780140.2204   -1345849.82247   -885389.00445  24780139.8924   24780156.6004
     -2597.2384      -2023.8354
  21166776.0024  -21560765.45849 -16791811.65647  21166776.1234   21166790.4764
     -1400.7954      -1091.5304
 00  9 18  1 49 30.0010000  0 10G 1G31G10G19G27G 8G 2G28G 3G13
  23662342.3584   -5147167.98947  -3812775.64645  23662341.4794   23662363.6014
     -3461.0504      -2696.9194
  22298058.0084   -6454964.06148  -4843987.61247  22298057.4264   22298073.2714
      -555.2434       -432.6614
  23969446.8034   -7182150.18147  -5577314.74945  23969445.9324   23969470.3074
       -74.4754        -58.0384
  21759046.1894  -17375565.90249 -13070744.51047  21759045.4664   21759061.0484
     -1504.8774      -1172.6354
  21172154.8764  -23073918.46649 -17768731.68847  21172154.6584   21172169.8634
        41.0244         31.9624
  21334246.2034  -17782447.98549 -13827395.56347  21334245.5254   21334262.7074
      1119.0364        871.9714
  23313508.6454   -7523561.84348  -5651368.85246  23313507.8584   23313530.2624
      1905.8354       1485.0534
  24961980.7534    3566261.97847   3211365.33445  24961980.2234   24961995.8674
     -3435.2844      -2676.8674
  24795004.9994   -1267737.22047   -824521.83745  24795004.5034   24795019.9944
     -2610.1334      -2033.8744
  21174819.8994  -21518494.54749 -16758873.22647  21174819.9834   21174834.0894
     -1417.0984      -1104.2344
 00  9 18  1 50  0.0010000  0 10G 1G31G10G19G27G 8G 2G28G 3G13
  23682121.1054   -5043225.60347  -3731781.66245  23682119.9524   23682143.9334
     -3468.5224      -2702.7414
  22301285.3464   -6438005.23548  -4830772.83247  22301284.7244   22301300.5374
      -575.4844       -448.4314
  23969921.8484   -7179655.25247  -5575370.48145  23969920.8694   23969943.9864
       -92.0224        -71.7144
  21767654.9294  -17330325.48049 -13035492.16147  21767654.3184   21767669.8714
     -1511.3594      -1177.6844
  21171938.1044  -23075059.06249 -17769620.31547  21171937.5544   21171952.7414
        34.8644         27.1624
  21327872.8934  -17815939.64448 -13853492.79247  21327872.0384   21327888.9814
      1113.4654        867.6304
  23302650.6514   -7580617.90348  -5695827.70646  23302650.0604   23302672.3134
      1897.7614       1478.7634
  24981593.4994    3669319.54347   3291670.28846  24981592.6464   24981606.7794
     -3435.3304      -2676.8854
  24809942.3624   -1189240.73748   -763355.44946  24809941.9154   24809957.6964
     -2623.1064      -2043.9924
  21182956.6544  -21475736.30649 -16725555.06547  21182956.6834   21182970.9124
     -1433.5844      -1117.0804
 00  9 18  1 50 30.0010000  0 10G 1G31G10G19G27G 8G 2G28G 3G13
  23701957.6544   -4938978.69847  -3650550.42245  23701957.2064   23701980.4704
     -3480.3104      -2711.9244
  22304642.9384   -6420359.85048  -4817023.06447  22304642.2024   22304658.1234
      -600.0034       -467.5384
  23970511.5564   -7176554.39147  -5572954.07145  23970510.2844   23970533.8364
      -113.8664        -88.7274
  21776315.9284  -17284810.10649 -13000025.56647  21776315.5724   21776331.0964
     -1522.1494      -1186.0924
  21171771.2384  -23075934.43249 -17770302.27147  21171770.7574   21171786.0364
        24.3814         18.9934
  21321546.7214  -17849184.16948 -13879397.44547  21321545.8554   21321562.3294
      1103.5884        859.9324
  23291854.5944   -7637351.84548  -5740035.56646  23291853.7904   23291876.0454
      1885.3814       1469.1144
  25001218.2994    3772452.30048   3372033.71746  25001217.8774   25001231.7814
     -3439.3414      -2680.0204
  24824968.5484   -1110277.06048   -701824.97646  24824968.2654   24824983.5274
     -2640.2954      -2057.3834
  21191202.2494  -21432405.17849 -16691790.49847  21191202.3134   21191216.3714
     -1454.3124      -1133.2324
 00  9 18  1 51  0.0010000  0 10G 1G31G10G19G27G 8G 2G28G 3G13
  23721859.2234   -4834398.83547  -3569059.72545  23721859.0894   23721882.2774
     -3491.1674      -2720.3904
  22308137.0034   -6401997.57348  -4802714.67047  22308136.4044   22308152.0314
      -623.6684       -485.9804
  23971222.6914   -7172817.60447  -5570042.12445  23971222.0824   23971244.9494
      -134.7394       -104.9984
  21785035.4714  -17238989.15649 -12964320.86847  21785035.0754   21785050.5344
     -1532.0974      -1193.8434
  21171661.2094  -23076513.46449 -17770753.33247  21171660.5164   21171675.7794
        14.7154         11.4634
  21315273.4654  -17882150.75048 -13905085.49147  21315272.4524   21315288.6804
      1094.5534        852.8924
  23281125.3484   -7693732.99248  -5783968.53246  23281124.5984   23281146.5924
      1873.8504       1460.1284
  25020862.9554    3875689.74347   3452479.08645  25020861.4214   25020876.5314
     -3442.4954      -2682.4824
  24840088.7544   -1030817.88647   -639908.40146  24840088.6664   24840103.5904
     -2656.5064      -2070.0134
  21199562.2234  -21388470.69849 -16657555.78347  21199562.4294   21199576.8564
     -1474.1614      -1148.6994
 00  9 18  1 51 30.0010000  0 10G 1G31G10G19G27G 8G 2G28G 3G13
  23741821.0564   -4729501.08847  -3487321.31945  23741820.2344   23741842.7514
     -3501.1034      -2728.1304
  22311765.3364   -6382931.62348  -4787857.94447  22311764.5034   22311780.1794
      -646.4784       -503.7564
  23972052.5994   -7168458.79147  -5566645.48845  23972051.4594   23972074.4524
      -154.8894       -120.6994
  21793810.4094  -17192875.59449 -12928388.17047  21793809.8684   21793825.8564
     -1541.2464      -1200.9724
  21171604.3814  -23076808.84849 -17770983.37447  21171603.9464   21171619.2024
         5.8834          4.5804
  21309049.9864  -17914852.12948 -13930566.90247  21309049.2744   21309065.9534
      1086.3284        846.4834
  23270460.6294   -7749774.51548  -5827636.86646  23270459.8004   23270481.7104
      1863.1474       1451.7874
  25040523.2354    3979015.72047   3532993.00345  25040524.2314   25040537.1304
     -3444.8544      -2684.3084
  24855300.5064    -950878.54547   -577617.72745  24855299.2824   24855314.7044
     -2671.8244      -2081.9504
  21208034.7404  -21343947.28849 -16622862.16847  21208034.7764   21208049.1814
     -1493.1514      -1163.4964
 00  9 18  1 52  0.0010000  0 10G 1G31G10G19G27G 8G 2G28G 3G13
  23761831.1544   -4624349.51947  -3405385.14245  23761830.0654   23761853.1554
     -3508.2094      -2733.6694
  22315515.0324   -6363224.26148  -4772501.40947  22315514.4264   22315530.1584
      -666.5374       -519.3834
  23972987.9334   -7163541.20547  -5562813.44345  23972987.3324   23973010.0114
      -172.1924       -134.1824
  21802629.2104  -17146531.55949 -12892275.87747  21802628.7944   21802644.8324
     -1547.6164      -1205.9374
  21171590.7294  -23076882.18849 -17771040.39947  21171590.0734   21171605.2204
        -0.2394         -0.1904
  21302865.6054  -17947350.13848 -13955889.81047  21302864.8074   21302881.4684
      1080.8574        842.2194
  23259848.8334   -7805538.46548  -5871088.91246  23259847.8984   23259869.7624
      1855.2044       1445.6014
  25060191.8024    4082366.61647   3613526.38445  25060191.1604   25060204.3974
     -3444.3774      -2683.9364
  24870590.0224    -870523.53247   -515003.19745  24870590.2074   24870603.6164
     -2684.3284      -2091.7014
  21216607.3864  -21298897.88049 -16587758.68347  21216607.3234   21216621.7724
     -1509.3494      -1176.1184
 00  9 18  1 52 30.0010000  0 10G 1G31G10G19G27G 8G 2G28G 3G13
  23781886.9254   -4518950.16647  -3323255.86845  23781886.4234   23781909.8354
     -3518.2704      -2741.5034
  22319386.5094   -6342879.96948  -4756648.55347  22319385.7884   22319401.4584
      -689.6204       -537.3714
  23974029.1934   -7158069.15547  -5558549.34545  23974028.0404   23974051.0794
      -192.4994       -150.0054
  21811491.1494  -17099960.82549 -12855986.92947  21811490.9094   21811506.8954
     -1557.0274      -1213.2704
  21171618.2994  -23076736.90849 -17770927.07147  21171617.8274   21171632.7734
        -9.3614         -7.2984
  21296719.2044  -17979648.53048 -13981057.20547  21296718.4824   21296735.1094
      1072.3794        835.6144
  23249289.0144   -7861028.66048  -5914327.65046  23249288.1394   23249309.8264
      1844.2724       1437.0804
  25079862.4634    4185736.99747   3694074.95345  25079862.1794   25079876.1014
     -3446.8544      -2685.8644
  24885958.7184    -789759.44946   -452069.83745  24885958.2614   24885975.8324
     -2699.7994      -2103.7434
  21225279.0314  -21253326.96949 -16552248.83347  21225279.1384   21225293.5114
     -1528.5834      -1191.1064
 00  9 18  1 53  0.0010000  0 10G 1G31G10G19G27G 8G 2G28G 3G13
  23801981.2664   -4413356.87647  -3240975.51745  23801980.9854   23802004.3814
     -3524.7464      -2746.5534
  22323368.9674   -6321951.07248  -4740340.16547  22323368.4124   22323383.9734
      -709.1754       -552.6094
  23975165.7894   -7152095.44247  -5553894.35345  23975164.6824   23975187.8414
      -209.2864       -163.0864
  21820386.8704  -17053215.32349 -12819561.78047  21820386.3944   21820402.2124
     -1562.9234      -1217.8654
  21171677.4954  -23076424.16149 -17770683.27047  21171676.9874   21171692.0304
       -15.0124        -11.7014
  21290600.9384  -18011798.80448 -14006109.20247  21290600.2584   21290616.9354
      1067.3374        831.6854
  23238771.5994   -7916297.06748  -5957393.57046  23238770.7784   23238792.6024
      1836.7904       1431.2514
  25099526.7794    4289073.31447   3774596.99445  25099525.6074   25099540.6114
     -3445.7464      -2685.0034
  24901395.8474    -708640.62548   -388860.15846  24901395.6064   24901411.4624
     -2711.5814      -2112.9244
  21234040.2934  -21207286.88748 -16516373.39447  21234040.2184   21234054.5014
     -1544.2774      -1203.3344
 00  9 18  1 53 30.0010000  0 10G 1G31G10G19G27G 8G 2G28G 3G13
  23822117.0924   -4307540.82247  -3158521.57045  23822116.4204   23822141.2484
     -3530.3794      -2750.9394
  22327468.4274   -6300407.23948  -4723552.61447  22327467.8064   22327483.6864
      -727.8374       -567.1514
  23976404.1614   -7145589.88147  -5548824.93545  23976402.9504   23976425.5164
      -225.1744       -175.4674
  21829321.5804  -17006263.93349 -12782976.19247  21829321.0064   21829336.5844
     -1567.9504      -1221.7834
  21171774.7754  -23075912.52049 -17770284.48447  21171774.2694   21171789.1474
       -19.8464        -15.4684
  21284517.0304  -18043769.74748 -14031021.45047  21284516.3594   21284532.8984
      1063.1974        828.4584
  23228302.2504   -7971312.63248  -6000262.47046  23228301.5554   23228323.4144
      1830.1904       1426.1084
  25119188.3094    4392404.12047   3855114.56645  25119187.4984   25119203.2774
     -3443.7714      -2683.4514
  24916905.4404    -627138.52247   -325351.81246  24916905.0944   24916921.1264
     -2722.5954      -2121.5024
  21242896.3894  -21160746.96949 -16480108.47647  21242896.4174   21242910.8494
     -1559.1104      -1214.8934
 00  9 18  1 54  0.0010000  0 10G 1G31G10G19G27G 8G 2G28G 3G13
  23842278.2604   -4201601.72247  -3075971.75945  23842277.6134   23842300.3604
     -3534.1424      -2753.8794
  22331666.4974   -6278346.51248  -4706362.29547  22331665.8484   22331681.4114
      -744.8004       -580.3684
  23977723.7994   -7138651.32647  -5543418.11945  23977722.8224   23977745.9014
      -239.3674       -186.5294
  21838276.4534  -16959204.31849 -12746306.27047  21838275.8344   21838291.8244
     -1571.3254      -1224.4124
  21171891.3414  -23075299.17849 -17769806.44347  21171890.8754   21171905.8724
       -22.9984        -17.9244
  21278448.3254  -18075658.70949 -14055869.81647  21278447.8114   21278464.8284
      1060.6934        826.5084
  23217862.2444   -8026173.04848  -6043010.48446  23217861.4454   23217883.3884
      1825.2754       1422.2814
  25138831.8314    4495630.39147   3935550.70145  25138831.1364   25138845.8504
     -3440.0484      -2680.5594
  24932469.0304    -545352.94448   -261622.53046  24932468.6804   24932483.6064
     -2731.7174      -2128.6184
  21251828.7014  -21113806.71849 -16443531.61447  21251828.8004   21251843.1834
     -1572.1554      -1225.0574
 00  9 18  1 54 30.0010000  0 10G 1G31G10G19G27G 8G 2G28G 3G13
  23862478.6654   -4095452.73647  -2993258.36345  23862478.1324   23862499.8994
     -3542.4164      -2760.3244
  22335979.7884   -6255680.28548  -4688700.14647  22335979.0974   22335994.4914
      -766.2324       -597.0694
  23979143.4824   -7131191.66647  -5537605.25245  23979142.2484   23979165.5084
      -257.9714       -201.0244
  21847268.8134  -16911947.64849 -12709482.80647  21847268.3734   21847284.3844
     -1579.1394      -1230.5004
  21172044.3794  -23074494.80249 -17769179.53747  21172043.7774   21172058.8714
       -30.6064        -23.8554
  21272413.1784  -18107376.61349 -14080584.89847  21272412.2184   21272428.9534
      1053.7844        821.1244
  23207469.2244   -8080789.52148  -6085568.41346  23207468.1314   23207489.5274
      1815.8754       1414.9534
  25158472.7174    4598839.32447   4015973.58445  25158471.9754   25158486.0954
     -3440.5334      -2680.9364
  24948102.4214    -463197.53147   -197605.06645  24948101.9714   24948116.4734
     -2745.2884      -2139.2064
  21260854.3054  -21066377.48149 -16406573.71247  21260854.3684   21260868.6904
     -1589.7244      -1238.7484
 00  9 18  1 55  0.0010000  0 10G 1G31G10G19G27G 8G 2G28G 3G13
  23882724.8544   -3989053.07247  -2910349.61645  23882723.3474   23882746.2904
     -3551.9564      -2767.7494
  22340416.5544   -6232366.24048  -4670533.20347  22340415.6484   22340430.7504
      -789.0634       -614.8594
  23980670.2244   -7123168.77847  -5531353.51745  23980668.7704   23980692.0254
      -277.9744       -216.6084
  21856307.2664  -16864450.90749 -12672472.29647  21856306.7234   21856322.6604
     -1588.3764      -1237.6974
  21172241.8164  -23073455.78449 -17768369.79147  21172241.3004   21172256.5464
       -39.6764        -30.9194
  21266417.9814  -18138880.03949 -14105132.86547  21266417.2234   21266434.0614
      1045.3414        814.5464
  23197130.4084   -8135118.98848  -6127902.70546  23197129.8514   23197150.5784
      1805.0644       1406.5314
  25178117.5954    4702072.05947   4096414.89245  25178117.0834   25178128.8074
     -3442.6324      -2682.5794
  24963812.8804    -380631.97047   -133267.86146  24963812.1124   24963828.2494
     -2760.0654      -2150.7054
  21269981.0074  -21018416.70749 -16369201.62347  21269980.9684   21269995.4564
     -1608.6774      -1253.5174
 00  9 18  1 55 30.0010000  0 10G 1G31G10G19G27G 8G 2G28G 3G13
  23903028.6964   -3882346.21347  -2827201.53945  23903029.6944   23903052.9834
     -3562.0564      -2775.6104
  22344986.6554   -6208346.53448  -4651816.37647  22344986.1114   22345001.2124
      -812.5544       -633.1654
  23982315.0304   -7114525.16847  -5524618.11245  23982313.5934   23982337.2104
      -298.6004       -232.6804
  21865402.3824  -16816655.40049 -12635228.98647  21865401.8324   21865417.6004
     -1598.3244      -1245.4484
  21172495.5044  -23072123.13149 -17767331.25447  21172494.9124   21172510.2244
       -49.4414        -38.5294
  21260474.9304  -18170110.15049 -14129467.86947  21260474.2374   21260491.2044
      1036.2644        807.4734
  23186857.0474   -8189102.86948  -6169967.72946  23186856.2274   23186877.6084
      1793.5784       1397.5804
  25197776.9704    4805385.33447   4176919.02045  25197775.3894   25197787.7444
     -3445.3014      -2684.6604
  24979611.2264    -297600.35946    -68567.66644  24979610.5344   24979624.8444
     -2775.6454      -2162.8744
  21279219.7304  -20969866.96249 -16331370.60747  21279219.5974   21279234.2744
     -1628.2734      -1268.7844
 00  9 18  1 56  0.0010000  0  9G 1G31G10G19G27G 8G 2G 3G13
  23923376.0994   -3775427.33647  -2743888.23545  23923375.9354   23923399.3854
     -3567.0524      -2779.5284
  22349674.1194   -6183714.70948  -4632622.57747  22349673.3814   22349688.6874
      -830.8664       -647.4334
  23984059.4204   -7105354.84847  -5517472.28845  23984059.2074   23984080.6864
      -314.0814       -244.7434
  21874536.4114  -16768654.15149 -12597825.33347  21874535.9264   21874551.6424
     -1603.1194      -1249.1864
  21172787.4964  -23070589.38949 -17766136.01047  21172786.9034   21172802.1564
       -54.1004        -42.1614
  21254566.6284  -18201159.64649 -14153662.12147  21254565.7704   21254582.0434
      1032.2774        804.3664
  23176631.9704   -8242834.37548  -6211836.08646  23176631.0994   23176652.8454
      1787.2354       1392.6404
  24995483.0154    -214197.95146     -3578.48844  24995481.1734   24995496.7674
     -2785.9144      -2170.8634
  21288552.7264  -20920822.49349 -16293154.08947  21288552.5284   21288567.1244
     -1642.6814      -1280.0144
 00  9 18  1 56 30.0010000  0  9G 1G31G10G19G27G 8G 2G 3G13
  23943748.8124   -3668370.60647  -2660467.51645  23943747.5464   23943771.2814
     -3571.4244      -2782.9244
  22354463.6274   -6158543.63648  -4613008.58147  22354462.9604   22354478.3214
      -848.6284       -661.2744
  23985891.3834   -7095730.66347  -5509972.82145  23985890.0964   23985912.9904
      -328.9624       -256.3364
  21883696.1714  -16720519.13149 -12560317.44447  21883695.7294   21883711.2624
     -1607.3214      -1252.4604
  21173103.7714  -23068926.22649 -17764839.91247  21173103.1964   21173118.3964
       -58.1814        -45.3404
  21248678.7934  -18232100.42049 -14177771.65547  21248677.8384   21248693.9474
      1028.8994        801.7334
  23166441.6534   -8296385.79248  -6253564.13446  23166440.6014   23166461.6244
      1781.4564       1388.1384
  25011412.5174    -130499.65347     61641.30145  25011412.4944   25011426.0854
     -2795.4044      -2178.2444
  21297965.7614  -20871355.97049 -16254608.70047  21297965.7094   21297980.1464
     -1656.5194      -1290.7954
 00  9 18  1 57  0.0010000  0  9G 1G31G10G19G27G 8G 2G 3G13
  23964158.6384   -3561115.55447  -2576892.27545  23964158.0014   23964180.6204
     -3577.8524      -2787.9334
  22359368.0084   -6132771.10848  -4592925.89447  22359367.1274   22359382.7544
      -868.4914       -676.7514
  23987821.0684   -7085591.10547  -5502071.75645  23987819.7354   23987842.4234
      -345.9744       -269.5964
  21892893.8124  -16672187.80949 -12522656.58447  21892893.0714   21892908.2944
     -1613.7194      -1257.4474
  21173457.1714  -23067070.37949 -17763393.66847  21173456.4004   21173471.4674
       -64.4694        -50.2404
  21242823.3754  -18262869.52949 -14201747.41647  21242822.3894   21242838.8224
      1023.3134        797.3814
  23156296.6874   -8349694.55548  -6295103.10346  23156295.8874   23156316.6764
      1773.5244       1381.9564
  25027407.2864     -46445.31348    127138.48946  25027406.5174   25027420.6934
     -2807.1224      -2187.3794
  21307471.1154  -20821405.27749 -16215686.04147  21307471.1294   21307485.2704
     -1672.4694      -1303.2244
 00  9 18  1 57 30.0010000  0  9G 1G31G10G19G27G 8G 2G 3G13
  23984591.3334   -3453740.09347  -2493223.19745  23984591.1964   23984612.7444
     -3580.7774      -2790.2164
  22364372.5974   -6106473.59448  -4572434.14647  22364371.5654   22364386.8274
      -884.9114       -689.5474
  23989833.6714   -7075013.06547  -5493829.02045  23989832.7104   23989854.8394
      -359.4854       -280.1214
  21902113.9424  -16623735.91348 -12484901.77747  21902113.0994   21902128.3834
     -1616.6994      -1259.7674
  21173832.4214  -23065097.08249 -17761855.90847  21173831.8374   21173846.7464
       -67.3574        -52.4904
  21236986.6904  -18293542.39049 -14225648.17847  21236985.5804   21237001.4874
      1021.1684        795.7094
  23146184.2444   -8402836.68048  -6336512.23146  23146183.2234   23146203.8724
      1769.0184       1378.4454
  25043454.4754      37886.70647    192851.98546  25043453.8214   25043468.4974
     -2815.3004      -2193.7414
  21317053.9504  -20771047.47649 -16176446.16047  21317053.6984   21317067.6534
     -1684.9684      -1312.9644
 00  9 18  1 58  0.0010000  0  9G 1G31G10G19G27G 8G 2G 3G13
  24005053.1694   -3346213.62247  -2409436.45345  24005053.5444   24005077.1844
     -3587.2274      -2795.2304
  22369482.4624   -6079618.99448  -4551508.31547  22369481.6444   22369496.8964
      -904.9374       -705.1524
  23991936.0244   -7063965.06847  -5485220.09345  23991934.4544   23991957.5264
      -376.5164       -293.3914
  21911362.9724  -16575130.65149 -12447027.45147  21911362.3514   21911377.6284
     -1623.2264      -1264.8564
  21174236.6334  -23062973.16349 -17760200.78647  21174235.9884   21174251.0424
       -73.8154        -57.5234
  21231173.7554  -18324086.00449 -14249448.21947  21231173.0104   21231189.0964
      1015.4054        791.2184
  23136109.2604   -8455779.48148  -6377766.04546  23136108.4884   23136129.4264
      1760.9484       1372.1584
  25059559.8084     122526.93147    258805.70245  25059559.1484   25059574.4164
     -2826.9414      -2202.8264
  21326720.0444  -20720250.89549 -16136864.37747  21326719.9004   21326733.9564
     -1701.0304      -1325.4804
 00  9 18  1 58 30.0010000  0  9G 1G31G10G19G27G 8G 2G 3G13
  24025544.5054   -3238539.63447  -2325534.77945  24025543.6264   24025565.5764
     -3590.6854      -2797.9374
  22374698.1954   -6052209.35248  -4530149.99447  22374697.3924   22374712.5014
      -921.9694       -718.4214
  23994127.8234   -7052449.71247  -5476246.97445  23994126.4504   23994149.1324
      -390.6954       -304.4464
  21920641.3424  -16526373.50548 -12409034.75047  21920640.5324   21920656.0754
     -1626.8484      -1267.6774
  21174669.5664  -23060699.29949 -17758428.82047  21174668.8034   21174683.3654
       -77.3784        -60.2994
  21225386.2364  -18354501.24149 -14273148.21947  21225385.2084   21225401.0074
      1012.5754        789.0144
  23126072.1424   -8508524.15348  -6418865.47646  23126071.0454   23126091.8584
      1755.8044       1368.1494
  25075722.1474     207471.53247    324996.61045  25075721.7924   25075739.0874
     -2835.6444      -2209.6024
  21336469.6544  -20669017.27449 -16096942.04147  21336469.3344   21336483.5104
     -1714.1154      -1335.6764
 00  9 18  1 59  0.0010000  0  9G 1G31G10G19G27G 8G 2G 3G13
  24046068.7574   -3130685.45547  -2241492.62345  24046067.5044   24046090.8764
     -3599.0964      -2804.4934
  22380026.2984   -6024210.94548  -4508332.88147  22380025.4224   22380040.3294
      -944.0494       -735.6304
  23996413.9604   -7040432.96747  -5466883.15245  23996412.6424   23996435.0574
      -409.8914       -319.3994
  21929954.9744  -16477429.50849 -12370896.45247  21929954.3204   21929969.8814
     -1635.5814      -1274.4814
  21175137.4904  -23058240.17249 -17756512.48447  21175136.5774   21175151.2794
       -86.0314        -67.0404
  21219629.6454  -18384753.15949 -14296720.95147  21219628.3994   21219644.3514
      1004.6254        782.8194
  23116079.5884   -8561036.13548  -6459783.59646  23116078.4284   23116098.6414
      1745.5814       1360.1854
  25091952.4044     292753.00347    391449.99345  25091951.6644   25091965.8514
     -2849.3194      -2220.2614
  21346308.5924  -20617313.28149 -16056653.17847  21346308.3654   21346322.1884
     -1732.2924      -1349.8394
 00  9 18  1 59 30.0010000  0  9G 1G31G10G19G27G 8G 2G 3G13
  24066629.7334   -3022631.23847  -2157294.63145  24066629.1364   24066653.1774
     -3604.7184      -2808.8664
  22385470.2024   -5995602.33948  -4486040.29647  22385469.2534   22385484.1264
      -963.4234       -750.7254
  23998800.4094   -7027893.96747  -5457112.39545  23998798.8694   23998821.6584
      -426.2784       -332.1744
  21939308.5224  -16428276.52749 -12332595.32847  21939307.6434   21939323.1014
     -1641.5784      -1279.1544
  21175645.0954  -23055573.33549 -17754434.29247  21175644.0654   21175658.6314
       -91.9994        -71.6914
  21213908.0914  -18414819.19849 -14320148.85747  21213906.8264   21213922.9454
       999.3904        778.7414
  23106135.2764   -8613293.57148  -6500503.37546  23106134.0274   23106154.1264
      1738.0234       1354.2954
  25108248.7454     378390.25647    458180.79345  25108248.1784   25108260.2334
     -2860.1054      -2228.6614
  21356241.4024  -20565117.24949 -16015980.90847  21356241.1274   21356254.7754
     -1747.6694      -1361.8214
 00  9 18  2  0  0.0010000  0  9G 1G31G10G19G27G 8G 2G 3G13
  24087223.8834   -2914408.21147  -2072965.16345  24087221.5134   24087246.6654
     -3612.0314      -2814.5684
  22391024.8944   -5966413.14048  -4463295.30547  22391023.5694   22391038.4344
      -984.3724       -767.0484
  24001280.8594   -7014862.96147  -5446958.24245  24001278.5914   24001301.3344
      -444.3344       -346.2384
  21948696.2174  -16378943.75348 -12294154.10047  21948695.4214   21948710.6564
     -1649.1774      -1285.0734
  21176186.5304  -23052727.09949 -17752216.30347  21176185.6874   21176200.2074
       -99.6194        -77.6294
  21208216.6084  -18444728.06249 -14343454.27747  21208215.4144   21208230.9824
       992.5314        773.3954
  23096233.7114   -8665325.48748  -6541047.42446  23096232.5854   23096252.5954
      1728.9084       1347.1924
  25124606.7714     464351.83947    525164.40545  25124605.8064   25124617.2284
     -2872.5154      -2238.3464
  21366261.9954  -20512459.96949 -15974949.22747  21366261.5814   21366275.2654
     -1764.6724      -1375.0694
 00  9 18  2  0 30.0010000  0  9G 1G31G10G19G27G 8G 2G 3G13
  24107859.2704   -2805973.34847  -1988470.61845  24107858.2584   24107880.2894
     -3619.8914      -2820.6974
  22396698.1274   -5936599.47248  -4440063.72847  22396696.9204   22396711.8344
     -1006.0634       -783.9484
  24003862.2094   -7001296.00847  -5436386.46845  24003860.5974   24003883.1334
      -463.0164       -360.7954
  21958126.7974  -16329386.19348 -12255537.73747  21958125.9034   21958140.9734
     -1657.5754      -1291.6204
  21176771.0704  -23049655.86049 -17749822.98547  21176770.0694   21176784.3304
      -108.0054        -84.1654
  21202563.2024  -18474434.37149 -14366601.86247  21202562.2804   21202578.0054
       984.8884        767.4374
  23086383.7504   -8717087.16348  -6581380.90746  23086382.6034   23086402.1694
      1719.0084       1339.4784
  25141034.7284     550679.87147    592433.40045  25141033.4844   25141047.9884
     -2885.5564      -2248.4944
  21376378.9894  -20459296.88149 -15933523.41247  21376378.4404   21376392.0234
     -1782.4024      -1388.8864
 00  9 18  2  1  0.0010000  0  8G 1G31G10G19G27G 8G 2G13
  24128543.4944   -2697278.80347  -1903773.67845  24128542.2814   24128562.8074
     -3626.3454      -2825.7124
  22402499.8084   -5906111.88648  -4416307.02847  22402498.5814   22402513.3544
     -1026.3554       -799.7624
  24006554.1334   -6987144.69347  -5425359.35545  24006553.0524   24006576.0194
      -480.4004       -374.3384
  21967609.6104  -16279553.49848 -12216706.95947  21967608.7794   21967623.6934
     -1664.6204      -1297.1104
  21177407.8774  -23046309.27249 -17747215.10847  21177406.7304   21177420.9224
      -115.0944        -89.6884
  21196958.5104  -18503887.65949 -14389552.27947  21196957.5264   21196972.9284
       978.5494        762.4994
  23076594.3534   -8768528.45448  -6621464.74246  23076593.2744   23076612.9504
      1710.4564       1332.8154
  21386601.0854  -20405579.14149 -15891665.39947  21386600.6894   21386614.1994
     -1798.7734      -1401.6424
 00  9 18  2  1 30.0010000  0  8G 1G31G10G19G27G 8G 2G13
  24149250.6824   -2588456.42747  -1818977.10145  24149250.0364   24149272.5514
     -3630.2004      -2828.7264
  22408404.7284   -5875081.08548  -4392127.04447  22408403.5554   22408418.0364
     -1044.1014       -813.5904
  24009334.1644   -6972539.63247  -5413978.66845  24009332.8324   24009355.4634
      -495.0514       -385.7594
  21977120.0734  -16229575.44248 -12177762.91847  21977119.3524   21977134.0314
     -1669.0624      -1300.5724
  21178072.3294  -23042816.26049 -17744493.14447  21178071.5904   21178085.6074
      -119.5524        -93.1614
  21191377.5684  -18533217.36149 -14412406.39847  21191376.1884   21191391.7204
       974.8664        759.6304
  23066841.5344   -8819779.25848  -6661400.15146  23066840.5084   23066859.9664
      1704.4824       1328.1584
  21396904.2154  -20351437.18949 -15849476.82847  21396903.5774   21396916.9474
     -1812.4584      -1412.3064
 00  9 18  2  2  0.0010000  0  8G 1G31G10G19G27G 8G 2G13
  24170001.5444   -2479411.63247  -1734007.27345  24169999.8894   24170024.4824
     -3639.9334      -2836.3054
  22414431.2294   -5843411.19148  -4367449.04947  22414430.0354   22414444.6924
     -1067.7154       -831.9914
  24012218.0624   -6957385.25547  -5402169.95545  24012216.6274   24012238.3984
      -515.7184       -401.8554
  21986677.1844  -16179355.42648 -12138630.34247  21986675.9634   21986690.3364
     -1679.4984      -1308.7034
  21178783.6404  -23039079.44649 -17741581.20947  21178782.7824   21178796.5544
      -130.0784       -101.3634
  21185838.1814  -18562326.42149 -14435088.57747  21185836.9554   21185852.3644
       965.1214        752.0364
  23057143.2924   -8870743.07448  -6701111.92546  23057142.0734   23057161.5704
      1692.5654       1318.8744
  21407305.5744  -20296775.88049 -15806883.57147  21407305.2314   21407318.7364
     -1832.1244      -1427.6304
 00  9 18  2  2 30.0010000  0  8G 1G31G10G19G27G 8G 2G13
  24190794.6534   -2370146.03447  -1648865.39945  24190793.2754   24190817.5554
     -3644.5544      -2839.9034
  22420579.5994   -5811102.51348  -4342273.30247  22420578.1764   22420592.4084
     -1086.3884       -846.5424
  24015206.0074   -6941682.32947  -5389933.79645  24015204.4674   24015226.5054
      -531.3354       -414.0314
  21996279.4594  -16128892.83048 -12099308.76447  21996278.6344   21996292.8874
     -1684.9434      -1312.9464
  21179541.4324  -23035097.63749 -17738478.37847  21179540.4254   21179554.2674
      -135.6284       -105.6884
  21180341.2134  -18591213.70449 -14457597.93847  21180339.8704   21180354.9714
       960.3574        748.3254
  23047500.2484   -8921419.29648  -6740599.60747  23047498.8224   23047518.2154
      1685.6364       1313.4734
  21417806.6254  -20241595.51549 -15763885.84647  21417805.9704   21417818.9754
     -1846.7614      -1439.0354
 00  9 18  2  3  0.0010000  0  8G 1G31G10G19G27G 8G 2G13
  24211618.0754   -2260728.26947  -1563604.91445  24211615.4224   24211637.5544
     -3650.2714      -2844.3624
  22426836.5784   -5778222.32648  -4316652.21147  22426835.2214   22426849.2094
     -1105.9644       -861.7954
  24018285.8684   -6925498.81047  -5377323.14445  24018284.4214   24018305.9754
      -547.9184       -426.9574
  22005915.7634  -16078253.94948 -12059849.83347  22005914.8944   22005929.2984
     -1691.3574      -1317.9424
  21180333.4824  -23030936.80849 -17735236.04147  21180332.3944   21180345.8224
      -142.1444       -110.7664
  21174873.8014  -18619945.22549 -14479985.92247  21174872.4064   21174887.1384
       954.6084        743.8434
  23037899.2134   -8971874.66948  -6779915.19747  23037897.6934   23037916.2384
      1677.7374       1307.3194
  21428392.6224  -20185963.57148 -15720536.24047  21428392.2444   21428405.2314
     -1862.3604      -1451.1914
 00  9 18  2  3 30.0010000  0  8G 1G31G10G19G27G 8G 2G13
  24232469.5054   -2151149.99847  -1478219.29045  24232468.2924   24232488.9364
     -3654.6554      -2847.7774
  22433204.0904   -5744761.23348  -4290578.46647  22433202.7264   22433216.6374
     -1124.3984       -876.1604
  24021459.4564   -6908825.15447  -5364330.57445  24021457.5454   24021479.0424
      -563.3104       -438.9474
  22015588.3904  -16027428.21948 -12020245.31047  22015587.1134   22015601.0094
     -1696.6784      -1322.0884
  21181161.7654  -23026585.74149 -17731845.46247  21181160.6504   21181173.4704
      -147.6084       -115.0224
  21169438.4304  -18648510.05949 -14502244.03247  21169436.8204   21169451.4204
       949.9584        740.2194
  23028341.9344   -9022098.90248  -6819050.68547  23028340.3404   23028358.7284
      1670.9284       1302.0124
  21439067.4014  -20129870.49948 -15676827.31647  21439066.5904   21439079.3664
     -1876.8044      -1462.4474
 00  9 18  2  4  0.0010000  0  8G 1G31G10G19G27G 8G 2G13
  24253351.2134   -2041414.53446  -1392711.21545  24253349.0194   24253371.3084
     -3660.1534      -2852.0594
  22439681.6074   -5710721.82448  -4264054.11147  22439680.2104   22439693.5584
     -1143.9214       -891.3734
  24024724.5324   -6891663.93047  -5350958.07445  24024722.6764   24024744.3344
      -579.7864       -451.7844
  22025295.4154  -15976416.85548 -11980496.12547  22025294.3064   22025308.2484
     -1703.1604      -1327.1414
  21182026.1424  -23022045.27049 -17728307.29547  21182024.6434   21182037.4734
      -154.1784       -120.1434
  21164033.7924  -18676909.22849 -14524373.06147  21164032.4904   21164046.8654
       944.1694        735.7094
  23018828.0204   -9072093.62048  -6858007.32447  23018826.4694   23018844.7814
      1663.0294       1295.8564
  21449828.8244  -20073318.65048 -15632760.90347  21449828.1964   21449840.5944
     -1892.3554      -1474.5654
 00  9 18  2  4 30.0010000  0  8G 1G31G10G19G27G 8G 2G13
  24274261.5144   -1931525.51246  -1307083.53145  24274258.8094   24274285.3564
     -3667.4024      -2857.7094
  22446268.8814   -5676106.22948  -4237080.78047  22446267.4434   22446280.7074
     -1165.3544       -908.0714
  24028082.6274   -6874018.15247  -5337207.99545  24028081.3494   24028101.9514
      -598.1844       -466.1204
  22035038.0334  -15925221.03948 -11940603.19347  22035036.6814   22035050.3904
     -1711.5544      -1333.6814
  21182925.4764  -23017316.03649 -17724622.04947  21182924.5424   21182937.3364
      -162.7404       -126.8154
  21158661.4144  -18705143.49049 -14546373.58547  21158659.9094   21158673.6974
       936.4014        729.6574
  23009357.7244   -9121860.32448  -6896786.28847  23009355.8774   23009374.2474
      1653.1594       1288.1674
  21460677.7734  -20016310.78349 -15588339.14647  21460676.7494   21460688.9494
     -1909.7884      -1488.1474
 00  9 18  2  5  0.0010000  0  8G 1G31G10G19G27G 8G 2G13
  24295216.4594   -1821421.00247  -1221287.95545  24295214.5674   24295236.4484
     -3674.0024      -2862.8514
  22452977.7614   -5640851.06348  -4209609.08647  22452976.2074   22452989.2524
     -1186.1064       -924.2444
  24031544.9444   -6855824.86147  -5323031.29245  24031542.7994   24031564.0844
      -615.8494       -479.8834
  22044827.5524  -15873776.42448 -11900516.38347  22044826.2904   22044839.7774
     -1719.2444      -1339.6754
  21183874.1754  -23012333.16249 -17720739.18047  21183872.8194   21183885.3544
      -170.5854       -132.9274
  21153331.9454  -18733148.30649 -14568195.31147  21153330.6444   21153344.2174
       929.3214        724.1384
  22999942.9704   -9171334.68748  -6935337.45647  22999941.3494   22999959.3024
      1644.0234       1281.0484
  21471624.4034  -19958783.77348 -15543512.85947  21471623.6594   21471635.8364
     -1926.4754      -1501.1514
 00  9 18  2  5 30.0010000  0  8G 1G31G10G19G27G 8G 2G13
  24316201.3794   -1711146.59647  -1135359.92545  24316199.2614   24316219.5134
     -3679.2904      -2866.9804
  22459799.9674   -5605000.85248  -4181673.71747  22459798.5204   22459811.3444
     -1205.5714       -939.4114
  24035102.1734   -6837128.63047  -5308462.70745  24035100.4594   24035121.8034
      -632.2304       -492.6524
  22054656.1364  -15822126.39648 -11860269.50347  22054654.9864   22054668.3634
     -1725.7494      -1344.7444
  21184862.5814  -23007139.41649 -17716692.00047  21184861.2424   21184873.3884
      -177.3044       -138.1614
  21148038.4964  -18760966.30049 -14589871.45447  21148036.9294   21148050.6284
       923.4604        719.5724
  22990575.4744   -9220560.31248  -6973694.80647  22990573.8394   22990591.6124
      1636.0824       1274.8594
  21482662.2084  -19900781.77549 -15498316.45247  21482661.3684   21482673.3054
     -1941.9544      -1513.2134
 00  9 18  2  6  0.0010000  0  8G 1G31G10G19G27G 8G 2G13
  24337220.8764   -1600680.14146  -1049282.19944  24337218.1894   24337242.1264
     -3684.5704      -2871.0874
  22466739.8074   -5568532.39648  -4153256.59847  22466738.2234   22466750.9414
     -1225.0974       -954.6264
  24038759.6684   -6817906.90147  -5293484.63445  24038757.9514   24038779.9564
      -648.6354       -505.4354
  22064528.3154  -15770246.98048 -11819843.91147  22064527.1304   22064540.4914
     -1732.3424      -1349.8794
  21185895.5074  -23001710.08349 -17712461.25547  21185894.2204   21185906.4414
      -184.0874       -143.4474
  21142784.7374  -18788573.15149 -14611383.07347  21142783.1984   21142796.8094
       917.4394        714.8804
  22981260.0274   -9269513.34848  -7011839.75447  22981258.3844   22981275.7284
      1628.0404       1268.5964
  21493794.2444  -19842281.99149 -15452732.15647  21493793.3974   21493805.6894
     -1957.4584      -1525.2944
 00  9 18  2  6 30.0010000  0  8G 1G31G10G19G27G 8G 2G13
  24358272.7614   -1490038.88946   -963068.33644  24358273.8034   24358296.8714
     -3690.1664      -2875.4424
  22473793.7494   -5531462.13748  -4124370.53347  22473792.3304   22473804.8814
     -1244.8944       -970.0514
  24042514.8264   -6798176.16847  -5278109.93345  24042513.0054   24042533.3754
      -665.3674       -518.4694
  22074441.7954  -15718153.09448 -11779251.18947  22074440.4934   22074453.6474
     -1739.2954      -1355.2984
  21186970.8554  -22996059.47349 -17708058.07747  21186969.4674   21186981.6964
      -191.2674       -149.0434
  21137569.0524  -18815983.53249 -14632741.59747  21137567.3594   21137580.7584
       911.1294        709.9654
  22971993.0934   -9318209.07448  -7049784.19747  22971991.6384   22972008.8864
      1619.7114       1262.1044
  21505017.9354  -19783300.65349 -15406772.62347  21505017.0474   21505029.3074
     -1973.2604      -1537.6054
 00  9 18  2  7  0.0010000  0  8G 1G31G10G19G27G 8G 2G13
  24379354.5134   -1379273.66246   -876757.85445  24379352.5864   24379373.3134
     -3696.5344      -2880.4044
  22480953.4094   -5493839.79248  -4095054.28647  22480951.6514   22480964.0874
     -1265.4704       -986.0844
  24046356.6084   -6777986.52947  -5262377.66045  24046354.7194   24046375.6334
      -682.8614       -532.1074
  22084386.3834  -15665893.24948 -11738529.14247  22084385.2144   22084398.2884
     -1747.0094      -1361.3094
  21188078.8284  -22990235.53249 -17703519.83347  21188077.5654   21188089.8384
      -199.2534       -155.2664
  21132381.2104  -18843245.25449 -14653984.31247  21132379.7014   21132393.1284
       903.9494        704.3694
  22962766.0834   -9366696.38348  -7087566.24347  22962764.5334   22962782.1424
      1610.5654       1254.9754
  21516323.9854  -19723887.98848 -15360476.99747  21516323.0034   21516335.1854
     -1989.8164      -1550.5084
 00  9 18  2  7 30.0010000  0  8G 1G31G10G19G27G 8G 2G13
  24400472.9674   -1268295.04447   -790281.08845  24400471.5094   24400492.3644
     -3701.4654      -2884.2524
  22488234.7074   -5455574.94348  -4065237.39547  22488233.2254   22488245.4884
     -1284.8814      -1001.2084
  24050302.7354   -6757247.95147  -5246217.63745  24050300.8044   24050322.4344
      -699.1074       -544.7644
  22094380.5774  -15613375.95448 -11697606.48347  22094378.8984   22094391.9984
     -1753.5814      -1366.4294
  21189237.7854  -22984145.98349 -17698774.61247  21189236.5214   21189248.6814
      -206.1124       -160.6114
  21127239.6394  -18870266.47549 -14675039.62047  21127237.7934   21127250.8214
       897.9244        699.6754
  22953596.1594   -9414883.75348  -7125114.56047  22953594.5434   22953612.3744
      1602.5994       1248.7694
  21527728.8654  -19663953.32148 -15313774.60947  21527728.0124   21527740.1424
     -2005.2244      -1562.5144
 00  9 18  2  8  0.0010000  0  8G 1G31G10G19G27G 8G 2G13
  24421625.0224   -1157143.28047   -703669.34545  24421623.1004   24421645.3144
     -3706.4944      -2888.1804
  22495630.9124   -5416707.07348  -4034950.62847  22495629.2434   22495641.7134
     -1304.1824      -1016.2504
  24054346.4844   -6735999.48047  -5229660.28145  24054344.5114   24054365.3854
      -715.2804       -557.3634
  22104415.4704  -15560638.88148 -11656512.57047  22104414.3084   22104427.2594
     -1760.0974      -1371.5084
  21190439.9614  -22977828.29249 -17693851.62947  21190438.8264   21190450.6484
      -212.9374       -165.9294
  21122135.6494  -18897084.86349 -14695936.87647  21122134.1884   21122147.3684
       891.9824        695.0434
  22944476.1404   -9462809.37648  -7162458.91347  22944474.5074   22944492.0124
      1594.6284       1242.5574
  21539226.2894  -19603535.66548 -15266695.86847  21539225.3364   21539237.1084
     -2020.4974      -1574.4154
 00  9 18  2  8 30.0010000  0  8G 1G31G10G19G27G 8G 2G13
  24442810.2714   -1045803.57246   -616911.18044  24442809.4974   24442832.7074
     -3717.7394      -2896.9384
  22503145.0354   -5377220.06948  -4004181.42247  22503143.4524   22503155.7704
     -1329.8514      -1036.2504
  24058490.1104   -6714225.96847  -5212693.81045  24058487.7014   24058508.2814
      -737.8514       -574.9504
  22114496.4654  -15507665.36148 -11615234.40947  22114494.9144   22114507.7214
     -1773.0374      -1381.5934
  21191689.1084  -22971265.02049 -17688737.28947  21191687.7074   21191699.6214
      -226.1984       -176.2624
  21117074.3624  -18923682.85649 -14716662.40647  21117072.6124   21117085.8294
       879.5574        685.3644
  22935409.0654   -9510456.71748  -7199586.42247  22935407.4604   22935424.8384
      1580.3234       1231.4094
  21550818.1564  -19542619.80748 -15219228.90847  21550817.3254   21550828.8064
     -2042.1324      -1591.2744
 00  9 18  2  9  0.0010000  0  8G 1G31G10G19G27G 8G 2G13
  24464049.6844    -934185.83146   -529936.42444  24464049.3254   24464072.3824
     -3723.4414      -2901.3694
  22510794.1344   -5337022.80848  -3972858.77247  22510792.4094   22510805.1304
     -1349.9684      -1051.9254
  24062750.3314   -6691836.79047  -5195247.59945  24062748.5694   24062769.1464
      -754.7424       -588.1144
  22124639.0694  -15454363.02448 -11573700.01847  22124637.9044   22124650.7804
     -1780.4434      -1387.3614
  21193002.3954  -22964363.28449 -17683359.21547  21193000.9624   21193012.8454
      -233.9094       -182.2704
  21112071.9884  -18949967.70349 -14737143.92747  21112070.6224   21112083.7904
       872.7064        680.0254
  22926412.9284   -9557733.61548  -7236425.27847  22926411.0794   22926427.6854
      1571.5394       1224.5654
  21562522.2344  -19481114.67948 -15171302.78147  21562521.4344   21562533.1094
     -2058.2094      -1603.8014
 00  9 18  2  9 30.0010000  0  8G 1G31G10G19G27G 8G 2G13
  24485326.8854    -822383.42846   -442817.63744  24485326.0344   24485345.7004
     -3728.9664      -2905.6864
  22518560.7244   -5296207.43748  -3941054.49346  22518559.1364   22518571.9304
     -1370.0304      -1067.5584
  24067110.6374   -6668924.19747  -5177393.51845  24067108.6644   24067129.2354
      -771.6654       -601.3014
  22134827.8684  -15400822.44048 -11531979.98547  22134826.3544   22134839.2144
     -1787.8964      -1393.1694
  21194362.9214  -22957213.18349 -17677787.60047  21194361.5084   21194373.3684
      -241.7174       -188.3554
  21107112.7984  -18976029.82349 -14757451.88947  21107111.0144   21107124.1754
       865.7264        674.5854
  22917469.1584   -9604731.36248  -7273046.61947  22917467.4444   22917484.1264
      1562.7164       1217.6914
  21574320.9054  -19419112.42848 -15122989.29047  21574320.0674   21574331.7374
     -2074.2414      -1616.2934
 00  9 18  2 10  0.0010000  0  8G 1G31G10G19G27G 8G 2G13
  24506630.2454    -710437.90747   -355587.40445  24506629.3924   24506649.8674
     -3732.9454      -2908.7864
  22526437.9014   -5254815.10048  -3908800.63147  22526436.0834   22526448.4044
     -1388.4214      -1081.8904
  24071562.1984   -6645529.19947  -5159163.55645  24071560.1244   24071581.5084
      -786.9894       -613.2384
  22145053.5914  -15347083.09248 -11490105.09147  22145052.3654   22145065.2034
     -1793.7014      -1397.6924
  21195763.2504  -22949853.66549 -17672052.79847  21195762.0434   21195773.6014
      -247.8904       -193.1654
  21102187.8624  -19001908.11349 -14777616.62447  21102186.3484   21102199.7094
       860.4214        670.4514
  22908571.0694   -9651489.56448  -7309481.29247  22908569.5334   22908585.8814
      1555.5394       1212.0964
  21586206.2534  -19356653.82348 -15074320.19947  21586205.2064   21586216.9914
     -2088.6164      -1627.4944
 00  9 18  2 10 30.0010000  0  8G 1G31G10G19G27G 8G 2G13
  24527960.6454    -598345.44846   -268242.67145  24527959.1464   24527979.9594
     -3738.3884      -2913.0204
  22534425.1994   -5212840.57148  -3876093.12047  22534423.5454   22534435.9984
     -1408.3804      -1097.4424
  24076107.2014   -6621647.18347  -5140554.09445  24076105.2584   24076125.2824
      -803.6984       -626.2614
  22155319.1614  -15293138.64648 -11448070.38447  22155317.5184   22155330.7494
     -1801.1274      -1403.4784
  21197205.0404  -22942277.74149 -17666149.36147  21197203.5284   21197215.1374
      -255.6784       -199.2344
  21097299.9394  -19027595.88949 -14797632.90247  21097298.0854   21097311.3324
       853.4894        665.0514
  22899719.6414   -9698002.27548  -7345724.67347  22899717.9094   22899734.6494
      1546.8094       1205.2954
  21598179.3444  -19293733.72648 -15025291.50647  21598178.5744   21598190.4594
     -2104.5584      -1639.9154
 00  9 18  2 11  0.0010000  0  8G 1G31G10G19G27G 8G 2G13
  24549322.5004    -486081.25446   -180764.13044  24549319.2564   24549342.8844
     -3743.6324      -2917.1074
  22542528.0694   -5170258.58148  -3842912.25747  22542526.6204   22542538.7434
     -1428.2264      -1112.9104
  24080747.7284   -6597253.12247  -5121545.65045  24080746.3314   24080767.6664
      -820.3344       -639.2294
  22165628.3104  -15238962.62648 -11405855.23747  22165627.1264   22165639.9964
     -1808.4374      -1409.1744
  21198692.9854  -22934457.90749 -17660055.85547  21198691.4754   21198703.0584
      -263.4084       -205.2584
  21092452.7314  -19053065.89849 -14817479.49347  21092451.0234   21092464.3924
       846.6304        659.7044
  22890920.2154   -9744242.83348  -7381755.98047  22890918.3914   22890935.2254
      1538.1374       1198.5374
  21610245.6694  -19230326.90048 -14975883.53347  21610244.5874   21610256.2214
     -2120.3114      -1652.1924
 00  9 18  2 11 30.0010000  0  8G 1G31G10G19G27G 8G 2G13
  24570723.0054    -373631.18846    -93140.82244  24570720.9174   24570739.0294
     -3754.2204      -2925.3634
  22550749.7054   -5127054.17248  -3809246.39647  22550747.9934   22550760.0614
     -1453.2884      -1132.4354
  24085491.0094   -6572332.25047  -5102126.70845  24085489.2214   24085510.1974
      -842.2454       -656.2954
  22175985.1714  -15184538.53448 -11363446.78247  22175983.8194   22175996.3434
     -1821.0494      -1419.0024
  21200230.6764  -22926377.13449 -17653759.02647  21200229.1484   21200240.6944
      -276.5154       -215.4704
  21087650.9484  -19078301.23349 -14837143.22347  21087649.1154   21087662.1534
       834.4274        650.1964
  22882175.5684   -9790195.28648  -7417562.79047  22882173.8564   22882190.6224
      1524.1954       1187.6744
  21622406.8854  -19166418.67748 -14926084.86647  21622405.8144   21622417.4074
     -2141.3524      -1668.5874
