     2.00           OBSERVATION DATA    G (GPS)             RINEX VERSION / TYPE
teqc  1999Jul19     CORS/NGS/NOAA       20000107 02:44:32UTCPGM / RUN BY / DATE
HP-UX 10.20|PA-RISC|cc A.10.32.03|=+|=|                     COMMENT
BIT 2 OF LLI FLAGS DATA COLLECTED UNDER A/S CONDITION       COMMENT
ppt1                                                        MARKER NAME
xxx                                                         MARKER NUMBER
CORS/NGS/NOAA       U.S. Coast Guard                        OBSERVER / AGENCY
05402               ASHTECH   Z-XII3    RD00                REC # / TYPE / VERS
11092               ASH700829.3                             ANT # / TYPE
 -2725252.3748 -4295978.5284  3833958.9631                  APPROX POSITION XYZ 
        0.0000        0.0000        0.0000                  ANTENNA: DELTA H/E/N
     1     1                                                WAVELENGTH FACT L1/2
     7    C1    L1    L2    P1    P2    D1    D2            # / TYPES OF OBSERV
    30.0000                                                 INTERVAL
 SNR is mapped to RINEX snr flag value [1-9]                COMMENT
  L1: 1 -> 1;  90 -> 5; 210 -> 9                            COMMENT
  L2: 1 -> 1; 150 -> 5; 250 -> 9                            COMMENT
teqc windowed: delta = 86400.000 sec                        COMMENT
  2000     1     6     0     1   30.0000000     GPS         TIME OF FIRST OBS
                                                            END OF HEADER
 00  1  6  0  1 30.0000000  0  8G 2G26G 8G 5G24G 9G 4G 7
  22589462.0394  -34318399.37548 -26428087.58646  22589459.7964   22589466.6394
      -918.1414       -715.4364
  24284991.9264  -19634770.92047 -14352708.14546  24284990.6424   24284999.9104
     -1850.3094      -1441.8004
  20728420.5434  -40655364.26149 -31115512.94847  20728418.5244   20728423.9674
     -1406.7194      -1096.1454
  23713317.8014  -12925292.53948 -10045206.07646  23713315.7474   23713323.7634
      3606.1524       2809.9814
  23427307.1274  -11801866.43947  -8826035.80845  23427305.8704   23427315.4034
      4411.4614       3437.5034
  21346650.6464  -27034309.14149 -21038390.20747  21346649.0564   21346654.4214
      2438.5494       1900.1654
  21328424.5264  -21996800.61948 -16805395.44946  21328423.3714   21328428.8544
      2991.2074       2330.8084
  21504605.0354  -34487540.87949 -26539924.00247  21504602.8204   21504608.1714
     -1023.9914       -797.9154
 00  1  6  0  2  0.0000000  0  8G 2G26G 8G 5G24G 9G 4G 7
  22594726.2024  -34290738.22648 -26406533.45646  22594724.0884   22594730.6614
      -926.7564       -722.1484
  24295566.7574  -19579199.09147 -14309405.49646  24295565.3224   24295574.1204
     -1855.2034      -1445.6124
  20736501.3164  -40612898.63049 -31082422.84847  20736499.2234   20736505.0834
     -1424.9124      -1110.3204
  23692738.4134  -13033437.40748 -10129474.62846  23692736.2584   23692744.3614
      3602.9374       2807.4744
  23402137.5024  -11934131.49147  -8929099.42545  23402136.7664   23402146.6924
      4405.4244       3432.7954
  21332780.9574  -27107192.58249 -21095182.44447  21332779.6324   21332785.5584
      2419.7714       1885.5344
  21311400.1144  -22086266.28948 -16875108.90246  21311398.9184   21311404.4114
      2972.6364       2316.3374
  21510473.7914  -34456701.25649 -26515893.12947  21510471.5434   21510476.9774
     -1032.5524       -804.5874
 00  1  6  0  2 30.0000000  0  8G 2G26G 8G 5G24G 9G 4G 7
  22600006.1384  -34262993.57448 -26384914.25946  22600003.8904   22600010.4714
      -932.0584       -726.2804
  24306134.0174  -19523668.55447 -14266135.02746  24306132.0904   24306141.3494
     -1856.0944      -1446.3074
  20744649.7624  -40570079.34649 -31049057.18247  20744647.4244   20744653.2344
     -1438.8034      -1121.1444
  23672141.3794  -13141673.84148 -10213814.50946  23672139.1804   23672147.7924
      3603.6254       2808.0144
  23376970.0394  -12066386.76247  -9032155.42645  23376969.7854   23376978.4134
      4402.4444       3430.4764
  21318983.6204  -27179700.22549 -21151681.84647  21318981.7934   21318987.6464
      2405.0354       1874.0534
  21294444.7524  -22175368.16748 -16944538.87146  21294443.4304   21294448.5644
      2958.4314       2305.2684
  21516353.3354  -34425803.94149 -26491817.30047  21516351.0584   21516356.5344
     -1036.5974       -807.7394
 00  1  6  0  3  0.0000000  0  8G 2G26G 8G 5G24G 9G 4G 7
  22605339.1394  -34234968.66248 -26363076.68046  22605336.9314   22605343.4054
      -938.5934       -731.3704
  24316727.8124  -19467997.34247 -14222754.93245  24316725.9894   24316734.6574
     -1857.6464      -1447.5154
  20752898.8894  -40526731.96049 -31015280.01147  20752896.6914   20752901.9534
     -1453.3984      -1132.5164
  23651560.7714  -13249818.85547 -10298083.15246  23651558.5624   23651568.0134
      3603.8984       2808.2264
  23351844.1844  -12198431.74847  -9135047.54345  23351841.7854   23351850.6354
      4398.3614       3427.2914
  21305292.7384  -27251647.59949 -21207744.67347  21305290.9374   21305296.5574
      2389.2184       1861.7274
  21277588.8494  -22263946.41248 -17013560.82346  21277587.4544   21277592.9504
      2944.2884       2294.2494
  21522277.0414  -34394672.70149 -26467559.18547  21522274.9494   21522280.2744
     -1041.2814       -811.3894
 00  1  6  0  3 30.0000000  0  8G 2G26G 8G 5G24G 9G 4G 7
  22610711.1594  -34206741.66148 -26341081.63746  22610708.7804   22610714.6584
      -942.0354       -734.0514
  24327328.7734  -19412288.31547 -14179345.37645  24327327.3044   24327336.1844
     -1854.9804      -1445.4354
  20761230.9964  -40482946.40949 -30981161.41047  20761228.7254   20761233.6204
     -1464.3944      -1141.0864
  23630979.5154  -13357980.15447 -10382364.47546  23630977.5594   23630985.4694
      3608.2104       2811.5874
  23326740.6864  -12330353.95447  -9237843.94445  23326738.7644   23326746.2284
      4397.8794       3426.9174
  21291690.2024  -27323128.18449 -21263443.77947  21291688.5254   21291694.0374
      2377.6174       1852.6874
  21260815.3544  -22352092.45548 -17082246.00246  21260813.7584   21260819.8364
      2933.1554       2285.5734
  21528227.7104  -34363400.85349 -26443191.50747  21528225.6804   21528231.2524
     -1042.5334       -812.3634
 00  1  6  0  4  0.0000000  0  8G 2G26G 8G 5G24G 9G 4G 7
  22616146.6064  -34178174.21848 -26318821.30746  22616144.7524   22616150.7394
      -951.6384       -741.5344
  24337958.5924  -19356433.28147 -14135822.05246  24337956.9224   24337964.9024
     -1858.0694      -1447.8444
  20769669.0974  -40438602.32949 -30946607.59047  20769667.0534   20769672.4194
     -1481.1474      -1154.1414
  23610411.9764  -13466057.89447 -10466580.71145  23610409.8424   23610417.9824
      3607.6604       2811.1554
  23301682.4584  -12462036.48547  -9340453.55745  23301679.9284   23301688.3794
      4391.7274       3422.1244
  21278196.7364  -27394036.80049 -21318697.19847  21278194.9914   21278200.5394
      2360.3844       1839.2604
  21244149.5824  -22439666.82948 -17150485.72746  21244148.2634   21244154.5694
      2915.8084       2272.0564
  21534230.1894  -34331860.19649 -26418614.36747  21534227.8784   21534233.3734
     -1049.6514       -817.9104
 00  1  6  0  4 30.0000000  0  8G 2G26G 8G 5G24G 9G 4G 7
  22621605.6164  -34149482.98348 -26296464.50846  22621603.6834   22621610.8784
      -961.2854       -749.0514
  24348572.9084  -19300651.10647 -14092355.49146  24348571.3184   24348579.8754
     -1861.2484      -1450.3164
  20778171.9914  -40393917.23249 -30911788.04347  20778170.3164   20778176.1344
     -1498.2734      -1167.4844
  23589820.7534  -13574267.94848 -10550900.03246  23589818.4984   23589826.4504
      3606.0004       2809.8614
  23276627.2394  -12593701.54047  -9443049.52045  23276625.0854   23276633.0734
      4385.6314       3417.3704
  21264772.3684  -27464583.60049 -21373668.68447  21264770.4824   21264775.8934
      2342.4294       1825.2674
  21227553.6434  -22526879.87448 -17218443.89846  21227552.3064   21227558.3814
      2897.9664       2258.1574
  21540245.4404  -34300247.60349 -26393981.17247  21540243.3014   21540248.8254
     -1058.4134       -824.7374
 00  1  6  0  5  0.0000000  0  8G 2G26G 8G 5G24G 9G 4G 7
  22627116.2124  -34120524.77348 -26273899.68546  22627114.3784   22627121.7514
      -970.2544       -756.0424
  24359203.6384  -19244786.08047 -14048824.37146  24359202.1264   24359211.0364
     -1864.3454      -1452.7354
  20786771.2164  -40348730.09349 -30876577.30547  20786768.9994   20786774.7944
     -1515.5114      -1180.9164
  23569235.5804  -13682442.16648 -10635191.44046  23569233.5314   23569240.8754
      3604.4544       2808.6644
  23251602.3854  -12725200.06947  -9545515.71345  23251601.4354   23251610.2164
      4379.7744       3412.8014
  21251448.0684  -27534603.39349 -21428229.52247  21251446.0804   21251451.5314
      2324.5974       1811.3734
  21211057.9084  -22613563.21748 -17285989.32746  21211056.7494   21211062.6534
      2879.6144       2243.8534
  21546309.5964  -34268380.47949 -26369149.64447  21546307.3124   21546313.0874
     -1067.4034       -831.7434
 00  1  6  0  5 30.0000000  0  8G 2G26G 8G 5G24G 9G 4G 7
  22632685.1914  -34091267.27948 -26251101.65946  22632682.3134   22632689.0014
      -978.8944       -762.7754
  24369858.7364  -19188790.54347 -14005191.56645  24369857.1344   24369865.8304
     -1867.5914      -1455.2644
  20795476.4464  -40302982.62949 -30840929.94247  20795474.2404   20795479.5084
     -1533.0764      -1194.6044
  23548667.3304  -13790529.33048 -10719415.04646  23548665.2114   23548672.0034
      3602.4484       2807.0984
  23226619.3214  -12856485.41847  -9647815.78145  23226618.1004   23226626.9394
      4373.7034       3408.0754
  21238230.4294  -27604061.02049 -21482352.31247  21238228.7654   21238234.0294
      2307.0834       1797.7254
  21194676.0864  -22699651.07948 -17353070.73846  21194674.7864   21194680.6544
      2860.8164       2229.2044
  21552434.1284  -34236194.00849 -26344069.27747  21552432.2074   21552438.0384
     -1077.2324       -839.4024
 00  1  6  0  6  0.0000000  0  8G 2G26G 8G 5G24G 9G 4G 7
  22638280.3024  -34061859.54548 -26228186.56646  22638278.4274   22638285.1504
      -980.0184       -763.6504
  24380516.2894  -19132787.01947 -13961552.53445  24380514.2384   24380522.7254
     -1864.6364      -1452.9574
  20804263.4394  -40256809.33749 -30804950.76847  20804261.3114   20804266.4904
     -1543.6094      -1202.8134
  23528094.3404  -13898643.12248 -10803659.39746  23528091.7974   23528099.6434
      3606.4794       2810.2394
  23201655.2184  -12987675.68647  -9750041.75545  23201653.8144   23201662.7724
      4373.7144       3408.0794
  21225096.3564  -27673080.33649 -21536133.56447  21225094.6834   21225100.0514
      2295.7354       1788.8834
  21178381.5044  -22785281.73748 -17419795.89046  21178380.2234   21178385.7174
      2849.3094       2220.2404
  21558595.2124  -34203820.88449 -26318843.46347  21558592.9034   21558598.4224
     -1079.4384       -841.1224
 00  1  6  0  6 30.0000000  0  8G 2G26G 8G 5G24G 9G 4G 7
  22643907.9304  -34032292.28848 -26205147.16646  22643905.8024   22643911.5234
      -987.1444       -769.2034
  24391181.3014  -19076743.39747 -13917882.25745  24391179.8164   24391188.3494
     -1867.7474      -1455.3814
  20813134.3444  -40210193.59349 -30768626.82447  20813132.0934   20813137.5884
     -1560.0364      -1215.6114
  23507526.1414  -14006731.83048 -10887884.21746  23507523.7494   23507531.2754
      3603.5404       2807.9494
  23176714.5264  -13118744.63347  -9852173.18845  23176712.5614   23176721.0884
      4368.2894       3403.8564
  21212051.2064  -27741632.66349 -21589550.93647  21212049.6784   21212054.8754
      2278.4664       1775.4284
  21162176.9874  -22870437.79448 -17486151.22247  21162175.5284   21162181.0414
      2831.6964       2206.5154
  21564790.1734  -34171264.57949 -26293474.91347  21564788.0594   21564793.6264
     -1087.0504       -847.0534
 00  1  6  0  7  0.0000000  0  8G 2G26G 8G 5G24G 9G 4G 7
  22649576.5284  -34002496.76548 -26181929.89946  22649574.6484   22649581.1144
      -998.2034       -777.8204
  24401866.9634  -19020592.07347 -13874128.04445  24401865.0974   24401873.7074
     -1874.6064      -1460.7264
  20822098.3094  -40163083.06149 -30731917.34247  20822096.4734   20822102.6804
     -1579.6344      -1230.8844
  23486974.3844  -14114729.75648 -10972038.31946  23486972.1194   23486980.1284
      3597.4124       2803.1744
  23151805.2054  -13249643.02147  -9954171.71645  23151802.9954   23151812.2434
      4359.3664       3396.8994
  21199106.7114  -27809660.13549 -21642559.32247  21199104.6444   21199109.7394
      2257.8794       1759.3844
  21146075.0104  -22955055.00148 -17552086.67347  21146073.6604   21146078.9804
      2810.3594       2189.8884
  21571029.2804  -34138479.70949 -26267928.26047  21571027.1064   21571032.0954
     -1097.6704       -855.3264
 00  1  6  0  7 30.0000000  0  8G 2G26G 8G 5G24G 9G 4G 7
  22655272.9354  -33972562.49148 -26158604.51646  22655271.1774   22655277.8294
     -1001.4654       -780.3634
  24412552.3594  -18964442.40747 -13830375.12345  24412550.8404   24412557.3084
     -1872.7034      -1459.2494
  20831136.7274  -40115588.92149 -30694908.94347  20831134.4754   20831140.1694
     -1590.5694      -1239.4054
  23466419.5494  -14222740.78848 -11056202.63146  23466417.6574   23466425.7244
      3599.4214       2804.7424
  23126908.3794  -13380475.62047 -10056118.97745  23126906.2964   23126914.9614
      4358.8034       3396.4614
  21186240.7444  -27877269.40749 -21695241.84147  21186238.9934   21186244.1764
      2245.3684       1749.6354
  21130056.6744  -23039231.81348 -17617678.95247  21130055.4604   21130060.5244
      2797.3994       2179.7914
  21577289.9364  -34105580.69849 -26242292.66147  21577287.5774   21577292.5924
     -1099.4794       -856.7364
 00  1  6  0  8  0.0000000  0  8G 2G26G 8G 5G24G 9G 4G 7
  22661019.8254  -33942361.48548 -26135071.28846  22661017.9824   22661024.8264
     -1013.0764       -789.4094
  24423253.1204  -18908199.16047 -13786549.29645  24423251.9864   24423260.9544
     -1878.0004      -1463.3794
  20840264.6244  -40067620.73449 -30657531.15447  20840262.5134   20840267.8104
     -1608.5904      -1253.4474
  23445884.0344  -14330655.67948 -11140292.01846  23445882.2764   23445890.0474
      3593.9394       2800.4664
  23102043.2774  -13511141.42147 -10157936.29045  23102041.7404   23102049.6134
      4351.2274       3390.5604
  21173476.1624  -27944344.28549 -21747507.95647  21173474.5044   21173479.8874
      2225.2504       1733.9594
  21114142.7924  -23122860.33548 -17682843.99547  21114140.9934   21114146.1964
      2776.5474       2163.5414
  21583586.1574  -34072491.06449 -26216508.53347  21583583.9844   21583589.5404
     -1107.9504       -863.3374
 00  1  6  0  8 30.0000000  0  8G 2G26G 8G 5G24G 9G 4G 7
  22666808.5264  -33911942.14848 -26111367.93246  22666806.4224   22666813.4364
     -1017.3684       -792.7514
  24433958.6454  -18851943.82947 -13742714.03245  24433957.6094   24433965.0444
     -1875.0904      -1461.1054
  20849469.8444  -40019246.44549 -30619836.91847  20849467.6604   20849473.4524
     -1618.9544      -1261.5234
  23425353.0904  -14438551.78848 -11224366.76246  23425350.2774   23425357.7724
      3596.6774       2802.6014
  23077194.2614  -13641724.24047 -10259688.96645  23077192.2184   23077199.9944
      4351.4564       3390.7384
  21160799.8424  -28010959.77749 -21799416.10047  21160797.9974   21160803.6204
      2213.1164       1724.5044
  21098322.1324  -23205993.96348 -17747623.40047  21098320.9824   21098326.4784
      2763.1594       2153.1104
  21589907.4104  -34039272.58649 -26190624.01247  21589905.2014   21589911.0914
     -1109.5904       -864.6154
 00  1  6  0  9  0.0000000  0  8G 2G26G 8G 5G24G 9G 4G 7
  22672659.4874  -33881193.53348 -26087408.00346  22672657.9364   22672664.8914
     -1028.4064       -801.3554
  24444684.7164  -18795577.06847 -13698791.94945  24444683.5294   24444691.2874
     -1878.7354      -1463.9454
  20858772.3574  -39970361.49249 -30581744.77347  20858770.1844   20858776.0044
     -1636.2614      -1275.0084
  23404840.0234  -14546341.80248 -11308358.84546  23404838.2154   23404846.7044
      3593.2444       2799.9244
  23052384.1934  -13772093.82247 -10361275.49045  23052382.6864   23052390.9344
      4343.5944       3384.6154
  21148232.3514  -28077002.18549 -21850877.68847  21148230.6014   21148236.0484
      2193.6654       1709.3494
  21082615.7734  -23288531.13948 -17811938.04047  21082614.6624   21082620.1994
      2743.1564       2137.5214
  21596277.2984  -34005796.66749 -26164538.88547  21596275.3654   21596281.1444
     -1118.3664       -871.4554
 00  1  6  0  9 30.0000000  0  8G 2G26G 8G 5G24G 9G 4G 7
  22678535.6764  -33850321.56948 -26063351.95446  22678532.9564   22678539.7714
     -1032.8954       -804.8534
  24455392.2304  -18739311.31647 -13654948.54545  24455390.8704   24455398.6524
     -1875.9654      -1461.7904
  20868137.3374  -39921150.93649 -30543398.90347  20868135.1294   20868140.5654
     -1647.7284      -1283.9434
  23384310.3144  -14654224.64348 -11392423.25446  23384308.2524   23384316.9154
      3595.6404       2801.7924
  23027584.5704  -13902417.52447 -10462826.27945  23027583.2264   23027591.3674
      4341.2144       3382.7604
  21135739.3384  -28142656.28449 -21902036.70147  21135737.5664   21135742.3814
      2179.9094       1698.6294
  21066984.8024  -23370672.13448 -17875943.96847  21066983.7144   21066989.2524
      2729.6534       2127.0024
  21602660.7824  -33972253.00649 -26138400.97347  21602658.3894   21602664.2724
     -1121.3644       -873.7904
 00  1  6  0 10  0.0000000  0  8G 2G26G 8G 5G24G 9G 4G 7
  22684457.5874  -33819194.67248 -26039097.26446  22684455.8604   22684462.6554
     -1042.0604       -811.9934
  24466109.7264  -18682991.36947 -13611062.93545  24466108.0334   24466116.5064
     -1878.9994      -1464.1514
  20877592.4914  -39871462.21649 -30504680.43647  20877590.4474   20877596.2984
     -1665.0374      -1297.4314
  23363793.4634  -14762040.59348 -11476435.55646  23363791.4384   23363799.9654
      3592.0634       2799.0064
  23002823.4814  -14032540.56347 -10564220.72345  23002821.4174   23002829.4374
      4333.3954       3376.6664
  21123350.0094  -28207762.04549 -21952768.44747  21123348.1194   21123353.0314
      2160.3114       1683.3574
  21051455.5924  -23452282.61848 -17939536.51247  21051453.8484   21051459.4104
      2710.9124       2112.3974
  21609087.3684  -33938480.59449 -26112084.81047  21609085.3244   21609090.7774
     -1130.4824       -880.8954
 00  1  6  0 10 29.9990000  0  8G 2G26G 8G 5G24G 9G 4G 7
  22690435.7784  -33787782.05048 -26014619.92946  22690433.5694   22690440.6014
     -1049.8364       -818.0554
  24476847.8524  -18626557.62647 -13567088.64945  24476846.8114   24476855.3964
     -1881.3904      -1466.0164
  20887151.7964  -39821227.85349 -30465536.79947  20887149.6374   20887155.1094
     -1681.8094      -1310.5004
  23343303.3214  -14869719.55348 -11560341.11246  23343301.0574   23343309.6074
      3589.0134       2796.6304
  22978114.5774  -14162384.03347 -10665397.34345  22978112.7844   22978121.0514
      4325.2584       3370.3264
  21111079.4124  -28272241.30849 -22003012.00447  21111077.8004   21111083.2654
      2140.7094       1668.0854
  21036037.2304  -23533306.15248 -18002671.69247  21036035.7784   21036041.2344
      2692.9884       2098.4324
  21615572.2124  -33904405.56249 -26085532.83047  21615569.8054   21615574.8554
     -1139.0844       -887.5994
 00  1  6  0 10 59.9990000  0  8G 2G26G 8G 5G24G 9G 4G 7
  22696445.1974  -33756203.95648 -25990013.65146  22696443.0234   22696449.4404
     -1055.1474       -822.1924
  24487589.2834  -18570115.26047 -13523107.64245  24487588.1704   24487596.0734
     -1881.3024      -1465.9534
  20896793.6294  -39770559.89749 -30426055.29147  20896791.4354   20896796.8504
     -1696.0164      -1321.5714
  23322816.8414  -14977376.84048 -11644229.78846  23322814.7334   23322822.6804
      3588.2994       2796.0734
  22953438.6424  -14292052.37447 -10766437.49345  22953437.9534   22953446.2024
      4319.5714       3365.8974
  21098909.4934  -28336196.30349 -22052847.04247  21098907.7534   21098913.0134
      2123.2594       1654.4884
  21020708.5234  -23613855.87448 -18065437.66547  21020707.3544   21020713.2304
      2676.9324       2085.9204
  21622091.3784  -33870145.13049 -26058836.38547  21622089.3364   21622094.2424
     -1144.9024       -892.1314
 00  1  6  0 11 29.9990000  0  8G 2G26G 8G 5G24G 9G 4G 7
  22702485.8674  -33724461.41348 -25965279.24046  22702483.7774   22702490.0244
     -1058.7844       -825.0254
  24498331.6234  -18513666.58247 -13479121.73245  24498330.2524   24498338.0614
     -1879.7444      -1464.7344
  20906515.9434  -39719466.93049 -30386242.61047  20906513.8774   20906519.9514
     -1707.8834      -1330.8174
  23302335.7154  -15084999.69048 -11728091.63146  23302334.1104   23302341.7214
      3589.0124       2796.6284
  22928795.4474  -14421556.55547 -10867349.76045  22928793.9094   22928801.0854
      4316.3354       3363.3754
  21086837.8484  -28399631.73349 -22102277.22747  21086836.3244   21086841.6944
      2108.1854       1642.7424
  21005474.8384  -23693910.96548 -18127818.20847  21005473.4424   21005478.9354
      2662.2694       2074.4944
  21628643.9674  -33835710.03649 -26032003.84547  21628641.8664   21628647.2954
     -1148.5534       -894.9774
 00  1  6  0 11 59.9990000  0  8G 2G26G 8G 5G24G 9G 4G 7
  22708550.4204  -33692589.25048 -25940443.81846  22708548.4154   22708555.0014
     -1065.0454       -829.9044
  24509066.5404  -18457255.81247 -13435165.34445  24509064.9954   24509073.3674
     -1879.8834      -1464.8434
  20916307.8654  -39668013.78949 -30346149.27647  20916305.6304   20916311.1334
     -1721.2644      -1341.2444
  23281852.5334  -15192643.16248 -11811969.52246  23281850.6734   23281857.8794
      3588.4664       2796.2024
  22904172.0794  -14550952.21147 -10968177.46845  22904170.4034   22904177.8004
      4311.0754       3359.2784
  21074853.2194  -28462609.41749 -22151350.72747  21074851.6084   21074857.5004
      2091.4894       1629.7294
  20990328.0324  -23773507.23748 -18189841.22847  20990326.5654   20990332.1024
      2644.9394       2060.9914
  21635218.2854  -33801163.06549 -26005084.13347  21635216.0454   21635221.6744
     -1153.6044       -898.9124
 00  1  6  0 12 29.9990000  0  8G 2G26G 8G 5G24G 9G 4G 7
  22714664.1654  -33660460.98048 -25915408.82346  22714662.0544   22714668.6304
     -1076.1594       -838.5644
  24519810.3624  -18400792.55247 -13391168.06945  24519808.9154   24519817.7254
     -1883.8164      -1467.9084
  20926184.4104  -39616111.08449 -30305705.63347  20926182.2924   20926187.4074
     -1738.2294      -1354.4644
  23261380.8034  -15300226.47348 -11895800.53046  23261378.4204   23261385.3544
      3584.5324       2793.1374
  22879591.2444  -14680128.69547 -11068834.39546  22879589.1724   22879596.5834
      4301.5514       3351.8514
  21062974.6304  -28525035.35149 -22199994.28847  21062973.0294   21062977.8704
      2071.2044       1613.9244
  20975291.8904  -23852520.75248 -18251410.14647  20975290.4854   20975296.8404
      2623.1714       2044.0274
  21641831.1144  -33766412.78149 -25978006.00447  21641828.7344   21641834.1824
     -1162.5684       -905.8974
 00  1  6  0 12 59.9990000  0  8G 2G26G 8G 5G24G 9G 4G 7
  22720830.1784  -33628061.83248 -25890162.75046  22720827.6154   22720833.9374
     -1084.4424       -845.0204
  24530566.7214  -18344269.13447 -13347123.89045  24530565.3094   24530574.3174
     -1885.1064      -1468.9114
  20936145.4824  -39563765.34648 -30264916.76947  20936143.3134   20936148.6274
     -1752.3614      -1365.4754
  23240918.3504  -15407753.98748 -11979588.06846  23240916.1864   23240923.2534
      3583.1284       2792.0454
  22855050.5424  -14809089.87947 -11169323.56246  22855049.0834   22855056.6894
      4295.0634       3346.7994
  21051197.8384  -28586925.00749 -22248219.97147  21051195.7754   21051200.7174
      2054.0994       1600.5964
  20960369.7524  -23930936.93648 -18312513.61547  20960368.4244   20960374.1014
      2603.8674       2028.9864
  21648483.3874  -33731454.49549 -25950765.79147  21648481.1834   21648486.4504
     -1168.8554       -910.7964
 00  1  6  0 13 29.9990000  0  8G 2G26G 8G 5G24G 9G 4G 7
  22727031.3484  -33595474.85748 -25864770.33746  22727029.1434   22727035.4214
     -1089.7444       -849.1524
  24541316.9684  -18287774.49147 -13303102.14345  24541315.3024   24541325.1034
     -1883.0154      -1467.2854
  20946177.6124  -39511047.44148 -30223837.90447  20946175.3624   20946180.6054
     -1764.0794      -1374.6064
  23220454.3664  -15515288.17048 -12063380.80746  23220452.7034   23220460.0834
      3584.0604       2792.7674
  22830534.7064  -14937916.03747 -11269707.51946  22830533.7904   22830540.9694
      4291.6874       3344.1674
  21039505.4634  -28648365.22249 -22296095.44147  21039503.8884   21039508.9574
      2039.9804       1589.5944
  20945546.0394  -24008839.32348 -18373216.72247  20945544.4334   20945549.6824
      2587.8954       2016.5394
  21655159.6184  -33696371.04349 -25923428.04347  21655157.5394   21655162.9024
     -1172.0504       -913.2864
 00  1  6  0 13 59.9990000  0  8G 2G26G 8G 5G24G 9G 4G 7
  22733268.3124  -33562698.03948 -25839229.99646  22733266.3814   22733272.7444
     -1096.8874       -854.7174
  24552060.9024  -18231311.56447 -13259105.10545  24552060.2304   24552069.8364
     -1882.9074      -1467.1984
  20956284.3124  -39457934.03048 -30182450.85447  20956282.2224   20956288.0824
     -1778.3904      -1385.7594
  23199993.1734  -15622817.37948 -12147169.66146  23199990.9314   23199997.7494
      3582.7694       2791.7654
  22806044.9514  -15066611.33947 -11369989.50946  22806043.9894   22806051.6684
      4286.4034       3340.0554
  21027904.0984  -28709330.88849 -22343601.13547  21027902.4934   21027907.7654
      2022.7394       1576.1594
  20930818.7054  -24086228.35848 -18433519.81047  20930817.6004   20930823.2814
      2569.7314       2002.3874
  21661861.9534  -33661150.46349 -25895983.43947  21661859.8514   21661865.0854
     -1177.7854       -917.7564
 00  1  6  0 14 29.9990000  0  8G 2G26G 8G 5G24G 9G 4G 7
  22739560.0054  -33529632.02248 -25813464.29946  22739558.1054   22739564.8884
     -1112.1384       -866.6024
  24562822.5464  -18174763.47147 -13215041.71645  24562820.9164   24562830.1344
     -1891.7964      -1474.1254
  20966490.1264  -39404302.34448 -30140659.95647  20966488.1754   20966493.8924
     -1801.9474      -1404.1144
  23179557.1064  -15730205.67648 -12230848.69946  23179555.1634   23179562.9104
      3571.6894       2783.1274
  22781602.2384  -15195061.48747 -11470080.46546  22781600.4164   22781608.4624
      4272.1124       3328.9144
  21016417.7624  -28769693.21249 -22390636.68547  21016415.9184   21016421.2514
      1996.6784       1555.8514
  20916211.5214  -24162991.79048 -18493335.40947  20916210.0144   20916215.6204
      2542.9674       1981.5304
  21668613.4364  -33625671.81849 -25868337.74847  21668610.8424   21668616.0484
     -1192.4344       -929.1704
 00  1  6  0 14 59.9990000  0  8G 2G26G 8G 5G24G 9G 4G 7
  22745888.8384  -33496375.30248 -25787550.00646  22745887.0004   22745893.6524
     -1110.3714       -865.2244
  24573584.3224  -18118210.49347 -13170974.49445  24573582.9584   24573590.8614
     -1883.5164      -1467.6754
  20976782.7974  -39350218.17248 -30098516.46447  20976780.5344   20976785.9004
     -1808.9084      -1409.5374
  23159137.4854  -15837512.94948 -12314464.61246  23159135.7154   23159142.0754
      3577.0924       2787.3414
  22757192.1954  -15323339.29448 -11570037.12746  22757190.2534   22757197.7514
      4274.3034       3330.6214
  21005031.6464  -28829526.08049 -22437259.67347  21005029.8484   21005035.0664
      1987.0764       1548.3694
  20901708.1504  -24239208.48348 -18552724.98447  20901706.3444   20901711.8434
      2533.0644       1973.8154
  21675398.2314  -33590013.97949 -25840552.42847  21675396.2344   21675401.5614
     -1190.0674       -927.3244
 00  1  6  0 15 29.9990000  0  8G 2G26G 8G 5G24G 9G 4G 7
  22752247.1484  -33462963.71548 -25761515.03346  22752245.1354   22752251.9224
     -1117.4054       -870.7054
  24584333.8934  -18061722.33147 -13126957.78845  24584332.1064   24584340.8424
     -1882.7794      -1467.0944
  20987150.8374  -39295731.78748 -30056059.55647  20987148.6734   20987154.1744
     -1823.5634      -1420.9574
  23138720.6994  -15944803.74448 -12398067.69046  23138718.2734   23138725.0784
      3575.5794       2786.1644
  22732807.4604  -15451481.57748 -11669888.18146  22732805.5034   22732813.0984
      4268.2884       3325.9364
  20993736.9464  -28888878.74549 -22483508.47647  20993734.9994   20993740.5404
      1969.5254       1534.6934
  20887294.2874  -24314946.34448 -18611741.44347  20887293.5894   20887299.0324
      2515.8694       1960.4154
  21682206.0974  -33554239.05149 -25812675.86947  21682203.9684   21682209.2734
     -1195.2774       -931.3834
 00  1  6  0 15 59.9990000  0  8G 2G26G 8G 5G24G 9G 4G 7
  22758665.5564  -33429232.24748 -25735230.80646  22758663.6904   22758671.0684
     -1127.4894       -878.5604
  24595100.4964  -18005143.12047 -13082870.11145  24595098.7474   24595107.6944
     -1885.3534      -1469.1044
  20997619.6864  -39240718.29348 -30013191.92447  20997617.5404   20997622.8744
     -1839.9834      -1433.7534
  23118329.4744  -16051957.00248 -12481563.58646  23118327.6494   23118335.0694
      3571.8544       2783.2584
  22708478.0894  -15579330.45248 -11769510.59146  22708476.7474   22708484.5124
      4258.6744       3318.4424
  20982561.4994  -28947603.38849 -22529267.90847  20982559.9044   20982565.9654
      1949.6154       1519.1794
  20873001.2964  -24390062.89748 -18670273.76947  20872999.8554   20873004.7084
      2495.7524       1944.7404
  21689062.4064  -33518212.00749 -25784602.86147  21689060.0494   21689065.3834
     -1202.7864       -937.2364
 00  1  6  0 16 29.9990000  0  8G 2G26G 8G 5G24G 9G 4G 7
  22765118.4514  -33395324.07348 -25708808.87646  22765116.0624   22765123.7824
     -1134.8994       -884.3334
  24605857.4574  -17948620.59847 -13038826.60445  24605855.4814   24605864.3204
     -1884.6864      -1468.5904
  21008155.8544  -39185349.04448 -29970047.07347  21008153.8944   21008159.5134
     -1853.3074      -1444.1344
  23097934.0994  -16159136.04848 -12565079.57646  23097931.6984   23097939.5314
      3571.6614       2783.1084
  22684182.0934  -15707009.93148 -11869000.99746  22684180.3144   22684187.8014
      4251.4394       3312.8074
  20971473.6254  -29005875.59949 -22574674.79847  20971471.8224   20971476.9324
      1933.2794       1506.4504
  20858797.2954  -24464705.23848 -18728436.58547  20858795.8804   20858800.9574
      2478.5064       1931.3014
  21695935.0274  -33482096.44649 -25756460.87647  21695932.7094   21695938.3634
     -1207.0654       -940.5714
 00  1  6  0 16 59.9990000  0  8G 2G26G 8G 5G24G 9G 4G 7
  22771627.9984  -33361117.17648 -25682154.17246  22771625.8004   22771632.6764
     -1142.8974       -890.5694
  24616619.7794  -17892052.60447 -12994747.70045  24616618.8794   24616627.6534
     -1883.8334      -1467.9194
  21018780.9224  -39129511.10148 -29926537.00947  21018778.9264   21018785.1314
     -1866.2934      -1454.2544
  23077550.4654  -16266250.04348 -12648544.89046  23077548.5144   23077555.9954
      3572.1444       2783.4854
  22659938.3174  -15834410.26548 -11968273.89746  22659936.5224   22659944.0484
      4244.7004       3307.5574
  20960491.8554  -29063583.42849 -22619641.91147  20960490.1014   20960495.0954
      1916.6884       1493.5234
  20844703.6174  -24538764.36748 -18786144.94547  20844702.4134   20844708.0914
      2461.6074       1918.1334
  21702844.5084  -33445785.96049 -25728167.00647  21702842.0894   21702847.9294
     -1210.9604       -943.6064
 00  1  6  0 17 29.9990000  0  8G 2G26G 8G 5G24G 9G 4G 7
  22778181.9004  -33326677.47348 -25655318.06346  22778179.4564   22778186.1534
     -1157.2664       -901.7644
  24627378.3964  -17835519.48447 -12950695.96145  24627377.2934   24627385.7684
     -1889.7344      -1472.5134
  21029476.9754  -39073302.52748 -29882738.14447  21029475.0824   21029481.2214
     -1885.4164      -1469.1554
  23057162.0194  -16373391.71148 -12732031.78146  23057160.2874   23057167.0804
      3565.8234       2778.5584
  22635728.0214  -15961629.14348 -12067405.37646  22635726.8814   22635734.8234
      4232.1964       3297.8084
  20949602.9384  -29120803.83049 -22664229.20847  20949601.3564   20949606.8084
      1893.4034       1475.3784
  20830705.4654  -24612329.32848 -18843468.25247  20830703.7934   20830708.9584
      2437.9224       1899.6774
  21709773.9614  -33409371.25349 -25699791.91747  21709771.8254   21709777.3184
     -1221.4074       -951.7464
 00  1  6  0 17 59.9990000  0  8G 2G26G 8G 5G24G 9G 4G 7
  22784778.9854  -33292010.55548 -25628304.91646  22784776.5784   22784783.5064
     -1161.3334       -904.9314
  24638135.3614  -17778991.48347 -12906648.23945  24638134.2084   24638141.9644
     -1886.3794      -1469.8984
  21040246.6504  -39016710.65148 -29838640.59747  21040244.2714   21040250.2574
     -1895.2134      -1476.7904
  23036777.8014  -16480511.05148 -12815501.27246  23036775.9784   23036782.8394
      3567.7514       2780.0584
  22611553.7374  -16088666.06448 -12166395.03646  22611552.3334   22611560.3784
      4229.3504       3295.5894
  20938811.7844  -29177512.67849 -22708417.89047  20938810.2024   20938815.7074
      1879.5954       1464.6184
  20816808.8934  -24685351.78148 -18900368.82447  20816807.8954   20816813.2564
      2422.5194       1887.6754
  21716728.8094  -33372823.01449 -25671312.76747  21716726.5634   21716732.2054
     -1223.0984       -953.0644
 00  1  6  0 18 29.9990000  0  8G 2G26G 8G 5G24G 9G 4G 7
  22791428.2294  -33257061.73848 -25601072.10846  22791426.5124   22791434.1764
     -1167.5534       -909.7784
  24648902.8004  -17722407.08247 -12862556.49145  24648901.8494   24648911.2834
     -1884.9244      -1468.7734
  21051104.9764  -38959646.14748 -29794174.77047  21051103.0784   21051109.4984
     -1908.2204      -1486.9244
  23016416.7234  -16587512.46948 -12898878.87046  23016414.6184   23016421.3424
      3566.6304       2779.1894
  22587426.7064  -16215456.66548 -12265192.76546  22587425.3454   22587432.8334
      4224.2674       3291.6334
  20928134.2924  -29233626.90749 -22752143.23347  20928132.0964   20928137.2844
      1862.2584       1451.1094
  20803033.0604  -24757746.92248 -18956780.58647  20803031.6104   20803036.9204
      2404.7124       1873.7994
  21723726.4734  -33336047.01749 -25642656.14747  21723724.5554   21723730.6254
     -1227.8324       -956.7514
 00  1  6  0 18 59.9990000  0  8G 2G26G 8G 5G24G 9G 4G 7
  22798098.9634  -33222009.80248 -25573758.93046  22798096.3204   22798104.4704
     -1176.5644       -916.8044
  24659647.2694  -17665948.58747 -12818562.91045  24659646.3184   24659655.1114
     -1886.3864      -1469.9064
  21062021.5514  -38902281.83248 -29749475.33547  21062019.3574   21062025.3394
     -1923.3134      -1498.6844
  22996047.3784  -16694555.03348 -12982288.53646  22996045.1384   22996051.7964
      3562.2404       2775.7684
  22563313.0354  -16342178.18648 -12363936.68146  22563311.0844   22563317.6824
      4216.2294       3285.3694
  20917538.8234  -29289304.14449 -22795528.06747  20917537.2304   20917542.4984
      1842.2764       1435.5374
  20789342.6154  -24829693.22748 -19012842.60547  20789340.9474   20789345.8014
      2384.2374       1857.8454
  21730736.6024  -33299210.23749 -25613952.16547  21730734.3604   21730740.2964
     -1235.5324       -962.7524
 00  1  6  0 19 29.9990000  0  8G 2G26G 8G 5G24G 9G 4G 7
  22804817.2744  -33186702.54648 -25546246.79146  22804815.6354   22804822.6094
     -1180.8474       -920.1374
  24670396.1664  -17609458.25347 -12774544.52245  24670395.1594   24670405.2704
     -1883.4504      -1467.6234
  21073021.7434  -38844475.75348 -29704431.65947  21073019.6014   21073025.4794
     -1934.3844      -1507.3124
  22975702.6104  -16801462.22748 -13065592.70846  22975700.7374   22975707.7554
      3561.0414       2774.8374
  22539245.2054  -16468653.21948 -12462488.52546  22539243.6324   22539249.8774
      4211.4954       3281.6834
  20907055.6704  -29344392.07249 -22838453.69747  20907054.1694   20907059.6394
      1826.5874       1423.3144
  20775768.1644  -24901025.47648 -19068426.14747  20775766.8124   20775771.8714
      2367.4104       1844.7354
  21737790.7644  -33262139.83848 -25585066.14247  21737788.4244   21737794.3514
     -1239.8134       -966.0884
 00  1  6  0 19 59.9990000  0  8G 2G26G 8G 5G24G 9G 4G 7
  22811575.4624  -33151191.81448 -25518576.10946  22811573.1654   22811580.1924
     -1192.5554       -929.2644
  24681142.4724  -17552985.83047 -12730540.06145  24681141.3804   24681150.6204
     -1887.3574      -1470.6684
  21084099.5264  -38786260.26848 -29659068.96147  21084097.8194   21084103.5354
     -1952.6364      -1521.5344
  22955380.3974  -16908259.23248 -13148811.03746  22955377.7404   22955384.6734
      3553.2814       2768.7884
  22515222.3154  -16594897.12748 -12560860.25546  22515220.1514   22515226.6144
      4198.7624       3271.7614
  20896677.2484  -29398936.84649 -22880956.08847  20896675.0654   20896680.3744
      1803.9144       1405.6454
  20762302.1994  -24971787.90848 -19123565.67247  20762300.7954   20762306.4014
      2344.2454       1826.6844
  21744883.5804  -33224866.79848 -25556022.21747  21744881.6354   21744887.2614
     -1250.9644       -974.7764
 00  1  6  0 20 29.9990000  0  8G 2G26G 8G 5G24G 9G 4G 7
  22818393.8534  -33115358.64248 -25490654.17746  22818392.1924   22818398.8654
     -1196.1084       -932.0344
  24691904.7774  -17496432.90147 -12686472.87845  24691903.5434   24691912.8444
     -1882.6914      -1467.0304
  21095275.4644  -38727533.60448 -29613307.94247  21095273.2184   21095279.1844
     -1962.3244      -1529.0834
  22935090.7644  -17014876.48248 -13231889.29146  22935088.9714   22935096.0334
      3554.8314       2769.9954
  22491266.2104  -16720786.82548 -12658955.98346  22491263.8844   22491270.4184
      4194.0384       3268.0794
  20886421.0174  -29452831.42549 -22922951.83547  20886419.2654   20886424.2964
      1789.4374       1394.3664
  20748959.7944  -25041903.25048 -19178200.97547  20748958.2794   20748963.5994
      2330.1614       1815.7084
  21752032.4914  -33187302.14348 -25526751.04747  21752030.1424   21752035.6374
     -1253.2274       -976.5404
 00  1  6  0 20 59.9990000  0  8G 2G26G 8G 5G24G 9G 4G 7
  22825235.7284  -33079404.66948 -25462638.10846  22825233.7874   22825240.9064
     -1203.1854       -937.5484
  24702642.0914  -17440008.17047 -12642505.60945  24702640.8134   24702650.3234
     -1881.3974      -1466.0234
  21106506.3184  -38668513.55548 -29567318.31847  21106504.3254   21106510.6494
     -1974.7464      -1538.7624
  22914794.2924  -17121536.05348 -13315000.51946  22914792.4314   22914799.6294
      3553.5944       2769.0304
  22467337.8224  -16846525.51348 -12756934.02946  22467336.7414   22467344.1624
      4186.1774       3261.9494
  20876247.3354  -29506291.86649 -22964609.28847  20876245.7254   20876250.6824
      1772.0994       1380.8554
  20735699.9584  -25111583.29348 -19232497.08447  20735698.5664   20735703.7624
      2312.5684       1801.9994
  21759194.4144  -33149665.08748 -25497423.46047  21759192.2594   21759197.5214
     -1258.4794       -980.6344
 00  1  6  0 21 29.9990000  0  8G 2G26G 8G 5G24G 9G 4G 7
  22832117.5994  -33043240.48948 -25434458.25346  22832115.8844   22832122.3624
     -1213.5104       -945.5894
  24713370.0614  -17383633.70347 -12598577.48945  24713368.2064   24713376.8694
     -1882.8574      -1467.1644
  21117809.9814  -38609111.28348 -29521030.85747  21117807.9594   21117814.2934
     -1991.3364      -1551.6914
  22894503.6724  -17228166.51048 -13398089.06146  22894501.4054   22894508.1514
      3549.3974       2765.7594
  22443454.1194  -16972033.80048 -12854732.55346  22443452.8804   22443460.4824
      4175.4914       3253.6274
  20866174.5344  -29559227.17149 -23005857.54847  20866172.7724   20866177.5784
      1751.1224       1364.5084
  20722541.3714  -25180731.77848 -19286378.98247  20722540.1084   20722545.2544
      2291.4824       1785.5704
  21766384.9324  -33111878.14748 -25467979.08547  21766382.5904   21766388.0394
     -1266.4094       -986.8104
 00  1  6  0 21 59.9990000  0  8G 2G26G 8G 5G24G 9G 4G 7
  22839040.4814  -33006860.71448 -25406110.40046  22839038.8194   22839045.2944
     -1214.9124       -946.6844
  24724088.2084  -17327311.72147 -12554690.25245  24724086.3954   24724094.5274
     -1875.1774      -1461.1754
  21129190.2984  -38549305.73648 -29474429.14647  21129188.3504   21129194.3914
     -1998.7254      -1557.4484
  22874214.6064  -17334785.33548 -13481168.54946  22874212.4244   22874219.8694
      3555.4954       2770.5134
  22419611.4974  -17097331.05648 -12952366.64746  22419609.9344   22419616.6734
      4174.6184       3252.9464
  20856202.7504  -29611629.09249 -23046690.18447  20856200.9224   20856205.8344
      1739.2614       1355.2674
  20709485.1444  -25249343.78548 -19339842.84947  20709483.6294   20709488.9114
      2279.3064       1776.0834
  21773598.6194  -33073970.04148 -25438440.29347  21773596.5004   21773601.6954
     -1264.0674       -984.9894
 00  1  6  0 22 29.9990000  0  8G 2G26G 8G 5G24G 9G 4G 7
  22845998.5694  -32970299.72348 -25377621.34246  22845996.3384   22846002.9784
     -1223.8794       -953.6734
  24734787.1204  -17271086.56547 -12510878.48245  24734785.4024   24734794.3464
     -1874.6544      -1460.7634
  21140640.5564  -38489137.82048 -29427545.06247  21140638.1284   21140643.9114
     -2013.8174      -1569.2084
  22853918.8394  -17441441.66548 -13564277.24346  22853916.3514   22853923.9994
      3553.2134       2768.7324
  22395798.1034  -17222471.65148 -13049878.66846  22395796.5024   22395803.1034
      4166.5794       3246.6844
  20846325.5254  -29663533.39049 -23087135.05747  20846323.7344   20846328.7804
      1719.7004       1340.0254
  20696527.4714  -25317436.73649 -19392902.25847  20696526.1184   20696531.6104
      2258.5874       1759.9364
  21780825.5074  -33035989.81048 -25408845.30347  21780823.5724   21780829.0394
     -1269.5924       -989.2934
 00  1  6  0 22 59.9990000  0  8G 2G26G 8G 5G24G 9G 4G 7
  22853029.2314  -32933352.58848 -25348831.39546  22853026.3494   22853033.6274
     -1239.1014       -965.5304
  24745503.6264  -17214766.90847 -12466993.08545  24745503.1794   24745511.7374
     -1880.1004      -1465.0164
  21152196.8274  -38428408.64248 -29380223.64447  21152194.8354   21152200.8924
     -2034.6924      -1585.4724
  22833659.1384  -17547902.33148 -13647233.47746  22833657.4534   22833664.3374
      3544.2414       2761.7424
  22372052.4054  -17347254.28148 -13147111.76546  22372050.5474   22372057.3494
      4152.2984       3235.5544
  20836580.0954  -29714744.58849 -23127039.85347  20836578.3804   20836583.6264
      1694.4294       1320.3334
  20683711.9054  -25384784.07349 -19445380.66647  20683710.3654   20683715.7764
      2231.2474       1738.6334
  21788105.3234  -32997736.60348 -25379037.60847  21788103.1414   21788108.6494
     -1280.6824       -997.9344
 00  1  6  0 23 29.9990000  0  8G 2G26G 8G 5G24G 9G 4G 7
  22860104.3024  -32896168.80748 -25319857.05046  22860102.6824   22860109.8244
     -1241.4944       -967.3984
  24756213.7074  -17158491.50747 -12423142.18145  24756211.8864   24756220.9094
     -1873.5274      -1459.8914
  21163833.0354  -38367262.37848 -29332577.22647  21163830.5454   21163836.3184
     -2043.4554      -1592.3024
  22813411.6754  -17654302.42848 -13730142.52846  22813409.9254   22813416.4214
      3547.2324       2764.0724
  22348348.8054  -17471818.39248 -13244174.58246  22348346.8304   22348353.8704
      4150.0574       3233.8074
  20826938.6394  -29765411.22749 -23166520.31847  20826936.9784   20826942.4084
      1681.6724       1310.3934
  20671010.7594  -25451524.74348 -19497386.33747  20671009.5884   20671015.2194
      2216.4194       1727.0794
  21795407.2324  -32959365.21448 -25349137.82947  21795404.7614   21795410.4784
     -1279.3194       -996.8724
 00  1  6  0 23 59.9990000  0  8G 2G26G 8G 5G24G 9G 4G 7
  22867219.4204  -32858780.76048 -25290723.52646  22867217.1424   22867224.5834
     -1251.3134       -975.0464
  24766912.7194  -17102267.45947 -12379331.28045  24766910.9634   24766919.9244
     -1874.9154      -1460.9704
  21175542.3514  -38305729.55348 -29284629.58547  21175539.9374   21175546.0664
     -2058.8324      -1604.2834
  22793175.7354  -17760644.84148 -13813006.60846  22793173.8824   22793179.4664
      3542.0744       2760.0544
  22324685.2494  -17596169.56048 -13341071.48746  22324683.7644   22324690.5354
      4139.5694       3225.6334
  20817394.7654  -29815563.39849 -23205599.89447  20817393.0674   20817398.5414
      1661.5144       1294.6854
  20658421.5034  -25517684.73349 -19548939.53047  20658420.1324   20658425.3624
      2194.0064       1709.6144
  21802728.6294  -32920892.44448 -25319159.05647  21802726.2204   21802731.5644
     -1286.0474      -1002.1154
 00  1  6  0 24 29.9990000  0  8G 2G26G 8G 5G24G 9G 4G 7
  22874361.6784  -32821247.13748 -25261476.56946  22874359.4544   22874366.6834
     -1257.7994       -980.1034
  24777591.6124  -17046153.56547 -12335606.23245  24777589.2564   24777598.2644
     -1873.0544      -1459.5234
  21187307.5454  -38243897.45048 -29236448.74447  21187305.8354   21187312.0094
     -2070.1854      -1613.1324
  22772940.9324  -17866978.44248 -13895863.82846  22772938.6654   22772944.9494
      3539.9544       2758.3994
  22301055.4614  -17720344.07548 -13437830.75246  22301053.6934   22301060.8694
      4131.7554       3219.5454
  20807938.3094  -29865256.58249 -23244321.81247  20807936.6094   20807942.0244
      1644.4304       1281.3724
  20645930.6784  -25583323.27649 -19600086.39847  20645929.4774   20645934.6754
      2175.0674       1694.8564
  21810061.2044  -32882357.50348 -25289131.83747  21810059.0484   21810064.6574
     -1289.8694      -1005.0924
 00  1  6  0 24 59.9990000  0  8G 2G26G 8G 5G24G 9G 4G 7
  22881554.0614  -32783451.43548 -25232025.40046  22881551.9684   22881558.6514
     -1260.0144       -981.8284
  24788273.4724  -16990015.98447 -12291862.71545  24788272.1384   24788281.6304
     -1867.6204      -1455.2804
  21199153.1874  -38181653.00648 -29187946.60447  21199150.8424   21199157.3164
     -2077.7304      -1619.0094
  22752731.7914  -17973177.98348 -13978616.57346  22752729.8734   22752735.8414
      3542.0004       2759.9974
  22277484.9904  -17844203.61348 -13534344.58846  22277483.7964   22277490.8894
      4127.4784       3216.2124
  20798595.0144  -29914358.43649 -23282582.95847  20798593.1884   20798598.3414
      1630.7194       1270.6894
  20633561.5504  -25648324.51549 -19650736.66147  20633560.1324   20633565.1914
      2160.2274       1683.2934
  21817428.6914  -32843641.86248 -25258963.81547  21817426.3554   21817431.9184
     -1289.5124      -1004.8134
 00  1  6  0 25 29.9990000  0  8G 2G26G 8G 5G24G 9G 4G 7
  22888793.5074  -32745408.02848 -25202381.21146  22888791.5654   22888798.0784
     -1265.8194       -986.3524
  24798958.4504  -16933862.96147 -12248107.19345  24798957.3184   24798966.4584
     -1865.3874      -1453.5474
  21211076.4234  -38118994.43448 -29139121.76447  21211074.5014   21211080.8924
     -2089.0614      -1627.8394
  22732544.9684  -18079259.80148 -14061277.59446  22732542.9984   22732549.4244
      3540.5514       2758.8654
  22253975.2424  -17967748.71748 -13630613.41746  22253973.7944   22253980.6924
      4119.2874       3209.8314
  20789366.9694  -29962851.18749 -23320369.47647  20789365.1984   20789370.5814
      1612.5874       1256.5604
  20621310.5894  -25712702.38949 -19700901.19047  20621309.3054   20621314.4694
      2142.0304       1669.1134
  21824830.8594  -32804742.98848 -25228653.01047  21824828.6354   21824834.2214
     -1293.4154      -1007.8554
 00  1  6  0 25 59.9990000  0  8G 2G26G 8G 5G24G 9G 4G 7
  22896058.4334  -32707231.95848 -25172633.65046  22896056.1704   22896063.0764
     -1278.7634       -996.4354
  24809620.8734  -16877834.45847 -12204448.68445  24809619.1824   24809628.8774
     -1869.2754      -1456.5734
  21223054.0024  -38056052.17248 -29090075.86347  21223052.0474   21223058.2604
     -2106.6284      -1641.5284
  22712356.2944  -18185350.45748 -14143945.50446  22712354.2934   22712360.7744
      3532.8024       2752.8284
  22230503.0974  -18091096.35048 -13726728.38546  22230501.0784   22230508.0574
      4104.5134       3198.3204
  20780234.8094  -30010841.20449 -23357764.24947  20780233.0704   20780238.2674
      1587.3194       1236.8694
  20609155.9404  -25776578.25749 -19750674.54447  20609154.1954   20609159.1404
      2116.7714       1649.4304
  21832244.6834  -32765782.51048 -25198294.20147  21832242.3494   21832247.9334
     -1303.7144      -1015.8814
 00  1  6  0 26 29.9990000  0  7G 2G 8G 5G24G 9G 4G 7
  22903363.4004  -32668843.06348 -25142720.25846  22903361.2284   22903368.2234
     -1283.3904      -1000.0444
  21235099.9844  -37992750.96048 -29040750.25646  21235097.9484   21235104.1254
     -2116.4684      -1649.1954
  22692178.8894  -18291384.59248 -14226569.37546  22692176.7584   22692183.5624
      3533.1434       2753.0944
  22207081.9124  -18214177.73448 -13822635.88546  22207079.6844   22207086.2184
      4098.0164       3193.2564
  20771214.3994  -30058244.37449 -23394701.74347  20771212.5194   20771217.6324
      1570.1514       1223.4924
  20597111.2324  -25839872.89249 -19799994.98547  20597109.6044   20597114.5224
      2099.8824       1636.2694
  21839683.8984  -32726689.22948 -25167831.90947  21839681.7384   21839687.4284
     -1305.4874      -1017.2634
 00  1  6  0 26 59.9990000  0  7G 2G 8G 5G24G 9G 4G 7
  22910695.5094  -32630312.65548 -25112696.59646  22910693.4094   22910700.1854
     -1286.3604      -1002.3574
  21247203.6794  -37929144.80348 -28991187.02646  21247201.6574   21247207.7914
     -2124.9864      -1655.8324
  22672000.0544  -18397424.14148 -14309197.45746  22671997.7614   22672004.5674
      3535.0924       2754.6134
  22183696.0334  -18337068.53048 -13918394.89046  22183694.2734   22183700.9814
      4093.5534       3189.7804
  20762291.1344  -30105133.92149 -23431239.01047  20762289.4474   20762294.3094
      1554.9324       1211.6344
  20585162.8394  -25902665.39949 -19848924.15847  20585161.3094   20585165.7074
      2085.1764       1624.8114
  21847133.9594  -32687537.87248 -25137324.36147  21847131.9874   21847137.3314
     -1305.8774      -1017.5674
 00  1  6  0 27 29.9990000  0  7G 2G 8G 5G24G 9G 4G 7
  22918073.5104  -32591540.52148 -25082484.57446  22918071.8654   22918078.0214
     -1299.0674      -1012.2574
  21259381.4314  -37865146.99448 -28941318.61846  21259379.3774   21259386.1834
     -2142.2724      -1669.3024
  22651837.4674  -18503375.32448 -14391756.69646  22651835.8034   22651842.6084
      3527.5734       2748.7554
  22160363.7044  -18459678.86648 -14013935.36646  22160362.4854   22160369.8824
      4079.7144       3178.9964
  20753480.9234  -30151433.20249 -23467316.32747  20753479.0404   20753483.8034
      1531.1444       1193.0984
  20573323.8404  -25964877.65849 -19897401.19447  20573322.3924   20573326.9454
      2061.4764       1606.3434
  21854614.7354  -32648228.97248 -25106694.05447  21854612.4554   21854617.8384
     -1315.6254      -1025.1624
 00  1  6  0 27 59.9990000  0  7G 2G 8G 5G24G 9G 4G 7
  22925500.1724  -32552516.12948 -25052075.98146  22925498.4874   22925504.2664
     -1301.0764      -1013.8244
  21271632.9114  -37800765.93248 -28891151.57846  21271630.9904   21271637.4554
     -2148.5554      -1674.1984
  22631692.9254  -18609232.82748 -14474242.93646  22631691.3054   22631698.2404
      3531.1134       2751.5124
  22137085.8214  -18582007.21648 -14109256.12046  22137084.1384   22137090.9374
      4076.8574       3176.7704
  20744779.6834  -30197159.29749 -23502947.00947  20744777.8024   20744782.3724
      1518.7644       1183.4514
  20561595.9294  -26026504.25649 -19945421.87847  20561594.6294   20561599.8574
      2048.3054       1596.0814
  21862124.6524  -32608761.60448 -25075940.27047  21862122.6534   21862128.3854
     -1314.4684      -1024.2614
 00  1  6  0 28 29.9990000  0  7G 2G 8G 5G24G 9G 4G 7
  22932969.2224  -32513265.18248 -25021490.86746  22932967.3114   22932973.8994
     -1310.6014      -1021.2444
  21283952.2654  -37736028.16248 -28840706.58146  21283950.2944   21283956.2904
     -2162.2074      -1684.8374
  22611562.0494  -18715023.71648 -14556677.26946  22611560.4184   22611567.0644
      3526.7654       2748.1264
  22113855.6914  -18704084.49148 -14204381.22446  22113853.5604   22113860.7204
      4066.5334       3168.7254
  20736178.2534  -30242358.30749 -23538166.97947  20736176.6874   20736181.5494
      1499.5194       1168.4554
  20549974.4184  -26087573.99249 -19993008.63747  20549973.4404   20549978.5064
      2027.8614       1580.1514
  21869662.2504  -32569154.09748 -25045077.28847  21869659.7504   21869665.4044
     -1321.0134      -1029.3604
 00  1  6  0 28 59.9990000  0  7G 2G 8G 5G24G 9G 4G 7
  22940485.8574  -32473767.26848 -24990713.29946  22940483.2864   22940490.3224
     -1324.7714      -1032.2914
  21296339.7284  -37670932.48848 -28789982.70146  21296337.4064   21296344.1124
     -2179.8344      -1698.5724
  22591445.9404  -18820738.54348 -14639052.34646  22591443.4784   22591449.6034
      3518.5744       2741.7424
  22090676.8354  -18825890.31648 -14299294.81646  22090674.9874   22090682.1254
      4051.5344       3157.0374
  20727678.9774  -30287022.42149 -23572970.14847  20727677.2974   20727681.8424
      1475.8414       1150.0054
  20538463.4164  -26148069.43349 -20040147.89647  20538461.9224   20538466.4994
      2002.7344       1560.5714
  21877227.9174  -32529396.00748 -25014096.97247  21877225.6664   21877231.1584
     -1332.0314      -1037.9474
 00  1  6  0 29 29.9990000  0  7G 2G 8G 5G24G 9G 4G 7
  22948056.9184  -32433981.27748 -24959711.26446  22948055.0754   22948061.6544
     -1328.3564      -1035.0794
  21308802.4634  -37605438.34748 -28738948.33146  21308800.8654   21308807.0104
     -2187.5144      -1704.5544
  22571349.4754  -18926341.04848 -14721339.91546  22571347.5294   22571353.6134
      3520.8224       2743.4944
  22067558.9484  -18947374.09648 -14393957.46546  22067557.3304   22067564.5544
      4046.5614       3153.1624
  20719289.4974  -30331107.09349 -23607321.80147  20719287.9114   20719292.9374
      1462.1144       1139.3094
  20527070.8774  -26207935.10449 -20086796.43147  20527069.6224   20527074.0274
      1987.3324       1548.5694
  21884830.8544  -32489440.63248 -24982962.92147  21884828.9464   21884834.0864
     -1332.7124      -1038.4764
 00  1  6  0 29 59.9990000  0  7G 2G 8G 5G24G 9G 4G 7
  22955669.6124  -32393976.21148 -24928538.51646  22955667.5114   22955674.0454
     -1339.2304      -1043.5574
  21321334.3994  -37539588.31948 -28687636.63046  21321331.8644   21321337.7164
     -2203.0504      -1716.6634
  22551262.6334  -19031895.05448 -14803589.70746  22551261.0784   22551267.5994
      3515.6134       2739.4364
  22044492.6074  -19068590.10148 -14488411.44146  22044490.6444   22044498.0104
      4033.8874       3143.2864
  20711003.2044  -30374651.93649 -23641252.80647  20711001.4384   20711006.4834
      1440.3164       1122.3234
  20515790.7184  -26267213.19249 -20132987.11547  20515789.2494   20515793.8464
      1963.9834       1530.3744
  21892460.1544  -32449347.66748 -24951721.65147  21892458.0784   21892463.1154
     -1340.8644      -1044.8304
 00  1  6  0 30 29.9990000  0  7G 2G 8G 5G24G 9G 4G 7
  22963335.8594  -32353689.89548 -24897146.61246  22963333.1984   22963340.6174
     -1343.6144      -1046.9674
  21333943.5394  -37473322.22248 -28636000.72646  21333941.9534   21333948.0784
     -2211.8094      -1723.4864
  22531198.3854  -19137336.35548 -14885751.67346  22531196.2564   22531202.7344
      3516.6994       2740.2824
  22021489.2674  -19189472.78648 -14582605.69046  22021487.6224   22021494.7584
      4027.6674       3138.4424
  20702834.1994  -30417578.30349 -23674701.88547  20702832.7064   20702837.7344
      1424.1914       1109.7584
  20504634.5894  -26325839.93349 -20178670.25447  20504633.2124   20504637.6544
      1947.3774       1517.4354
  21900127.9374  -32409053.63548 -24920323.70647  21900125.7474   21900131.1644
     -1342.4594      -1046.0734
 00  1  6  0 30 59.9990000  0  7G 2G 8G 5G24G 9G 4G 7
  22971041.8844  -32313192.31648 -24865590.07846  22971039.7154   22971047.2014
     -1354.8204      -1055.7084
  21346619.6124  -37406709.53848 -28584094.76446  21346617.8184   21346623.6064
     -2227.9074      -1736.0304
  22511141.5674  -19242733.06348 -14967878.90046  22511139.8914   22511146.3204
      3510.7944       2735.6834
  21998537.9844  -19310082.94048 -14676587.58146  21998535.9354   21998542.9234
      4014.2204       3127.9634
  20694776.1874  -30459926.99549 -23707700.83047  20694774.5074   20694779.0334
      1400.4994       1091.2974
  20493586.9314  -26383892.46249 -20223905.95147  20493585.6914   20493590.3414
      1924.0424       1499.2534
  21907819.0374  -32368636.53648 -24888829.86647  21907816.7964   21907822.1504
     -1350.9824      -1052.7124
 00  1  6  0 31 29.9990000  0  7G 2G 8G 5G24G 9G 4G 7
  22978793.9224  -32272453.73948 -24833845.76746  22978791.8874   22978799.0874
     -1361.1754      -1060.6554
  21359372.1534  -37339696.79948 -28531877.06746  21359370.1244   21359375.8114
     -2239.5304      -1745.0894
  22491105.1374  -19348027.90248 -15049926.75746  22491103.2204   22491109.4604
      3508.8244       2734.1474
  21975646.4554  -19430378.40648 -14770324.25146  21975644.4004   21975651.8564
      4005.3254       3121.0294
  20686835.6254  -30501655.53449 -23740216.54347  20686833.6814   20686838.4064
      1381.3314       1076.3614
  20482657.4224  -26441329.37949 -20268661.95647  20482656.0504   20482660.2654
      1904.9444       1484.3734
  21915540.9894  -32328058.24548 -24857210.42647  21915538.6294   21915544.0934
     -1354.4114      -1055.3844
 00  1  6  0 31 59.9990000  0  7G 2G 8G 5G24G 9G 4G 7
  22986575.0314  -32231565.63148 -24801984.93746  22986572.9824   22986579.6754
     -1367.5784      -1065.6454
  21372178.9284  -37272400.22648 -28479438.18846  21372176.3624   21372182.1864
     -2249.6384      -1752.9644
  22471072.7784  -19453303.77348 -15131959.83746  22471070.4074   22471075.6364
      3506.7434       2732.5254
  21952796.3234  -19550451.43448 -14863887.58046  21952795.1664   21952802.6054
      3996.6554       3114.2734
  20678993.9834  -30542859.26149 -23772323.30647  20678992.4604   20678997.8344
      1362.9064       1062.0044
  20471828.2004  -26498236.16148 -20313004.87147  20471826.8754   20471831.7434
      1886.0214       1469.6264
  21923272.3494  -32287427.82348 -24825550.36747  21923270.4094   21923276.1324
     -1357.1754      -1057.5394
 00  1  6  0 32 29.9990000  0  7G 2G 8G 5G24G 9G 4G 7
  22994393.0324  -32190482.08748 -24769971.80846  22994390.7104   22994397.7324
     -1373.7074      -1070.4224
  21385041.0814  -37204804.58648 -28426766.28146  21385039.1114   21385045.1034
     -2259.3654      -1760.5434
  22451051.5324  -19558512.32248 -15213940.46946  22451049.4444   22451055.2994
      3504.5974       2730.8504
  21929998.2034  -19670259.78848 -14957244.66646  21929996.3774   21930003.8244
      3987.9624       3107.4994
  20671258.2164  -30583512.48349 -23804001.10847  20671256.5304   20671261.6274
      1344.8594       1047.9404
  20461105.7664  -26554580.88848 -20356909.82147  20461104.4714   20461109.8094
      1867.6674       1455.3254
  21931019.2814  -32246718.97048 -24793829.18847  21931016.9794   21931022.6764
     -1359.4424      -1059.3044
 00  1  6  0 32 59.9990000  0  7G 2G 8G 5G24G 9G 4G 7
  23002246.5634  -32149206.99748 -24737809.42746  23002244.6174   23002252.2474
     -1377.2754      -1073.1984
  21397963.9194  -37136895.12648 -28373849.83846  21397961.9854   21397967.7434
     -2267.2734      -1766.7074
  22431047.7394  -19663633.27348 -15295852.83646  22431045.6004   22431051.6994
      3504.0344       2730.4144
  21907253.1774  -19789783.83348 -15050380.20846  21907251.6554   21907258.4824
      3980.9604       3102.0444
  20663626.1064  -30623621.50949 -23835254.87247  20663624.4304   20663629.0934
      1329.9564       1036.3294
  20450492.7414  -26610354.59848 -20400369.82747  20450491.5524   20450495.8154
      1851.0544       1442.3804
  21938780.0374  -32205934.66748 -24762049.22247  21938778.0614   21938783.9104
     -1359.2314      -1059.1414
 00  1  6  0 33 29.9990000  0  7G 2G 8G 5G24G 9G 4G 7
  23010159.3284  -32107626.54047 -24705409.10946  23010157.2874   23010165.5404
     -1389.7404      -1082.9134
  21410968.5804  -37068557.48148 -28320599.74446  21410966.1754   21410971.9034
     -2283.4694      -1779.3254
  22411084.8024  -19768534.94348 -15377594.34146  22411083.2244   22411089.5444
      3494.6924       2723.1324
  21884585.6084  -19908905.43448 -15143202.15346  21884583.9734   21884590.6194
      3965.4674       3089.9684
  20656114.0564  -30663097.22549 -23866015.14747  20656112.1254   20656117.2014
      1306.7324       1018.2314
  20440012.7394  -26665428.48649 -20443284.50847  20440011.4604   20440015.3984
      1825.6494       1422.5824
  21946577.7974  -32164959.57648 -24730120.59247  21946575.2094   21946580.9944
     -1367.5384      -1065.6154
 00  1  6  0 33 59.9990000  0  7G 2G 8G 5G24G 9G 4G 7
  23018112.0304  -32065834.23847 -24672843.70346  23018110.2484   23018117.3984
     -1397.5674      -1089.0134
  21424031.7524  -36999907.91048 -28267106.59146  21424029.8544   21424035.0404
     -2294.5184      -1787.9374
  22391142.2234  -19873334.53948 -15459256.30546  22391140.3354   22391146.8004
      3490.9974       2720.2544
  21861972.8624  -20027734.70648 -15235796.30146  21861971.1504   21861978.6624
      3955.3504       3082.0904
  20648701.2914  -30702050.03649 -23896367.96247  20648699.6544   20648704.4434
      1289.0414       1004.4484
  20429643.5674  -26719920.31749 -20485745.64047  20429642.0924   20429646.3684
      1806.1144       1407.3594
  21954390.2134  -32123900.36648 -24698126.41547  21954388.2054   21954394.2764
     -1371.0814      -1068.3754
 00  1  6  0 34 29.9990000  0  7G 2G 8G 5G24G 9G 4G 7
  23026106.4584  -32023823.96047 -24640108.44446  23026104.8134   23026112.0524
     -1409.2614      -1098.1234
  21437158.4214  -36930926.75648 -28213355.05946  21437156.5574   21437162.1444
     -2310.4694      -1800.3644
  22371217.4204  -19978040.77048 -15540845.50846  22371215.1954   22371221.6944
      3483.3204       2714.2724
  21839415.5704  -20146274.09548 -15328164.55246  21839413.7284   21839421.2684
      3941.0414       3070.9414
  20641387.3904  -30740484.51049 -23926316.88047  20641385.8014   20641390.4154
      1267.1114        987.3574
  20419380.7984  -26773849.30449 -20527768.19547  20419379.3374   20419383.9334
      1782.6994       1389.1144
  21962222.7684  -32082741.38648 -24666054.49847  21962220.7114   21962226.6424
     -1379.2564      -1074.7444
 00  1  6  0 34 59.9990000  0  7G 2G 8G 5G24G 9G 4G 7
  23034169.5694  -31981454.89847 -24607093.61546  23034166.6424   23034174.2184
     -1411.8024      -1100.1044
  21450375.8384  -36861469.03648 -28159232.18546  21450373.5684   21450379.4914
     -2316.2974      -1804.9044
  22351334.5514  -20082523.52148 -15622260.56046  22351332.6444   22351338.9514
      3485.9484       2716.3214
  21816938.6124  -20264387.44948 -15420200.83346  21816937.1694   21816944.7434
      3936.8234       3067.6514
  20634197.8294  -30778263.79249 -23955755.26447  20634196.4004   20634201.5534
      1255.2134        978.0874
  20409253.4964  -26827065.84249 -20569235.59747  20409252.3244   20409257.4354
      1768.5734       1378.1084
  21970102.1804  -32041335.72648 -24633790.36146  21970099.9144   21970105.2544
     -1377.7264      -1073.5514
 00  1  6  0 35 29.9990000  0  7G 2G 8G 5G24G 9G 4G 7
  23042275.1924  -31938859.19047 -24573902.16946  23042272.7494   23042279.9074
     -1424.3884      -1109.9124
  21463653.7254  -36791696.67448 -28104864.13346  21463651.2794   21463656.9314
     -2331.7564      -1816.9524
  22331462.3834  -20186956.12048 -15703636.53446  22331460.1754   22331466.2574
      3479.8684       2711.5834
  21794511.2334  -20382241.53748 -15512035.08946  21794510.0714   21794517.3044
      3923.3564       3057.1574
  20627105.2544  -30815537.45949 -23984799.65847  20627103.6144   20627108.5094
      1232.9944        960.7744
  20399235.6494  -26879711.03349 -20610257.79247  20399234.3404   20399239.4904
      1744.4554       1359.3164
  21978000.6654  -31999827.85548 -24601446.57446  21977998.6494   21978004.1854
     -1386.1554      -1080.1194
 00  1  6  0 35 59.9990000  0  7G 2G 8G 5G24G 9G 4G 7
  23050422.3854  -31896046.52747 -24540541.66645  23050420.1994   23050426.8324
     -1434.8454      -1118.0624
  21476988.0394  -36721618.97048 -28050258.14846  21476986.2134   21476992.1154
     -2345.5374      -1827.6904
  22311591.5264  -20291375.30248 -15785002.04346  22311589.6284   22311595.9494
      3476.1894       2708.7184
  21772132.1734  -20499845.61448 -15603674.52546  21772130.6054   21772137.7514
      3911.6024       3047.9964
  20620110.8084  -30852296.25849 -24013442.86147  20620108.8494   20620113.8574
      1212.3154        944.6614
  20389325.4584  -26931791.80049 -20650840.17547  20389323.9914   20389328.8284
      1722.1924       1341.9684
  21985917.8964  -31958221.96748 -24569026.41446  21985915.8654   21985921.7204
     -1393.0344      -1085.4814
 00  1  6  0 36 29.9990000  0  7G 2G 8G 5G24G 9G 4G 7
  23058613.5054  -31853001.83347 -24507000.35845  23058611.3994   23058618.2204
     -1437.6874      -1120.2764
  21490389.4554  -36651195.08048 -27995382.40346  21490387.4034   21490393.5664
     -2352.2044      -1832.8864
  22291729.3414  -20395752.01648 -15866334.45846  22291727.0154   22291733.4004
      3479.3074       2711.1474
  21749808.5504  -20617160.16948 -15695088.35946  21749806.6904   21749813.8784
      3906.3554       3043.9114
  20613222.7674  -30888490.39349 -24041646.06747  20613221.2084   20613225.8954
      1197.6914        933.2664
  20379530.3544  -26983263.30149 -20690947.80447  20379528.8214   20379533.8804
      1706.1564       1329.4714
  21993861.5714  -31916481.99948 -24536501.77347  21993859.4504   21993864.8824
     -1392.5484      -1085.1034
 00  1  6  0 36 59.9990000  0  7G 2G 8G 5G24G 9G 4G 7
  23066855.3154  -31809688.11847 -24473249.43146  23066853.4904   23066860.7444
     -1450.1274      -1129.9714
  21503861.9334  -36580394.83448 -27940213.39746  21503860.5874   21503866.6404
     -2368.1224      -1845.2904
  22271883.8654  -20500040.89548 -15947598.42446  22271881.8094   22271887.7824
      3472.8534       2706.1174
  21727549.0924  -20734134.28548 -15786236.90746  21727547.2404   21727554.1844
      3891.4934       3032.3274
  20606455.1594  -30924056.24549 -24069359.71047  20606453.3304   20606457.7514
      1173.0784        914.0854
  20369863.1264  -27034063.53449 -20730532.37047  20369861.9984   20369866.9584
      1680.2934       1309.3194
  22001833.6074  -31874588.13348 -24503857.20746  22001831.5084   22001836.9224
     -1400.9134      -1091.6204
 00  1  6  0 37 29.9990000  0  7G 2G 8G 5G24G 9G 4G 7
  23075138.0074  -31766167.87947 -24439337.57546  23075135.5984   23075142.5064
     -1452.4384      -1131.7724
  21517396.9984  -36509274.20448 -27884794.73846  21517394.4974   21517400.8254
     -2374.5994      -1850.3344
  22252046.6564  -20604287.10448 -16028829.12946  22252044.4094   22252050.5774
      3475.4454       2708.1364
  21705344.1464  -20850818.85648 -15877159.84146  21705342.5214   21705349.4264
      3885.8474       3027.9294
  20599799.3614  -30959033.22949 -24096614.49447  20599797.4404   20599801.7874
      1157.3294        901.8144
  20360311.0664  -27084259.77149 -20769646.29347  20360309.6934   20360315.2344
      1664.7554       1297.2114
  22009822.8794  -31832604.83548 -24471142.95447  22009820.5484   22009826.2244
     -1399.5494      -1090.5574
 00  1  6  0 37 59.9990000  0  7G 2G 8G 5G24G 9G 4G 7
  23083447.0124  -31722500.53047 -24405311.06945  23083444.5444   23083451.7284
     -1457.9064      -1136.0334
  21530984.2844  -36437871.61648 -27829156.37546  21530982.1804   21530987.9564
     -2384.6864      -1858.1964
  22232213.9964  -20708506.65348 -16110039.05646  22232211.9734   22232217.9934
      3473.2664       2706.4384
  21683190.9714  -20967233.41948 -15967872.38246  21683189.4364   21683195.9644
      3875.9504       3020.2184
  20593250.4684  -30993447.65449 -24123430.91947  20593248.6964   20593253.0504
      1137.9624        886.7234
  20350862.9764  -27133911.74349 -20808336.11547  20350861.5494   20350866.5104
      1646.0724       1282.6524
  22017821.0524  -31790571.36248 -24438389.61046  22017819.0474   22017824.9164
     -1401.9034      -1092.3924
 00  1  6  0 38 29.9990000  0  7G 2G 8G 5G24G 9G 4G 7
  23091800.3554  -31678604.99847 -24371106.78245  23091797.9144   23091804.2574
     -1468.1824      -1144.0384
  21544638.1154  -36366119.61648 -27773245.74246  21544636.0314   21544641.9624
     -2398.2484      -1868.7674
  22212407.3204  -20812590.33748 -16191143.11446  22212405.3484   22212411.5474
      3465.9954       2700.7724
  21661105.3784  -21083291.16648 -16058306.89146  21661103.9164   21661110.8664
      3861.6344       3009.0634
  20586822.7054  -31027227.60249 -24149752.94547  20586820.8084   20586824.8114
      1114.6454        868.5544
  20341532.6914  -27182940.68549 -20846540.45147  20341531.5484   20341536.5404
      1622.8184       1264.5314
  22025841.2804  -31748422.37548 -24405546.25746  22025839.4564   22025845.4294
     -1407.7944      -1096.9844
 00  1  6  0 38 59.9990000  0  7G 2G 8G 5G24G 9G 4G 7
  23100186.7574  -31634531.86647 -24336764.10445  23100184.8994   23100191.5844
     -1472.6314      -1147.5034
  21558343.0114  -36294098.33048 -27717125.27346  21558341.2154   21558347.3334
     -2406.0064      -1874.8094
  22192616.5944  -20916588.90948 -16272180.84746  22192614.6014   22192621.0864
      3464.5154       2699.6204
  21639076.6614  -21199054.18248 -16148511.73746  21639075.0144   21639081.9534
      3853.1694       3002.4684
  20580499.3024  -31060457.23349 -24175646.15547  20580497.4824   20580501.5064
      1098.1194        855.6784
  20332309.8024  -27231407.74149 -20884306.95447  20332308.6364   20332313.7734
      1605.7004       1251.1944
  22033871.3504  -31706228.20748 -24372667.69146  22033868.9794   22033874.8064
     -1408.3294      -1097.4004
 00  1  6  0 39 29.9980000  0  7G 2G 8G 5G24G 9G 4G 7
  23108612.0474  -31590255.67747 -24302263.19745  23108610.3224   23108617.3394
     -1477.1584      -1151.0324
  21572107.0124  -36221767.59348 -27660763.68146  21572105.2274   21572111.2904
     -2414.1224      -1881.1354
  22172850.1564  -21020459.59348 -16353118.93446  22172848.6484   22172855.4314
      3462.6824       2698.1894
  21617113.4024  -21314475.71948 -16238450.49946  21617111.6504   21617118.1074
      3843.8854       2995.2344
  20574283.6904  -31093119.97049 -24201097.63447  20574281.8884   20574286.3074
      1081.5824        842.7924
  20323199.1394  -27279287.36149 -20921615.72447  20323197.7634   20323202.2014
      1588.2164       1237.5714
  22041920.7194  -31663927.21248 -24339705.88346  22041918.8114   22041924.7054
     -1409.8344      -1098.5714
 00  1  6  0 39 59.9980000  0  7G 2G 8G 5G24G 9G 4G 7
  23117069.0944  -31545815.23147 -24267634.29545  23117066.9094   23117074.0064
     -1481.7964      -1154.6404
  21585922.1084  -36149173.98148 -27604197.25146  21585919.6804   21585925.6034
     -2421.5524      -1886.9234
  22153097.5884  -21124261.59848 -16434003.50246  22153095.5934   22153102.7304
      3461.4874       2697.2614
  21595207.1504  -21429595.20948 -16328153.90246  21595205.1964   21595211.5974
      3834.6814       2988.0614
  20568165.9084  -31125268.70149 -24226148.58547  20568164.2194   20568168.5944
      1065.5844        830.3244
  20314195.1214  -27326604.42449 -20958486.12947  20314193.5954   20314197.8464
      1569.9304       1223.3224
  22049984.0034  -31621557.29548 -24306690.37346  22049981.7024   22049987.8614
     -1410.9044      -1099.4054
 00  1  6  0 40 29.9980000  0  7G 2G 8G 5G24G 9G 4G 7
  23125562.5634  -31501186.29147 -24232858.51245  23125559.7694   23125566.5134
     -1491.9344      -1162.5484
  21599784.7314  -36076324.62748 -27547431.53746  21599782.5114   21599788.5634
     -2433.7734      -1896.4474
  22133358.4524  -21227993.21048 -16514833.23746  22133356.5934   22133362.6454
      3455.5084       2692.5994
  21573359.6894  -21544400.56748 -16417612.53146  21573358.0564   21573364.9564
      3820.4254       2976.9534
  20562147.0004  -31156897.93849 -24250794.73647  20562144.9794   20562149.7614
      1044.4074        813.8244
  20305302.8654  -27373326.64749 -20994893.02047  20305301.8754   20305306.9864
      1546.2124       1204.8414
  22058058.8824  -31579122.22748 -24273624.09046  22058056.7784   22058062.0494
     -1416.9924      -1104.1504
 00  1  6  0 40 59.9980000  0  7G 2G 8G 5G24G 9G 4G 7
  23134106.1434  -31456278.84147 -24197865.71645  23134105.0334   23134112.1664
     -1497.1354      -1166.5984
  21613716.7304  -36003113.35348 -27490383.80946  21613714.2524   21613720.3764
     -2442.1554      -1902.9774
  22113649.5244  -21331563.31348 -16595537.11446  22113647.4684   22113654.0164
      3454.1294       2691.5264
  21551593.2764  -21658781.60648 -16506740.52246  21551591.6004   21551598.6644
      3809.8224       2968.6904
  20556247.9784  -31187896.41249 -24274949.37847  20556246.3474   20556250.9344
      1027.0434        800.2924
  20296545.6264  -27419348.68748 -21030754.31747  20296544.0984   20296549.1864
      1526.7664       1189.6864
  22066168.4684  -31536506.50148 -24240417.02446  22066166.2334   22066171.5494
     -1419.3434      -1105.9834
 00  1  6  0 41 29.9980000  0  7G 2G 8G 5G24G 9G 4G 7
  23142687.9874  -31411186.25947 -24162728.64645  23142685.6594   23142693.9614
     -1505.6204      -1173.2154
  21627697.6304  -35929639.23048 -27433131.26646  21627695.4654   21627701.8144
     -2452.5494      -1911.0764
  22093952.4524  -21435073.22848 -16676194.09346  22093950.3874   22093956.4974
      3450.1554       2688.4304
  21529890.6244  -21772828.94548 -16595608.48546  21529889.1034   21529896.0084
      3796.9074       2958.6244
  20550452.5904  -31218352.74649 -24298681.57847  20550451.1184   20550455.3194
      1006.8264        784.5384
  20287902.6434  -27464764.44549 -21066143.19447  20287901.8614   20287907.0844
      1504.4314       1172.2834
  22074292.4564  -31493814.95948 -24207150.88346  22074290.2744   22074295.7264
     -1423.2904      -1109.0564
 00  1  6  0 41 59.9980000  0  7G 2G 8G 5G24G 9G 4G 7
  23151326.2104  -31365789.26347 -24127354.38045  23151324.3654   23151331.7384
     -1514.6694      -1180.2594
  21641746.5934  -35855810.08748 -27375602.09046  21641744.4724   21641750.8894
     -2463.2944      -1919.4494
  22074286.7034  -21538416.20548 -16756721.00346  22074284.7864   22074290.6184
      3445.3864       2684.7134
  21508269.2944  -21886452.45248 -16684146.18646  21508267.5964   21508274.5314
      3784.1944       2948.7194
  20544781.9444  -31248154.46949 -24321903.69047  20544780.0514   20544784.1714
       986.0964        768.3864
  20279397.2174  -27509467.34449 -21100976.59147  20279395.9734   20279400.2514
      1481.9624       1154.7744
  22082446.8054  -31450963.31948 -24173759.99746  22082444.5294   22082450.2164
     -1427.5824      -1112.4024
 00  1  6  0 42 29.9980000  0  7G 2G 8G 5G24G 9G 4G 7
  23160007.5674  -31320170.64547 -24091807.42945  23160005.9104   23160012.6894
     -1523.5464      -1187.1804
  21655847.9314  -35781705.70548 -27317858.43846  21655846.1324   21655852.1954
     -2474.3214      -1928.0454
  22054641.0684  -21641654.28748 -16837166.18846  22054639.0124   22054645.1474
      3440.1354       2680.6214
  21486709.1864  -21999750.06148 -16772429.93946  21486707.5284   21486714.1954
      3771.7174       2938.9964
  20539219.6324  -31277385.54449 -24344681.13747  20539217.6524   20539221.7424
       965.4934        752.3324
  20271006.9934  -27553556.37449 -21135331.64747  20271005.4524   20271010.2354
      1460.0734       1137.7184
  22090616.3304  -31408030.82848 -24140306.11446  22090614.3944   22090619.9324
     -1432.0564      -1115.8894
 00  1  6  0 42 59.9980000  0  7G 2G 8G 5G24G 9G 4G 7
  23168729.2664  -31274342.15947 -24056096.93945  23168726.5924   23168733.1884
     -1533.5364      -1194.9614
  21670001.8114  -35707328.55648 -27259902.23946  21669999.4824   21670005.2914
     -2485.9814      -1937.1274
  22035013.8624  -21744794.20448 -16917534.88746  22035012.0974   22035018.1014
      3434.0154       2675.8534
  21465209.8024  -22112731.76448 -16860467.53746  21465207.7404   21465214.2054
      3758.5414       2928.7324
  20533763.0504  -31306054.62849 -24367020.67447  20533761.4234   20533765.8384
       944.1794        735.7244
  20262729.8294  -27597050.46049 -21169223.11247  20262728.5384   20262733.7334
      1437.7344       1120.3124
  22098801.2844  -31365020.18448 -24106791.33746  22098798.6904   22098804.3344
     -1437.1754      -1119.8774
 00  1  6  0 43 29.9980000  0  7G 2G 8G 5G24G 9G 4G 7
  23177504.4014  -31228229.01847 -24020164.63145  23177501.9974   23177509.0434
     -1541.5194      -1201.1774
  21684218.2204  -35632622.18248 -27201689.49446  21684216.4084   21684221.5814
     -2495.6424      -1944.6554
  22015419.1364  -21847766.33148 -16997772.84346  22015417.3394   22015423.1494
      3429.6814       2672.4754
  21443779.3964  -22225349.26348 -16948221.33346  21443777.1474   21443783.7344
      3747.9844       2920.5024
  20528424.0134  -31334113.46349 -24388884.68947  20528422.2004   20528426.6584
       925.2184        720.9514
  20254576.0214  -27639901.00749 -21202613.12747  20254574.6124   20254579.6494
      1417.7214       1104.7184
  22107009.6864  -31321883.19748 -24073178.10146  22107007.4034   22107012.4684
     -1440.0494      -1122.1164
 00  1  6  0 43 59.9980000  0  7G 2G 8G 5G24G 9G 4G 7
  23186339.7194  -31181796.28747 -23983983.30345  23186337.7084   23186344.7234
     -1551.2554      -1208.7694
  21698508.1884  -35557530.41348 -27143176.45046  21698506.0644   21698511.3614
     -2507.8034      -1954.1314
  21995867.2124  -21950513.65148 -17077835.62546  21995865.2844   21995870.6324
      3422.8724       2667.1724
  21422426.8804  -22337549.52548 -17035650.01546  21422425.8624   21422432.7654
      3734.5634       2910.0464
  20523211.1654  -31361506.41349 -24410229.83047  20523209.4654   20523213.7804
       903.7104        704.1904
  20246553.4914  -27682058.13349 -21235462.81147  20246552.2284   20246557.0614
      1395.2154       1087.1804
  22115254.4094  -31278556.09048 -24039416.72046  22115252.6094   22115258.0504
     -1445.8704      -1126.6514
 00  1  6  0 44 29.9980000  0  7G 2G 8G 5G24G 9G 4G 7
  23195199.7554  -31135229.57947 -23947697.59245  23195198.5854   23195205.8374
     -1553.4684      -1210.4934
  21712836.3044  -35482235.13848 -27084504.83346  21712834.0694   21712839.2194
     -2512.1504      -1957.5174
  21976322.5344  -22053223.36548 -17157869.11246  21976320.1694   21976326.0304
      3424.3634       2668.3334
  21401125.1164  -22449493.13848 -17122878.72046  21401123.6334   21401130.7714
      3727.8724       2904.8304
  20518089.8714  -31388418.33449 -24431200.14647  20518088.0714   20518092.5854
       890.1304        693.6084
  20238629.7754  -27723697.89449 -21267909.34947  20238628.4454   20238633.0824
      1380.3764       1075.6164
  22123500.5234  -31235221.86148 -24005649.79446  22123498.7334   22123504.1364
     -1443.5784      -1124.8644
 00  1  6  0 44 59.9980000  0  7G 2G 8G 5G24G 9G 4G 7
  23204102.1674  -31088454.51547 -23911249.51945  23204100.2654   23204107.1904
     -1570.5714      -1223.8184
  21727216.3174  -35406666.52348 -27025620.21446  21727214.4344   21727219.3874
     -2531.6024      -1972.6784
  21956795.4044  -22155839.80948 -17237829.92546  21956793.3274   21956798.8364
      3410.9474       2657.8804
  21379890.0644  -22561085.60548 -17209833.79946  21379888.4064   21379895.6174
      3705.8824       2887.6974
  20513073.2714  -31414780.37949 -24451741.98447  20513071.5054   20513076.2724
       861.7694        671.5074
  20230819.2424  -27764745.58949 -21299894.53047  20230817.7494   20230822.1194
      1350.3004       1052.1804
  22131762.4614  -31191805.10148 -23971818.55546  22131760.3914   22131766.2004
     -1456.6844      -1135.0784
 00  1  6  0 45 29.9980000  0  7G 2G 8G 5G24G 9G 4G 7
  23213050.2884  -31041431.20247 -23874608.00045  23213048.4304   23213055.6834
     -1570.4944      -1223.7694
  21741659.7044  -35330766.81248 -26966477.59946  21741657.7894   21741662.7174
     -2534.6414      -1975.0464
  21937293.3954  -22258320.03648 -17317684.61646  21937291.6044   21937296.9814
      3414.7214       2660.8214
  21358731.1434  -22672277.21148 -17296476.52146  21358729.3394   21358735.6784
      3700.5424       2883.5374
  20508168.3024  -31440555.54749 -24471826.51947  20508166.7804   20508171.5424
       850.1064        662.4204
  20223131.4094  -27805144.11849 -21331373.87047  20223129.9044   20223134.7104
      1336.5214       1041.4434
  22140049.0414  -31148257.80348 -23937885.59746  22140047.1134   22140052.4534
     -1453.0384      -1132.2384
 00  1  6  0 45 59.9980000  0  7G 2G 8G 5G24G 9G 4G 7
  23222036.2884  -30994207.81247 -23837810.58545  23222034.8104   23222041.9904
     -1578.0094      -1229.6184
  21756157.7154  -35254580.53848 -26907111.69046  21756155.6864   21756160.6914
     -2544.6214      -1982.8224
  21917808.6794  -22360717.23948 -17397474.61146  21917806.3464   21917811.7604
      3411.5094       2658.3174
  21337642.1434  -22783102.28248 -17382833.63246  21337640.3074   21337646.4864
      3687.6324       2873.4774
  20503370.4314  -31465771.07949 -24491474.96847  20503368.7294   20503373.3014
       830.8274        647.3974
  20215561.0664  -27844925.03649 -21362371.96047  20215559.8334   20215564.6034
      1315.2944       1024.9034
  22148354.9404  -31104611.38748 -23903875.40546  22148352.7204   22148358.7984
     -1456.9624      -1135.2954
 00  1  6  0 46 29.9980000  0  7G 2G 8G 5G24G 9G 4G 7
  23231075.7984  -30946710.63147 -23800799.82645  23231073.1424   23231080.5814
     -1588.8304      -1238.0464
  21770718.8534  -35178059.05048 -26847484.57646  21770716.8194   21770722.2464
     -2557.3944      -1992.7754
  21898349.0104  -22462974.57848 -17477155.61246  21898346.7704   21898353.1204
      3405.1564       2653.3664
  21316633.6854  -22893500.74648 -17468858.32546  21316632.3404   21316638.3064
      3671.7894       2861.1324
  20498688.9124  -31490372.28449 -24510644.71947  20498687.0394   20498691.7234
       808.7584        630.2004
  20208118.3404  -27884037.18749 -21392848.93947  20208117.1924   20208121.9524
      1291.7314       1006.5414
  22156689.6644  -31060810.71348 -23869745.01946  22156687.5214   22156693.6124
     -1463.8574      -1140.6684
 00  1  6  0 46 59.9980000  0  7G 2G 8G 5G24G 9G 4G 7
  23240157.9654  -30898985.51447 -23763611.44345  23240155.0634   23240161.5804
     -1592.7154      -1241.0814
  21785337.6444  -35101236.01848 -26787622.48746  21785335.3904   21785341.3814
     -2564.0194      -1997.9374
  21878911.2944  -22565118.81848 -17556748.49946  21878909.3874   21878914.8344
      3404.5054       2652.8604
  21295699.2384  -23003515.16348 -17554583.76346  21295697.1114   21295702.7044
      3662.6484       2854.0084
  20494118.7934  -31514386.90449 -24529357.39147  20494117.2864   20494122.0024
       792.2914        617.3694
  20200794.3224  -27922523.64249 -21422838.35747  20200792.9724   20200798.3384
      1274.1214        992.8224
  22165048.7714  -31016884.55748 -23835516.85346  22165046.8714   22165052.7044
     -1464.4554      -1141.1364
 00  1  6  0 47 29.9980000  0  7G 2G 8G 5G24G 9G 4G 7
  23249271.8154  -30851085.85147 -23726287.03645  23249268.6404   23249276.1744
     -1601.1674      -1247.6634
  21800002.6104  -35024173.48848 -26727573.78246  21800000.4174   21800005.9624
     -2574.0774      -2005.7734
  21859487.5414  -22667190.03848 -17636284.47646  21859485.5834   21859491.6344
      3399.3824       2648.8694
  21274825.0694  -23113209.45548 -17640059.76146  21274822.9254   21274828.9624
      3649.5914       2843.8364
  20489655.5054  -31537844.62049 -24547636.11647  20489653.5464   20489657.9834
       770.7974        600.6204
  20193579.3734  -27960439.80549 -21452383.39947  20193577.9484   20193583.2634
      1252.9414        976.3154
  22173418.7494  -30972901.56248 -23801244.40346  22173416.6804   22173422.5094
     -1468.6494      -1144.4024
 00  1  6  0 47 59.9980000  0  7G 2G 8G 5G24G 9G 4G 7
  23258435.2094  -30802930.92447 -23688763.72745  23258433.6824   23258440.7024
     -1605.1864      -1250.7954
  21814721.2694  -34946824.89448 -26667302.16946  21814719.4054   21814724.6334
     -2578.5694      -2009.2744
  21840094.9354  -22769101.00348 -17715695.58946  21840092.9674   21840098.2764
      3398.6794       2648.3214
  21254024.6324  -23222512.49048 -17725230.88446  21254022.9394   21254029.4264
      3641.1264       2837.2384
  20485313.7964  -31560657.76349 -24565412.57647  20485312.1694   20485316.6674
       754.2384        587.7184
  20186483.2364  -27997728.47249 -21481439.47747  20186482.0874   20186486.7874
      1236.8784        963.8024
  22181811.9884  -30928794.45148 -23766875.23646  22181809.9024   22181815.4094
     -1467.9044      -1143.8214
 00  1  6  0 48 29.9980000  0  7G 2G 8G 5G24G 9G 4G 7
  23267630.8164  -30754605.78547 -23651107.80045  23267629.3844   23267636.9544
     -1616.0474      -1259.2514
  21829476.8494  -34869282.93948 -26606879.88246  21829474.7884   21829480.4274
     -2590.6954      -2018.7234
  21820716.2084  -22870934.80748 -17795046.57946  21820714.2164   21820720.1524
      3390.7164       2642.1154
  21233283.5604  -23331505.49148 -17810160.42246  21233281.9914   21233288.6074
      3625.3874       2824.9754
  20481077.7144  -31582920.17049 -24582759.89347  20481075.9324   20481080.4424
       730.2984        569.0624
  20179488.6274  -28034486.18449 -21510081.82447  20179487.2394   20179491.7924
      1213.7814        945.8024
  22190209.3944  -30884667.83548 -23732490.86846  22190207.1294   22190212.7394
     -1473.7564      -1148.3804
 00  1  6  0 48 59.9980000  0  7G 2G 8G 5G24G 9G 4G 7
  23276870.6314  -30706059.83847 -23613279.81745  23276867.8394   23276874.8794
     -1624.3394      -1265.7184
  21844282.8674  -34791475.31348 -26546250.57846  21844280.7404   21844286.8644
     -2600.4344      -2026.3114
  21801365.0494  -22972629.11148 -17874288.85246  21801362.8334   21801369.0104
      3385.0354       2637.6894
  21212613.7664  -23440123.84748 -17894798.04046  21212612.4414   21212618.9764
      3611.8324       2814.4124
  20476959.0644  -31604560.91149 -24599622.79447  20476957.5014   20476961.9994
       708.6834        552.2204
  20172608.4024  -28070642.01549 -21538255.17347  20172607.2824   20172611.7134
      1192.5304        929.2424
  22198619.9214  -30840465.83648 -23698047.75846  22198618.0414   22198623.8294
     -1477.0524      -1150.9484
 00  1  6  0 49 29.9980000  0  7G 2G 8G 5G24G 9G 4G 7
  23286153.9194  -30657269.19747 -23575261.15745  23286152.6564   23286159.6434
     -1632.1484      -1271.8014
  21859141.3344  -34713396.35548 -26485409.84346  21859139.1524   21859145.3054
     -2608.7804      -2032.8154
  21782041.7874  -23074171.95648 -17953413.11346  21782039.5924   21782046.0654
      3380.6964       2634.3074
  21192019.3404  -23548347.61948 -17979128.19046  21192017.8144   21192024.4704
      3599.1574       2804.5344
  20472958.6964  -31625583.62249 -24616004.11447  20472957.1464   20472961.4664
       689.2094        537.0464
  20165846.8024  -28106175.90949 -21565943.89947  20165845.4384   20165849.7614
      1172.4194        913.5744
  22207047.5914  -30796181.60348 -23663540.57546  22207045.4544   22207050.8794
     -1479.3884      -1152.7674
 00  1  6  0 49 59.9980000  0  7G 2G 8G 5G24G 9G 4G 7
  23295480.2714  -30608264.86847 -23537075.97545  23295477.8814   23295484.9134
     -1634.1684      -1273.3674
  21874044.7094  -34635077.17748 -26424381.92746  21874042.4724   21874048.5104
     -2612.1124      -2035.4114
  21762738.2494  -23175609.64848 -18032455.43547  21762736.2824   21762743.0624
      3382.4744       2635.6954
  21171497.3384  -23656194.17848 -18063164.40946  21171495.6654   21171501.9234
      3591.0234       2798.1974
  20469064.3034  -31646051.30849 -24631952.94747  20469062.5124   20469066.5174
       676.0204        526.7694
  20159198.3604  -28141113.25649 -21593167.79247  20159197.0664   20159201.6784
      1157.1884        901.7054
  22215486.5704  -30751835.71148 -23628985.34146  22215484.3214   22215489.5484
     -1476.4914      -1150.5144
 00  1  6  0 50 29.9980000  0  7G 2G 8G 5G24G 9G 4G 7
  23304832.8844  -30559116.19447 -23498778.32445  23304830.1504   23304837.4854
     -1643.1584      -1280.3824
  21888985.7114  -34556560.15948 -26363199.84746  21888983.9524   21888989.6704
     -2623.1794      -2044.0324
  21743441.6254  -23277013.09048 -18111471.05347  21743439.8074   21743446.5764
      3376.8604       2631.3174
  21151037.4494  -23763711.99248 -18146944.46546  21151035.7804   21151042.2364
      3575.7924       2786.3304
  20465259.8644  -31666041.03249 -24647529.34347  20465258.1904   20465262.9374
       655.7814        510.9994
  20152653.8004  -28175504.06249 -21619965.81047  20152652.3434   20152657.4564
      1134.5624        884.0734
  22223924.1114  -30707493.47848 -23594432.95446  22223922.2784   22223927.6564
     -1480.7804      -1153.8554
 00  1  6  0 50 59.9980000  0  7G 2G 8G 5G24G 9G 4G 7
  23314246.7504  -30509646.56347 -23460230.57645  23314244.2274   23314250.8464
     -1651.0874      -1286.5524
  21903996.8634  -34477674.55948 -26301730.57046  21903995.0944   21904000.9894
     -2632.0714      -2050.9634
  21724187.6964  -23378193.41748 -18190312.80147  21724185.8494   21724192.3744
      3372.2674       2627.7394
  21130675.2364  -23870716.19948 -18230324.31446  21130673.6154   21130679.4834
      3561.6594       2775.3164
  20461579.3474  -31685384.31749 -24662602.01747  20461577.5284   20461581.8544
       637.5314        496.7764
  20146248.7694  -28209163.18149 -21646193.68247  20146247.3814   20146252.2984
      1113.1154        867.3624
  22232397.6014  -30662967.93548 -23559737.72746  22232395.4514   22232400.8814
     -1483.8914      -1156.2804
 00  1  6  0 51 29.9980000  0  7G 2G 8G 5G24G 9G 4G 7
  23323692.9134  -30460005.23047 -23421549.04445  23323690.9784   23323697.1844
     -1655.1894      -1289.7564
  21919044.6104  -34398598.18348 -26240112.63946  21919042.6334   21919049.1714
     -2636.7544      -2054.6094
  21704945.4734  -23479312.80048 -18269107.06046  21704943.5554   21704949.4144
      3372.0014       2627.5324
  21110379.1404  -23977370.51448 -18313431.52646  21110377.7674   21110384.0464
      3551.5454       2767.4374
  20457989.5634  -31704249.39149 -24677302.05947  20457987.6344   20457992.0884
       623.0394        485.4844
  20139951.9114  -28242251.59249 -21671976.85147  20139950.5964   20139955.7094
      1095.6684        853.7684
  22240874.5164  -30618422.52148 -23525027.02946  22240872.0364   22240877.7434
     -1482.9554      -1155.5504
 00  1  6  0 51 59.9980000  0  7G 2G 8G 5G24G 9G 4G 7
  23333183.3754  -30410132.43947 -23382687.16345  23333181.4224   23333188.0584
     -1668.9464      -1300.4754
  21934142.6204  -34319262.61348 -26178292.73846  21934140.2004   21934146.2204
     -2651.6614      -2066.2304
  21685727.6004  -23580305.61848 -18347802.69847  21685725.4264   21685731.0884
      3361.3214       2619.2094
  21090164.0984  -24083599.11748 -18396207.00746  21090162.5404   21090169.5394
      3531.0794       2751.4894
  20454506.8004  -31722549.17649 -24691561.62147  20454505.2614   20454509.8864
       597.5334        465.6114
  20133777.8074  -28274699.62649 -21697261.02347  20133776.1464   20133781.2384
      1068.0884        832.2774
  22249366.3684  -30573794.93248 -23490252.30846  22249363.9034   22249369.7834
     -1491.7204      -1162.3784
 00  1  6  0 52 29.9980000  0  7G 2G 8G 5G24G 9G 4G 7
  23342705.8554  -30360084.54047 -23343688.82245  23342704.7254   23342712.2504
     -1675.6594      -1305.7104
  21949277.7864  -34239723.87648 -26116314.51346  21949276.0514   21949281.8584
     -2659.0404      -2071.9804
  21666527.7904  -23681200.03948 -18426421.64847  21666525.8924   21666531.5594
      3356.8404       2615.7164
  21070019.9054  -24189459.37648 -18478695.47246  21070018.5774   21070024.8354
      3518.0714       2741.3514
  20451126.9564  -31740310.03849 -24705401.24047  20451125.1834   20451129.7744
       578.2184        450.5594
  20127716.1064  -28306552.66649 -21722081.55947  20127714.9234   20127720.0534
      1047.1514        815.9614
  22257864.5564  -30529137.24948 -23455454.12846  22257862.6764   22257868.3274
     -1493.8814      -1164.0614
 00  1  6  0 52 59.9980000  0  7G 2G 8G 5G24G 9G 4G 7
  23352282.4264  -30309760.99947 -23304475.66845  23352281.2744   23352287.6254
     -1684.0644      -1312.2614
  21964467.5094  -34159898.37148 -26054112.84646  21964465.6844   21964472.7034
     -2667.7164      -2078.7404
  21647365.9924  -23781897.23148 -18504886.91647  21647363.9204   21647369.0564
      3351.4794       2611.5404
  21049964.5234  -24294854.58148 -18560821.56046  21049962.5554   21049968.9864
      3503.5164       2730.0094
  20447872.9624  -31757409.57849 -24718725.54547  20447871.1784   20447875.9284
       556.8344        433.8964
  20121787.8744  -28337706.51049 -21746357.26847  20121786.5414   20121791.2024
      1024.8154        798.5574
  22266389.7664  -30484335.05648 -23420543.34146  22266387.6544   22266393.6314
     -1497.9634      -1167.2424
 00  1  6  0 53 29.9980000  0  7G 2G 8G 5G24G 9G 4G 7
  23361900.7004  -30259218.07347 -23265091.58245  23361899.1974   23361906.1144
     -1683.6484      -1311.9294
  21979702.9644  -34079839.29648 -25991729.16946  21979700.8764   21979707.4364
     -2667.9734      -2078.9384
  21628227.5554  -23882466.84948 -18583252.76847  21628225.8754   21628231.5824
      3354.6994       2614.0474
  21029983.9654  -24399849.24848 -18642635.53246  21029982.5994   21029988.9294
      3497.7524       2725.5204
  20444736.1414  -31773892.48349 -24731569.35847  20444734.5274   20444739.4484
       543.8574        423.7844
  20115980.6144  -28368226.11249 -21770138.75747  20115979.2074   20115983.8374
      1011.5334        788.2064
  22274932.5224  -30439441.29248 -23385561.19746  22274930.3694   22274936.3234
     -1493.4524      -1163.7274
 00  1  6  0 53 59.9980000  0  7G 2G 8G 5G24G 9G 4G 7
  23371552.4204  -30208502.14447 -23225572.67145  23371549.4744   23371557.1484
     -1692.9814      -1319.1984
  21994976.1234  -33999581.62748 -25929190.73546  21994973.8724   21994979.8984
     -2678.0394      -2086.7834
  21609109.5584  -23982933.89248 -18661538.68747  21609107.4934   21609112.8374
      3347.5334       2608.4654
  21010071.5104  -24504489.25348 -18724173.15146  21010070.0594   21010076.0694
      3482.7824       2713.8544
  20441708.5554  -31789804.16749 -24743968.06047  20441706.9794   20441711.6104
       521.5514        406.4034
  20110283.5034  -28398163.80849 -21793466.81547  20110282.0264   20110286.7284
       988.7344        770.4414
  22283486.5554  -30394491.03348 -23350535.03246  22283484.8674   22283490.3734
     -1498.9634      -1168.0234
 00  1  6  0 54 29.9980000  0  7G 2G 8G 5G24G 9G 4G 7
  23381251.4814  -30157522.93047 -23185848.62945  23381250.8214   23381257.9164
     -1704.9314      -1328.5164
  22010300.8264  -33919041.93548 -25866432.55646  22010299.5494   22010305.9594
     -2690.5864      -2096.5604
  21590029.2444  -24083202.03448 -18739669.62547  21590026.9954   21590032.1664
      3337.9484       2600.9954
  20990241.3544  -24608700.25748 -18805376.48246  20990239.6024   20990245.3154
      3465.3004       2700.2324
  20438803.0134  -31805072.15849 -24755865.18647  20438801.3314   20438805.7984
       497.2684        387.4824
  20104712.5924  -28427434.74249 -21816275.31547  20104711.4244   20104716.6934
       963.4034        750.7024
  22292070.1704  -30349385.84648 -23315388.14446  22292068.0304   22292073.7434
     -1507.3824      -1174.5834
 00  1  6  0 54 59.9980000  0  7G 2G 8G 5G24G 9G 4G 7
  23390997.3894  -30106318.67547 -23145949.22745  23390995.2774   23391001.9714
     -1713.2164      -1334.9774
  22025674.4674  -33838261.05248 -25803486.43346  22025671.7584   22025677.8224
     -2699.2994      -2103.3504
  21570975.8314  -24183325.20748 -18817687.59347  21570974.3634   21570979.9734
      3332.3334       2596.6194
  20970483.6364  -24712526.63948 -18886280.10946  20970482.0704   20970487.9214
      3451.9424       2689.8234
  20436007.5874  -31819763.46849 -24767312.95447  20436005.8094   20436010.5804
       477.9084        372.3954
  20099258.7654  -28456096.56949 -21838609.18647  20099257.4824   20099262.3774
       942.7814        734.6344
  22300672.1264  -30304184.39848 -23280166.24546  22300669.3864   22300675.2114
     -1510.7284      -1177.1894
 00  1  6  0 55 29.9980000  0  7G 2G 8G 5G24G 9G 4G 7
  23400769.9384  -30054960.57147 -23105929.92745  23400767.7394   23400774.7204
     -1712.0944      -1334.0954
  22041078.3524  -33757309.93048 -25740407.65246  22041076.3684   22041082.0564
     -2698.9004      -2103.0404
  21551940.5284  -24283355.41748 -18895633.12647  21551938.9284   21551944.7584
      3334.8574       2598.5874
  20950785.3004  -24816039.06848 -18966939.10247  20950784.2014   20950790.3374
      3447.2154       2686.1404
  20433303.2404  -31833975.56549 -24778387.30747  20433301.5034   20433306.1764
       468.1644        364.8034
  20093906.4224  -28484226.25349 -21860528.40047  20093904.8254   20093909.6334
       930.8434        725.3314
  22309274.0034  -30258976.25848 -23244939.13446  22309272.2634   22309277.6794
     -1504.7104      -1172.5004
 00  1  6  0 55 59.9980000  0  7G 2G 8G 5G24G 9G 4G 7
  23410596.1304  -30003324.93247 -23065694.37045  23410593.8284   23410600.5124
     -1725.2294      -1344.3354
  22056539.5444  -33676062.56048 -25677098.02446  22056537.2964   22056543.0104
     -2712.5524      -2113.6754
  21532949.3424  -24383158.00448 -18973401.29347  21532947.2934   21532952.8434
      3323.7294       2589.9164
  20931175.3164  -24919090.30748 -19047238.71347  20931174.0704   20931180.2674
      3427.6204       2670.8714
  20430712.8664  -31847587.30449 -24788993.85047  20430711.1364   20430715.9144
       444.1644        346.1024
  20088683.2654  -28511670.52249 -21881913.52747  20088682.0194   20088686.7364
       903.5904        704.0964
  22317901.4674  -30213641.07848 -23209613.02346  22317899.0464   22317905.0264
     -1512.8014      -1178.8074
 00  1  6  0 56 29.9980000  0  7G 2G 8G 5G24G 9G 4G 7
  23420460.5354  -29951488.44947 -23025302.29045  23420459.0654   23420464.6914
     -1730.3704      -1348.3414
  22072041.7834  -33594598.12548 -25613619.26046  22072039.6884   22072045.5384
     -2718.2334      -2118.1024
  21513983.6284  -24482821.39748 -19051061.00447  21513981.4554   21513987.8484
      3320.8424       2587.6684
  20911644.6444  -25021727.42748 -19127215.63446  20911642.9304   20911648.6254
      3415.0384       2661.0674
  20428224.4774  -31860664.00049 -24799183.47847  20428222.7144   20428227.6944
       427.8874        333.4184
  20083582.3454  -28538478.02349 -21902802.46147  20083580.8214   20083585.4314
       883.8254        688.6934
  22326537.9474  -30168256.17548 -23174248.17446  22326535.5184   22326541.4424
     -1512.6334      -1178.6754
 00  1  6  0 56 59.9980000  0  7G 2G 8G 5G24G 9G 4G 7
  23430353.0254  -29899496.08447 -22984788.76545  23430351.3344   23430358.8624
     -1733.1254      -1350.4884
  22087575.6524  -33512968.42548 -25550011.72346  22087572.8304   22087579.1004
     -2721.0244      -2120.2754
  21495034.3134  -24582395.48448 -19128651.12547  21495032.9254   21495039.1794
      3320.3104       2587.2514
  20892184.5664  -25123987.77348 -19206898.97146  20892183.1884   20892189.1644
      3404.9134       2653.1774
  20425830.0834  -31873245.17249 -24808986.98147  20425828.4844   20425833.3924
       413.6754        322.3444
  20078592.9314  -28564696.51449 -21923232.42647  20078591.6694   20078596.4364
       866.8244        675.4464
  22335172.5514  -30122881.59748 -23138891.36546  22335170.3264   22335176.2964
     -1509.9144      -1176.5564
 00  1  6  0 57 29.9980000  0  7G 2G 8G 5G24G 9G 4G 7
  23440286.0224  -29847299.21647 -22944115.89145  23440284.3944   23440291.7684
     -1742.0354      -1357.4254
  22103148.9734  -33431129.18148 -25486240.91946  22103146.5074   22103152.5134
     -2730.2994      -2127.5044
  21476112.8944  -24681833.35448 -19206135.10847  21476110.7844   21476117.1074
      3313.6624       2582.0714
  20872808.9984  -25225809.21248 -19286240.29947  20872807.2854   20872813.3574
      3387.8414       2639.8744
  20423541.2654  -31885270.72449 -24818357.53547  20423539.7184   20423544.7884
       392.6614        305.9694
  20073724.6644  -28590278.11249 -21943166.11447  20073723.4994   20073728.5514
       843.2854        657.1054
  22343818.5844  -30077445.67948 -23103486.76446  22343816.2154   22343822.1364
     -1514.4814      -1180.1134
 00  1  6  0 57 59.9980000  0  7G 2G 8G 5G24G 9G 4G 7
  23450260.0854  -29794886.36247 -22903274.70445  23450257.7854   23450266.1304
     -1750.7074      -1364.1804
  22118763.9894  -33349068.62348 -25422297.65446  22118762.2874   22118768.1164
     -2738.9694      -2134.2624
  21457216.5484  -24781133.21648 -19283511.55747  21457214.8994   21457221.0604
      3307.7294       2577.4504
  20853518.1344  -25327182.67248 -19365232.54747  20853516.4594   20853522.6584
      3371.9114       2627.4614
  20421363.5774  -31896717.60949 -24827277.18447  20421361.9054   20421367.0144
       371.9624        289.8414
  20068978.6744  -28615217.61149 -21962599.46447  20068977.6074   20068982.3904
       820.9754        639.7214
  22352479.8134  -30031928.94048 -23068019.18146  22352477.9724   22352483.5214
     -1518.7024      -1183.4054
 00  1  6  0 58 29.9980000  0  7G 2G 8G 5G24G 9G 4G 7
  23460285.6564  -29742202.28647 -22862222.18645  23460284.0804   23460290.6134
     -1758.3644      -1370.1534
  22134432.4314  -33266732.99748 -25358140.05446  22134430.3814   22134436.1404
     -2746.7324      -2140.3124
  21438358.8434  -24880232.92548 -19360732.06047  21438356.7804   21438362.6744
      3302.2574       2573.1854
  20834318.9914  -25428076.16348 -19443850.79347  20834317.1734   20834323.6834
      3357.5874       2616.3004
  20419305.4604  -31907530.92949 -24835703.14247  20419304.0094   20419309.0894
       352.3334        274.5444
  20064359.0324  -28639497.22149 -21981518.62147  20064357.5864   20064362.1364
       801.0334        624.1814
  22361167.4924  -29986276.55248 -23032445.89346  22361165.1744   22361170.8634
     -1521.5854      -1185.6514
 00  1  6  0 58 59.9980000  0  7G 2G 8G 5G24G 9G 4G 7
  23470354.5064  -29689297.43647 -22820997.60945  23470351.8364   23470358.4614
     -1768.0544      -1377.7124
  22150141.0924  -33184184.33548 -25293816.45046  22150138.5254   22150144.9274
     -2756.1704      -2147.6634
  21419529.6474  -24979180.16048 -19437833.74547  21419527.4844   21419534.1024
      3294.6914       2567.2904
  20815197.5104  -25528554.97748 -19522145.91247  20815196.1394   20815203.2414
      3341.2704       2603.5844
  20417356.1884  -31917772.65849 -24843683.70247  20417354.8634   20417360.0194
       330.8074        257.7724
  20059848.2214  -28663201.93649 -21999989.80847  20059846.8984   20059851.1984
       779.5754        607.4604
  22369869.4784  -29940546.23248 -22996811.88346  22369867.2214   22369873.5644
     -1526.8524      -1189.7554
 00  1  6  0 59 29.9980000  0  7G 2G 8G 5G24G 9G 4G 7
  23480457.3184  -29636203.93247 -22779626.03445  23480454.6364   23480461.1524
     -1774.2954      -1382.5724
  22165884.4794  -33101449.74148 -25229347.96546  22165882.5044   22165888.0894
     -2762.4974      -2152.5964
  21400724.2964  -25078001.51848 -19514837.35347  21400722.2624   21400728.9684
      3290.3124       2563.8774
  20796152.6524  -25628637.27748 -19600132.06747  20796151.3024   20796157.7614
      3327.8784       2593.1504
  20415510.8804  -31927470.84149 -24851240.72347  20415509.2414   20415514.2944
       312.5334        243.5324
  20055442.1544  -28686355.80149 -22018031.75847  20055440.8894   20055445.2114
       760.7574        592.7984
  22378580.9524  -29894766.12948 -22961139.07446  22378578.9534   22378584.5004
     -1528.1414      -1190.7624
 00  1  6  0 59 59.9980000  0  7G 2G 8G 5G24G 9G 4G 7
  23490600.3964  -29582903.26347 -22738093.04845  23490597.7104   23490604.6534
     -1779.6284      -1386.7194
  22181667.2034  -33018512.16548 -25164721.30246  22181665.1954   22181671.0694
     -2767.2294      -2156.2824
  21381948.3714  -25176669.17248 -19591721.19947  21381946.4474   21381952.5344
      3286.9044       2561.2234
  20777186.7494  -25728305.81948 -19677795.80847  20777185.0904   20777191.5124
      3315.9014       2583.8174
  20413774.6484  -31936595.82949 -24858351.10047  20413773.1604   20413778.1544
       295.2254        230.0454
  20051148.6364  -28708920.18249 -22035614.36847  20051147.0544   20051151.0384
       742.8204        578.8204
  22387300.5204  -29848944.74848 -22925434.10446  22387298.5754   22387304.2384
     -1527.4114      -1190.1914
 00  1  6  1  0 29.9980000  0  7G 2G 8G 5G24G 9G 4G 7
  23500788.2334  -29529363.66047 -22696373.89045  23500785.7764   23500792.9934
     -1785.8994      -1391.6214
  22197491.1754  -32935351.37648 -25099920.70846  22197489.7994   22197495.7294
     -2772.9514      -2160.7404
  21363207.4774  -25275151.81048 -19668460.89047  21363205.7844   21363211.8434
      3282.5094       2557.7994
  20758307.6434  -25827516.06148 -19755102.43347  20758306.0434   20758312.2134
      3301.8884       2572.8984
  20412154.0154  -31945110.45149 -24864985.86647  20412152.6714   20412157.6104
       276.2334        215.2474
  20046974.5004  -28730851.45149 -22052703.64147  20046973.5504   20046978.2114
       722.9174        563.3114
  22396031.5594  -29803064.39848 -22889683.18246  22396029.5214   22396035.3334
     -1527.7334      -1190.4404
 00  1  6  1  0 59.9980000  0  7G 2G 8G 5G24G 9G 4G 7
  23511003.3474  -29475676.52447 -22654539.77245  23511001.6474   23511008.9314
     -1793.6294      -1397.6354
  22213341.1264  -32852061.02148 -25035019.15946  22213339.1014   22213345.7394
     -2780.3604      -2166.5154
  21344484.9104  -25373541.92948 -19745128.48047  21344482.9724   21344488.8474
      3276.3584       2553.0054
  20739502.3494  -25926340.21848 -19832108.21447  20739500.5684   20739506.5894
      3285.9004       2560.4404
  20410635.5954  -31953089.17049 -24871203.04647  20410634.0684   20410639.1474
       255.2244        198.8754
  20042909.5744  -28752211.80849 -22069348.05747  20042908.5244   20042913.5524
       700.4544        545.8084
  22404758.3844  -29757202.49348 -22853946.63546  22404756.4914   22404762.0074
     -1530.3964      -1192.5194
 00  1  6  1  1 29.9980000  0  7G 2G 8G 5G24G 9G 4G 7
  23521269.6734  -29421732.00147 -22612505.08045  23521267.5494   23521275.4234
     -1797.8824      -1400.9614
  22229238.9054  -32768520.46848 -24969922.66546  22229236.6274   22229243.2434
     -2784.0874      -2169.4174
  21325800.8034  -25471726.07148 -19821635.58747  21325798.9484   21325804.5544
      3273.9744       2551.1484
  20720790.8254  -26024667.13348 -19908726.53147  20720789.4824   20720795.3804
      3274.0574       2551.2124
  20409241.0854  -31960417.49349 -24876913.42647  20409239.7684   20409244.9924
       238.1064        185.5374
  20038979.2964  -28772869.26449 -22085444.76247  20038977.8894   20038982.1604
       681.4414        530.9914
  22413505.3394  -29711238.17048 -22818130.27146  22413503.4914   22413509.2134
     -1529.3514      -1191.7054
 00  1  6  1  1 59.9980000  0  7G 2G 8G 5G24G 9G 4G 7
  23531572.9874  -29367583.71647 -22570311.64545  23531571.3224   23531578.4714
     -1806.9184      -1407.9944
  22245168.9394  -32684804.62548 -24904689.58146  22245167.1434   22245173.4974
     -2792.0254      -2175.6044
  21307144.0644  -25569766.13248 -19898030.42647  21307142.2774   21307148.0894
      3267.1244       2545.8094
  20702159.9034  -26122575.74448 -19985018.90747  20702158.2164   20702163.8744
      3258.0284       2538.7214
  20407958.3684  -31967160.97749 -24882168.08247  20407956.8154   20407961.7954
       216.6144        168.7904
  20035168.9014  -28792890.85749 -22101045.99147  20035167.7654   20035172.2074
       658.3584        513.0044
  22422261.3204  -29665222.41948 -22782273.83646  22422259.4324   22422265.8194
     -1533.6714      -1195.0704
 00  1  6  1  2 29.9980000  0  7G 2G 8G 5G24G 9G 4G 7
  23541916.0194  -29313237.95847 -22527964.31345  23541913.1904   23541920.7944
     -1814.4854      -1413.8884
  22261132.6854  -32600917.71248 -24839323.19346  22261130.5084   22261136.6604
     -2798.9294      -2180.9874
  21288512.7664  -25667676.31348 -19974324.05547  21288510.8424   21288516.5144
      3261.7884       2541.6524
  20683606.4944  -26220073.19948 -20060990.89847  20683605.0824   20683610.8384
      3243.4204       2527.3394
  20406783.4014  -31973336.56149 -24886980.22147  20406781.6324   20406786.4684
       196.8454        153.3864
  20031476.6704  -28812295.47749 -22116166.46047  20031475.4084   20031479.9074
       636.9254        496.3054
  22431031.3754  -29619136.15348 -22746362.46146  22431029.4104   22431035.2464
     -1537.2864      -1197.8864
 00  1  6  1  2 59.9980000  0  7G 2G 8G 5G24G 9G 4G 7
  23552283.1894  -29258753.61847 -22485508.98745  23552282.5644   23552288.6754
     -1820.3324      -1418.4374
  22277117.8144  -32516913.30048 -24773865.25046  22277116.0534   22277122.4754
     -2803.9094      -2184.8574
  21269895.4434  -25765510.81548 -20050558.71947  21269893.6084   21269899.1424
      3258.0664       2538.7534
  20665119.1574  -26317224.57748 -20136693.21947  20665117.5784   20665123.6734
      3230.7804       2517.4894
  20405701.3684  -31979020.48649 -24891409.24947  20405699.9734   20405704.8114
       179.8134        140.1144
  20027888.4494  -28831153.00049 -22130860.62447  20027886.9484   20027891.3364
       617.6724        481.3034
  22439804.7204  -29573034.17448 -22710438.83146  22439802.8814   22439808.0524
     -1538.6624      -1198.9584
 00  1  6  1  3 29.9980000  0  7G 2G 8G 5G24G 9G 4G 7
  23562701.7904  -29204011.02247 -22442852.40745  23562698.0014   23562706.0374
     -1833.0124      -1428.3214
  22293143.8774  -32432694.91948 -24708240.57246  22293141.8914   22293148.4574
     -2814.5594      -2193.1624
  21251313.6194  -25863160.79048 -20126649.60047  21251311.5844   21251317.2024
      3247.8834       2530.8184
  20646717.9174  -26413921.82648 -20212041.67047  20646716.5914   20646722.6114
      3211.7094       2502.6294
  20404729.3994  -31984129.90349 -24895390.61247  20404727.8354   20404732.7254
       156.7854        122.1704
  20024422.1454  -28849365.95449 -22145052.53047  20024420.7874   20024425.1404
       592.6234        461.7844
  22448596.0114  -29526837.39048 -22674441.32246  22448594.0094   22448599.2674
     -1545.2144      -1204.0644
 00  1  6  1  3 59.9980000  0  7G 2G 8G 5G24G 9G 4G 7
  23573167.8094  -29148999.10147 -22399985.97445  23573167.0394   23573174.2134
     -1836.4194      -1430.9694
  22309212.3024  -32348257.00147 -24642444.82646  22309209.8324   22309216.8354
     -2816.8914      -2194.9774
  21232771.3324  -25960598.66248 -20202575.19847  21232769.4414   21232775.2094
      3245.9104       2529.2814
  20628408.9574  -26510137.69648 -20287015.02847  20628407.1454   20628413.1304
      3200.5674       2493.9464
  20403871.3044  -31988641.96649 -24898906.50647  20403869.5974   20403874.0344
       142.1124        110.7364
  20021079.7184  -28866931.22049 -22158739.74347  20021078.3014   20021082.6554
       576.2394        449.0164
  22457405.7504  -29480541.18448 -22638366.34446  22457403.6854   22457409.2454
     -1543.3364      -1202.5984
 00  1  6  1  4 29.9980000  0  7G 2G 8G 5G24G 9G 4G 7
  23583668.4214  -29093824.53247 -22356992.81345  23583664.9864   23583673.1664
     -1846.0674      -1438.4974
  22325307.3404  -32263673.89247 -24576535.93846  22325305.5534   22325312.4844
     -2826.1174      -2202.1664
  21214256.0484  -26057897.14148 -20278392.17647  21214254.1604   21214260.0084
      3236.4124       2521.8794
  20610178.1494  -26605939.76248 -20361665.94747  20610176.5454   20610182.8294
      3181.9414       2479.4334
  20403108.7674  -31992648.24849 -24902028.28247  20403106.9784   20403111.6824
       120.8054         94.1354
  20017843.7634  -28883934.26149 -22171988.86347  20017842.7164   20017847.5674
       553.0664        430.9614
  22466216.7974  -29434236.97948 -22602285.14346  22466214.6994   22466220.5004
     -1547.8914      -1206.1504
 00  1  6  1  4 59.9980000  0  7G 2G 8G 5G24G 9G 4G 7
  23594227.3334  -29038335.04647 -22313754.24045  23594224.9884   23594233.1534
     -1850.9194      -1442.2814
  22341458.5494  -32178802.14147 -24510402.14546  22341456.2744   22341463.5714
     -2829.8994      -2205.1134
  21195798.5294  -26154892.45248 -20353972.92147  21195796.6974   21195801.9994
      3232.2424       2518.6304
  20592058.1754  -26701160.75048 -20435864.07747  20592056.4934   20592063.3234
      3168.3004       2468.8034
  20402471.9634  -31995993.24649 -24904634.77747  20402470.4394   20402475.0484
       104.3654         81.3234
  20014743.8474  -28900223.77749 -22184681.98747  20014742.8124   20014747.7124
       534.8854        416.7934
  22475056.8604  -29387780.80248 -22566085.52846  22475055.0274   22475061.0744
     -1547.2534      -1205.6504
 00  1  6  1  5 29.9980000  0  7G 2G 8G 5G24G 9G 4G 7
  23604810.5944  -28982718.97347 -22270417.04245  23604808.7254   23604816.0054
     -1854.6854      -1445.2144
  22357628.6454  -32093829.71047 -24444189.89746  22357626.4054   22357633.2554
     -2833.3244      -2207.7844
  21177361.9924  -26251776.99148 -20429467.34847  21177360.1874   21177366.1534
      3228.6364       2515.8194
  20574013.7014  -26795984.33948 -20509752.54647  20574012.0854   20574018.7184
      3155.1094       2458.5244
  20401927.6364  -31998853.40749 -24906863.47547  20401926.1314   20401930.8904
        88.0684         68.6264
  20011744.7964  -28915984.14049 -22196962.78747  20011743.5274   20011748.2864
       517.5704        403.3024
  22483892.0274  -29341351.25848 -22529906.66046  22483889.9974   22483895.9744
     -1546.4594      -1205.0344
 00  1  6  1  5 59.9980000  0  7G 2G 8G 5G24G 9G 4G 7
  23615421.9974  -28926967.02147 -22226973.97545  23615418.4534   23615424.7524
     -1859.3974      -1448.8834
  22373826.5254  -32008711.11547 -24377863.76046  22373824.1864   22373830.6534
     -2838.5844      -2211.8814
  21158951.5574  -26348525.61948 -20504855.86747  21158949.5734   21158955.3834
      3224.1344       2512.3124
  20556050.2244  -26890381.06648 -20583308.40247  20556048.8944   20556055.1114
      3140.8404       2447.4084
  20401482.2444  -32001193.90849 -24908687.24947  20401480.8284   20401485.3664
        70.9034         55.2494
  20008852.3334  -28931185.98449 -22208808.38047  20008851.1084   20008855.6234
       498.5444        388.4764
  22492730.2304  -29294906.73248 -22493716.12646  22492728.2084   22492734.1974
     -1547.2264      -1205.6294
 00  1  6  1  6 29.9980000  0  7G 2G 8G 5G24G 9G 4G 7
  23626067.9204  -28871011.53847 -22183372.27845  23626065.1564   23626072.0284
     -1868.7754      -1456.1844
  22390063.6964  -31923386.95547 -24311377.43346  22390060.6454   22390067.2414
     -2847.2234      -2218.6164
  21140575.7644  -26445090.73448 -20580101.38947  21140573.8014   21140579.4574
      3215.9334       2505.9204
  20538178.3874  -26984300.38848 -20656492.25447  20538176.8514   20538182.6124
      3122.7694       2433.3264
  20401143.9474  -32002972.46249 -24910073.14147  20401142.2874   20401147.0184
        49.9064         38.8884
  20006078.2364  -28945766.85349 -22220170.08847  20006076.7544   20006081.0484
       475.7404        370.7064
  22501580.9184  -29248396.63748 -22457474.50246  22501579.0454   22501584.7604
     -1551.2864      -1208.7964
 00  1  6  1  6 59.9980000  0  7G 2G 8G 5G24G 9G 4G 7
  23636775.1214  -28814741.52147 -22139525.50245  23636773.5974   23636780.5094
     -1879.9914      -1464.9374
  22406351.0664  -31837790.81147 -24244679.18546  22406349.5874   22406355.3954
     -2856.8304      -2226.1024
  21122247.4534  -26541403.49349 -20655150.26847  21122245.9774   21122252.0734
      3207.3474       2499.2294
  20520411.1534  -27077666.77348 -20729245.24647  20520409.7824   20520415.6784
      3104.2074       2418.8614
  20400929.4214  -32004100.04049 -24910951.78047  20400927.9354   20400932.5884
        27.7844         21.6504
  20003437.3674  -28959641.15649 -22230981.22647  20003436.4444   20003440.9314
       451.5534        351.8594
  22510457.5334  -29201751.24748 -22421127.43346  22510455.4604   22510460.9974
     -1556.1644      -1212.5974
 00  1  6  1  7 29.9980000  0  7G 2G 8G 5G24G 9G 4G 7
  23647521.1264  -28758272.07047 -22095523.30945  23647519.6814   23647527.3664
     -1884.3154      -1468.2834
  22422668.5174  -31752041.77748 -24177861.78546  22422666.9314   22422673.2524
     -2859.6324      -2228.2834
  21103946.1664  -26637578.04249 -20730091.44647  21103944.3724   21103950.5974
      3204.3904       2496.9264
  20502725.7034  -27170604.98749 -20801664.59647  20502724.1924   20502730.0754
      3091.6914       2409.1084
  20400815.2674  -32004699.45249 -24911418.86347  20400813.6574   20400818.2134
        12.1904          9.4984
  20000909.6324  -28972923.20949 -22241330.87247  20000908.4874   20000913.2624
       434.0024        338.1834
  22519335.8354  -29155095.49748 -22384772.29746  22519333.9124   22519339.3054
     -1554.3444      -1211.1784
 00  1  6  1  7 59.9980000  0  7G 2G 8G 5G24G 9G 4G 7
  23658304.2874  -28701610.52447 -22051371.43545  23658302.9664   23658308.7304
     -1891.2744      -1473.7134
  22439012.2244  -31666158.27647 -24110939.61346  22439009.7184   22439016.3654
     -2863.9444      -2231.6454
  21085673.2584  -26733601.52149 -20804914.90047  21085671.4004   21085677.8284
      3199.1004       2492.8044
  20485123.0514  -27263109.85349 -20873746.27647  20485121.5454   20485127.1394
      3077.0804       2397.7244
  20400803.0524  -32004765.19449 -24911470.09547  20400801.4754   20400805.9544
        -5.8494         -4.5584
  19998493.9584  -28985619.07449 -22251223.74547  19998492.7074   19998497.1974
       414.2504        322.7914
  22528215.9624  -29108430.47548 -22348409.93546  22528214.0354   22528219.2964
     -1555.0944      -1211.7644
 00  1  6  1  8 29.9980000  0  7G 2G 8G 5G24G 9G 4G 7
  23669120.8404  -28644771.66547 -22007081.41045  23669118.1584   23669126.6114
     -1900.5314      -1480.9374
  22455372.0654  -31580187.14047 -24043949.15746  22455369.6094   22455375.8944
     -2870.2254      -2236.5354
  21067425.9174  -26829492.10948 -20879634.79847  21067424.1504   21067430.2544
      3190.8504       2486.3754
  20467599.1574  -27355197.94149 -20945503.19447  20467597.6034   20467603.7134
      3059.3294       2383.8924
  20400888.2224  -32004316.30949 -24911120.31947  20400886.7124   20400891.4134
       -26.8964        -20.9584
  19996183.7924  -28997757.10149 -22260681.93647  19996182.5984   19996187.2864
       392.0684        305.5084
  22537095.4504  -29061767.59348 -22312049.23746  22537093.4134   22537098.8644
     -1558.8744      -1214.7074
 00  1  6  1  8 59.9970000  0  7G 2G 8G 5G24G 9G 4G 7
  23679977.4064  -28587717.71347 -21962623.76645  23679975.0114   23679983.0944
     -1904.1714      -1483.7704
  22471758.4444  -31494075.06747 -23976848.87546  22471756.4764   22471762.7534
     -2872.0804      -2237.9834
  21049216.0204  -26925184.06248 -20954199.91747  21049214.3664   21049220.5924
      3187.5914       2483.8364
  20450167.7624  -27446797.79349 -21016879.67347  20450166.3634   20450172.4214
      3046.3984       2373.8164
  20401085.5854  -32003279.77949 -24910312.63747  20401084.0584   20401088.6274
       -43.2484        -33.7014
  19993991.9464  -29009276.95449 -22269658.43247  19993990.8094   19993995.1724
       374.8924        292.1234
  22545989.1064  -29015031.37548 -22275631.40046  22545986.9754   22545992.5444
     -1558.3394      -1214.2914
 00  1  6  1  9 29.9970000  0  7G 2G 8G 5G24G 9G 4G 7
  23690856.8104  -28530544.11147 -21918072.90045  23690854.3644   23690862.3264
     -1911.2014      -1489.2474
  22488161.3824  -31407873.63247 -23909678.96345  22488159.7074   22488166.2654
     -2878.4324      -2242.9374
  21031032.1164  -27020741.59248 -21028660.28847  21031030.5524   21031036.0994
      3179.4364       2477.4814
  20432817.7494  -27537973.27349 -21087925.47447  20432816.1884   20432822.0584
      3028.3894       2359.7834
  20401382.7814  -32001717.09149 -24909094.95847  20401381.3174   20401386.3664
       -64.5764        -50.3204
  19991902.0714  -29020259.37249 -22278216.14747  19991900.7424   19991905.1704
       353.6554        275.5744
  22554887.6094  -28968268.41048 -22239192.71146  22554885.9444   22554891.0064
     -1562.9564      -1217.8894
 00  1  6  1  9 59.9970000  0  7G 2G 8G 5G24G 9G 4G 7
  23701793.0524  -28473069.79147 -21873287.69945  23701792.1114   23701799.6784
     -1921.0644      -1496.9234
  22504616.6994  -31321397.88747 -23842295.30145  22504615.5464   22504621.6494
     -2887.1904      -2249.7594
  21012907.5904  -27115988.29648 -21102878.45547  21012905.6384   21012911.0994
      3169.7734       2469.9514
  20415582.4734  -27628542.86249 -21158499.14747  20415581.1494   20415587.6164
      3009.0204       2344.6894
  20401816.7974  -31999439.75149 -24907320.40747  20401814.9294   20401819.6464
       -87.5424        -68.2144
  19989946.9964  -29030532.17249 -22286220.91647  19989945.7284   19989950.0984
       330.5544        257.5744
  22563828.3134  -28921290.75148 -22202586.72446  22563825.5064   22563830.8734
     -1569.3994      -1222.9124
 00  1  6  1 10 29.9970000  0  7G 2G 8G 5G24G 9G 4G 7
  23712766.4014  -28415404.87447 -21828354.00045  23712766.2034   23712771.8864
     -1923.9324      -1499.1774
  22521104.8114  -31234753.25547 -23774780.03445  22521103.3164   22521109.8394
     -2889.5674      -2251.6034
  20994819.9534  -27211040.76648 -21176945.26547  20994817.9144   20994822.8424
      3166.6264       2467.4984
  20398438.7774  -27718633.70749 -21228699.77547  20398437.4024   20398444.1334
      2996.6284       2335.0354
  20402360.6504  -31996578.11649 -24905090.56347  20402359.1344   20402364.0874
      -103.6924        -80.7994
  19988107.0734  -29040204.54549 -22293757.81547  19988105.7814   19988109.6804
       313.7324        244.4664
  22572783.3674  -28874229.00548 -22165915.22146  22572781.0414   22572786.6914
     -1568.5464      -1222.2474
 00  1  6  1 10 59.9970000  0  7G 2G 8G 5G24G 9G 4G 7
  23723758.4414  -28357643.73347 -21783345.32945  23723755.8104   23723762.8674
     -1930.7994      -1504.5204
  22537607.4674  -31148036.76047 -23707208.76745  22537605.1914   22537611.3874
     -2895.3524      -2256.1154
  20976748.1114  -27306007.45848 -21250945.23947  20976746.3174   20976751.3674
      3160.5374       2462.7534
  20381364.5704  -27808361.40149 -21298617.42947  20381362.9714   20381369.3054
      2981.3384       2323.1204
  20402995.4394  -31993241.31949 -24902490.46347  20402993.9254   20402999.0804
      -122.6014        -95.5334
  19986360.9734  -29049378.45849 -22300906.29947  19986359.7824   19986363.9384
       293.9644        229.0624
  22581731.9894  -28827201.79348 -22129270.62646  22581730.0484   22581735.7224
     -1570.5064      -1223.7724
 00  1  6  1 11 29.9970000  0  7G 2G 8G 5G24G 9G 4G 7
  23734797.9454  -28299627.17947 -21738137.62545  23734795.8444   23734803.4634
     -1937.8064      -1509.9754
  22554147.2704  -31061118.17847 -23639480.02245  22554145.4324   22554151.4324
     -2900.0044      -2259.7404
  20958721.0704  -27400741.28048 -21324763.74847  20958719.1794   20958724.2234
      3154.3014       2457.8954
  20364385.0994  -27897588.57749 -21368145.06647  20364383.6694   20364389.9524
      2966.2524       2311.3654
  20403745.7654  -31989301.64649 -24899420.59447  20403744.0514   20403748.5444
      -140.7604       -109.6824
  19984735.5124  -29057917.08749 -22307559.75947  19984734.4494   19984739.1164
       274.3324        213.7644
  22590698.6094  -28780080.36448 -22092552.61746  22590696.5734   22590702.6524
     -1571.7834      -1224.7634
 00  1  6  1 11 59.9970000  0  7G 2G 8G 5G24G 9G 4G 7
  23745873.8414  -28241426.75747 -21692786.61045  23745871.9774   23745878.9794
     -1943.1424      -1514.1404
  22570705.2974  -30974105.14047 -23571677.68445  22570703.2824   22570709.4384
     -2901.9534      -2261.2614
  20940722.5534  -27495321.94748 -21398462.91547  20940720.8744   20940726.2084
      3149.7974       2454.3854
  20347484.7484  -27986400.56949 -21437349.18247  20347483.2674   20347489.6784
      2953.0704       2301.0924
  20404589.3834  -31984867.35949 -24895965.31247  20404587.5344   20404592.0784
      -156.0324       -121.5844
  19983218.5844  -29065892.09149 -22313774.03147  19983217.2704   19983221.5834
       256.0414        199.5124
  22599663.8434  -28732967.08248 -22055840.95446  22599661.9334   22599668.0364
     -1570.3804      -1223.6734
 00  1  6  1 12 29.9970000  0  7G 2G 8G 5G24G 9G 4G 7
  23756991.9744  -28183000.32146 -21647259.47444  23756990.0804   23756997.5454
     -1956.4424      -1524.5294
  22587288.1084  -30886958.97047 -23503771.60945  22587286.0464   22587292.6264
     -2912.3114      -2269.3284
  20922765.6934  -27589686.18348 -21471993.44247  20922763.9754   20922769.1484
      3136.7574       2444.2254
  20330677.9704  -28074722.33849 -21506171.31447  20330676.5234   20330682.7034
      2930.4294       2283.4504
  20405536.1174  -31979888.56049 -24892085.72947  20405534.4984   20405539.5854
      -180.3814       -140.5564
  19981822.1764  -29073230.79949 -22319492.48647  19981820.7824   19981825.1374
       228.7954        178.2824
  22608636.6254  -28685814.56548 -22019098.71646  22608634.7994   22608640.4304
     -1577.8304      -1229.4784
 00  1  6  1 12 59.9970000  0  6G 8G 5G24G 9G 4G 7
  22603912.3074  -30799598.81747 -23435698.79645  22603910.2614   22603917.3434
     -2912.4554      -2269.4444
  20904867.2024  -27683744.28749 -21545285.42447  20904865.2314   20904870.6214
      3133.1464       2441.4124
  20313985.6654  -28162440.10849 -21574522.79347  20313984.1754   20313990.2354
      2916.7824       2272.8164
  20406605.5834  -31974271.23849 -24887708.60447  20406604.0234   20406608.7754
      -194.6814       -151.7004
  19980562.9114  -29079844.17449 -22324645.75147  19980561.9374   19980566.7044
       211.4734        164.7844
  22617636.1944  -28638523.75848 -21982248.73046  22617634.0104   22617639.6564
     -1575.6424      -1227.7744
 00  1  6  1 13 29.9970000  0  6G 8G 5G24G 9G 4G 7
  22620545.5044  -30712189.38247 -23367587.57745  22620544.3684   22620551.2614
     -2915.3584      -2271.7084
  20886999.1254  -27777640.49949 -21618451.25247  20886997.5054   20887003.0454
      3126.3874       2436.1434
  20297381.7394  -28249695.68049 -21642514.11847  20297379.9694   20297385.5214
      2899.8904       2259.6514
  20407765.5254  -31968176.50049 -24882959.46547  20407763.8714   20407768.4714
      -211.8754       -165.0974
  19979412.5714  -29085889.31049 -22329356.23647  19979411.5854   19979416.4174
       191.1914        148.9794
  22626630.9074  -28591254.44948 -21945415.49146  22626628.7864   22626634.7474
     -1576.2104      -1228.2194
 00  1  6  1 13 59.9970000  0  6G 8G 5G24G 9G 4G 7
  22637178.5044  -30624785.69947 -23299480.85245  22637176.4104   22637183.7654
     -2917.2914      -2273.2114
  20869150.0994  -27871441.12649 -21691542.60947  20869148.0334   20869152.7854
      3121.4124       2432.2674
  20280854.0084  -28336545.91949 -21710189.60147  20280852.6294   20280858.4704
      2884.6274       2247.7604
  20409004.7314  -31961660.72249 -24877882.24547  20409003.2204   20409007.8814
      -228.2244       -177.8364
  19978358.6714  -29091430.95749 -22333674.39247  19978357.3644   19978362.0774
       172.5974        134.4914
  22635610.9674  -28544066.43748 -21908645.59546  22635608.5494   22635614.4214
     -1575.4804      -1227.6494
 00  1  6  1 14 29.9970000  0  6G 8G 5G24G 9G 4G 7
  22653865.5744  -30537091.63747 -23231147.85045  22653863.7054   22653870.9464
     -2927.0134      -2280.7914
  20851369.5344  -27964877.27149 -21764349.94947  20851367.7324   20851372.7334
      3109.6284       2423.0864
  20264454.2474  -28422727.37149 -21777343.95447  20264452.7424   20264459.1564
      2862.9054       2230.8354
  20410381.5344  -31954426.83249 -24872245.45147  20410379.9994   20410384.3854
      -251.8774       -196.2674
  19977449.7114  -29096205.42549 -22337394.74447  19977448.4414   19977453.3144
       147.7294        115.1144
  22644628.7294  -28496675.08548 -21871717.26246  22644626.8444   22644632.4374
     -1582.2844      -1232.9504
 00  1  6  1 14 59.9970000  0  6G 8G 5G24G 9G 4G 7
  22670583.7214  -30449238.31447 -23162690.75145  22670582.4834   22670589.3504
     -2932.1014      -2284.7514
  20833632.3664  -28058084.91349 -21836979.23247  20833630.4394   20833635.8214
      3102.2084       2417.3034
  20248150.3014  -28508406.00449 -21844106.49447  20248148.6894   20248155.1884
      2846.9344       2218.3884
  20411865.8924  -31946625.18549 -24866166.25147  20411864.2644   20411868.8904
      -270.3424       -210.6564
  19976654.6354  -29100380.67249 -22340648.17747  19976654.0854   19976658.8024
       128.4604        100.0994
  22653660.9984  -28449210.99648 -21834732.23346  22653659.2174   22653664.2984
     -1584.2834      -1234.5074
 00  1  6  1 15 29.9970000  0  6G 8G 5G24G 9G 4G 7
  22687322.9224  -30361274.39347 -23094147.47145  22687320.9594   22687328.2004
     -2929.6594      -2282.8524
  20815926.5764  -28151128.30849 -21909480.54347  20815924.8314   20815930.2214
      3103.1594       2418.0464
  20231927.2404  -28593659.74749 -21910537.95247  20231925.5874   20231931.7324
      2839.0694       2212.2604
  20413447.5974  -31938314.18549 -24859690.15647  20413445.9994   20413450.6204
      -281.2384       -219.1454
  19975960.0724  -29104035.19349 -22343495.84247  19975958.7894   19975962.9574
       117.5224         91.5764
  22662695.2404  -28401735.30148 -21797738.16446  22662693.3154   22662699.1994
     -1578.4864      -1229.9924
 00  1  6  1 15 59.9970000  0  6G 8G 5G24G 9G 4G 7
  22704073.8454  -30273253.23247 -23025559.58345  22704070.8814   22704077.7624
     -2937.7344      -2289.1404
  20798240.5384  -28244068.96849 -21981901.79547  20798238.7904   20798244.5774
      3093.5314       2410.5414
  20215771.9734  -28678556.18149 -21976690.99047  20215770.3404   20215776.3234
      2821.2794       2198.3994
  20415116.0904  -31929546.97549 -24852858.57347  20415114.5764   20415118.8414
      -302.5244       -235.7334
  19975351.7854  -29107230.75749 -22345985.87647  19975350.6374   19975354.9294
        95.9814         74.7904
  22671721.8044  -28354300.31048 -21760775.83146  22671719.7314   22671725.9294
     -1583.3254      -1233.7614
 00  1  6  1 16 29.9970000  0  6G 8G 5G24G 9G 4G 7
  22720849.5174  -30185091.04447 -22956861.80745  22720847.7014   22720854.5624
     -2940.7704      -2291.5094
  20780591.5494  -28336814.82949 -22054171.25647  20780589.9634   20780595.3074
      3088.4324       2406.5684
  20199700.8384  -28763009.44049 -22042498.69547  20199699.4414   20199705.3874
      2807.6764       2187.7984
  20416885.8164  -31920247.45249 -24845612.20147  20416884.2144   20416888.3594
      -318.3254       -248.0464
  19974849.3904  -29109872.80349 -22348044.60447  19974847.9334   19974852.1344
        79.0824         61.6234
  22680757.5344  -28306817.05148 -21723775.87846  22680755.4014   22680761.4334
     -1583.3884      -1233.8124
 00  1  6  1 16 59.9970000  0  6G 8G 5G24G 9G 4G 7
  22737659.7534  -30096754.65547 -22888028.29245  22737657.2874   22737664.6694
     -2942.9484      -2293.2084
  20762988.7484  -28429321.85649 -22126254.61847  20762986.8284   20762991.7014
      3083.9954       2403.1124
  20183726.1484  -28846956.54549 -22107911.99347  20183724.9344   20183730.4544
      2793.8984       2177.0624
  20418762.4954  -31910384.10349 -24837926.48447  20418761.0034   20418765.5694
      -333.8894       -260.1724
  19974459.6914  -29111916.52449 -22349637.10647  19974458.7344   19974463.3904
        62.2734         48.5254
  22689808.1564  -28259256.86548 -21686715.98146  22689806.0384   22689811.5514
     -1582.1214      -1232.8224
 00  1  6  1 17 29.9970000  0  6G 8G 5G24G 9G 4G 7
  22754495.3644  -30008282.29447 -22819088.81745  22754493.7944   22754500.4054
     -2947.6114      -2296.8344
  20745425.4024  -28521617.02549 -22198172.89547  20745423.3644   20745428.6434
      3076.3944       2397.1894
  20167848.4044  -28930396.97448 -22172930.47547  20167846.6714   20167852.1174
      2776.1734       2163.2504
  20420743.3694  -31899976.18149 -24829816.42747  20420741.7444   20420746.0174
      -352.4124       -274.6074
  19974185.6334  -29113358.31649 -22350760.56947  19974184.4014   19974188.9644
        41.1874         32.0934
  22698864.6264  -28211661.94748 -21649629.01746  22698862.6984   22698868.9824
     -1583.6954      -1234.0504
 00  1  6  1 17 59.9970000  0  6G 8G 5G24G 9G 4G 7
  22771343.2564  -29919743.94447 -22750097.91345  22771341.7044   22771348.4054
     -2950.5394      -2299.1254
  20727894.3884  -28613741.55649 -22269958.20847  20727892.5454   20727897.5654
      3069.5784       2391.8784
  20152058.2984  -29013371.23948 -22237585.71847  20152056.9224   20152062.3904
      2759.6994       2150.4134
  20422816.4814  -31889081.73749 -24821327.26147  20422814.8044   20422819.1324
      -369.4904       -287.9154
  19974019.9534  -29114228.10649 -22351438.31947  19974018.8924   19974023.1204
        21.1044         16.4454
  22707918.3534  -28164086.76248 -21612557.44046  22707916.3114   22707921.7084
     -1583.8194      -1234.1474
 00  1  6  1 18 29.9970000  0  6G 8G 5G24G 9G 4G 7
  22788194.9244  -29831187.36747 -22681092.81745  22788193.6444   22788200.7134
     -2952.6794      -2300.7834
  20710390.3344  -28705724.30749 -22341633.04247  20710388.5754   20710393.9784
      3063.2314       2386.9324
  20136353.1964  -29095900.59748 -22301894.28247  20136351.7704   20136357.8214
      2742.9244       2137.3444
  20424976.1344  -31877731.92849 -24812483.26147  20424974.6204   20424978.9274
      -386.5004       -301.1684
  19973956.7794  -29114557.98549 -22351695.35647  19973955.6394   19973960.1834
         1.6744          1.3044
  22716959.6394  -28116574.26948 -21575534.71146  22716957.3174   22716962.8434
     -1583.2134      -1233.6754
 00  1  6  1 18 59.9970000  0  6G 8G 5G24G 9G 4G 7
  22805072.5844  -29742496.40447 -22611983.01345  22805070.9674   22805078.3084
     -2960.6424      -2306.9994
  20692937.7964  -28797441.03249 -22413100.59147  20692935.9264   20692940.7134
      3050.5444       2377.0484
  20120757.8184  -29177857.37849 -22365756.67647  20120756.3534   20120762.1764
      2720.2674       2119.6884
  20427247.9224  -31865794.66049 -24803181.50347  20427246.1894   20427250.4724
      -409.9334       -319.4294
  19974019.4264  -29114230.12049 -22351439.86747  19974018.3334   19974023.0364
       -24.3244        -18.9554
  22726011.6344  -28069004.59448 -21538467.42446  22726009.5944   22726015.8054
     -1589.1404      -1238.2904
 00  1  6  1 19 29.9970000  0  6G 8G 5G24G 9G 4G 7
  22821974.0224  -29653678.44047 -22542774.25445  22821972.0924   22821979.6754
     -2966.7894      -2311.7854
  20675537.1074  -28888879.89049 -22484351.61647  20675535.1564   20675540.7264
      3039.4094       2368.3704
  20105270.3274  -29259244.84549 -22429175.44447  20105268.7114   20105274.3904
      2699.5354       2103.5324
  20429631.3694  -31853269.33949 -24793421.52147  20429629.7114   20429634.0204
      -431.3004       -336.0784
  19974210.4504  -29113229.40049 -22350660.07547  19974209.1574   19974213.4824
       -48.3814        -37.7004
  22735080.2284  -28021348.71348 -21501332.96346  22735077.7794   22735084.1934
     -1594.1864      -1242.2214
 00  1  6  1 19 59.9970000  0  7G 8G 5G24G 9G 4G 7G30
  22838889.4574  -29564786.29047 -22473507.67345  22838888.0674   22838894.7244
     -2966.3894      -2311.4724
  20658177.6784  -28980100.87149 -22555432.86247  20658176.0714   20658181.7834
      3035.1434       2365.0464
  20089879.3754  -29340124.78649 -22492198.73847  20089877.9844   20089883.7194
      2685.3964       2092.5164
  20432116.9874  -31840206.68049 -24783242.83447  20432115.4674   20432119.5174
      -446.4614       -347.8924
  19974513.9474  -29111631.34049 -22349414.82047  19974513.0974   19974517.3184
       -65.0364        -50.6784
  22744157.2184  -27973650.51348 -21464165.51546  22744155.2094   22744161.4504
     -1592.7474      -1241.1004
  23840052.3024   -6591941.49357  -4830008.71845  23840050.9054   23840057.3014
      4119.4134       3209.9254
 00  1  6  1 20 29.9970000  0  7G 8G 5G24G 9G 4G 7G30
  22855809.7324  -29475870.23347 -22404222.45445  22855807.9724   22855814.5094
     -2964.5614      -2310.0484
  20640847.0514  -29071175.33949 -22626399.94647  20640845.2804   20640850.8074
      3033.2664       2363.5834
  20074575.1884  -29420547.81849 -22554866.00547  20074573.8074   20074579.9334
      2672.9224       2082.7954
  20434694.5334  -31826662.01749 -24772688.55847  20434692.8204   20434696.7234
      -459.6764       -358.1884
  19974918.1994  -29109511.02749 -22347762.61547  19974916.4694   19974920.5994
       -79.5754        -62.0074
  22753232.6364  -27925960.12648 -21427004.17046  22753230.5364   22753236.2244
     -1590.2114      -1239.1254
  23816511.2694   -6715645.52647  -4926401.24545  23816510.1624   23816516.8654
      4124.2584       3213.7044
 00  1  6  1 20 59.9970000  0  7G 8G 5G24G 9G 4G 7G30
  22872757.5474  -29386808.13847 -22334823.44345  22872756.4614   22872763.0304
     -2968.3914      -2313.0304
  20623565.2564  -29161995.59949 -22697168.94947  20623563.2844   20623568.1954
      3025.6914       2357.6804
  20059380.4654  -29500400.38549 -22617088.75747  20059378.7964   20059384.5924
      2654.8704       2068.7284
  20437383.8024  -31812531.74649 -24761677.96647  20437382.1804   20437386.3644
      -477.9184       -372.4024
  19975442.4934  -29106752.83149 -22345613.35747  19975441.4534   19975445.6224
      -100.0204        -77.9374
  22762331.5464  -27878142.69148 -21389743.83746  22762329.2514   22762335.3004
     -1593.3804      -1241.5954
  23792978.4654   -6839304.10247  -5022758.35145  23792977.7394   23792984.7374
      4123.9994       3213.4944
 00  1  6  1 21 29.9970000  0  7G 8G 5G24G 9G 4G 7G30
  22889710.9014  -29297718.03547 -22265402.60145  22889709.4364   22889715.9694
     -2971.0184      -2315.0804
  20606310.2704  -29252668.73449 -22767823.30547  20606308.5164   20606313.8684
      3019.2104       2352.6294
  20044273.0994  -29579789.51049 -22678950.38447  20044271.4564   20044276.8554
      2637.7194       2055.3644
  20440159.9744  -31797943.41849 -24750310.44747  20440158.2554   20440162.4214
      -494.6394       -385.4334
  19976067.4004  -29103471.77649 -22343056.67647  19976065.8664   19976069.8514
      -118.6484        -92.4544
  22771433.2504  -27830314.66048 -21352475.24146  22771431.1154   22771436.4514
     -1595.0874      -1242.9254
  23769433.9584   -6963033.18447  -5119170.37645  23769432.5074   23769440.6394
      4124.7544       3214.0914
 00  1  6  1 21 59.9970000  0  7G 8G 5G24G 9G 4G 7G30
  22906672.6444  -29208583.30347 -22195946.98745  22906670.9454   22906677.8214
     -2971.7144      -2315.6224
  20589087.5884  -29343177.02949 -22838349.20947  20589085.4984   20589090.6914
      3014.1694       2348.7024
  20029256.9644  -29658696.94749 -22740436.66747  20029255.6684   20029261.2914
      2622.3324       2043.3764
  20443025.2054  -31782884.83049 -24738576.49147  20443023.5494   20443027.7484
      -509.5674       -397.0644
  19976790.7594  -29099669.85549 -22340094.12147  19976789.5124   19976793.3724
      -135.3204       -105.4444
  22780535.4154  -27782482.01748 -21315203.05046  22780533.1844   22780538.4234
     -1594.3954      -1242.3844
  23745877.3734   -7086826.97047  -5215632.84745  23745875.1464   23745883.2404
      4127.7864       3216.4474
 00  1  6  1 22 29.9970000  0  7G 8G 5G24G 9G 4G 7G30
  22923651.7344  -29119355.64847 -22126418.98745  22923649.8244   22923656.7474
     -2975.1554      -2318.2994
  20571907.2324  -29433456.98549 -22908697.18947  20571905.5874   20571910.8984
      3005.8014       2342.1834
  20014341.7934  -29737077.53549 -22801512.41347  20014340.4194   20014346.1944
      2604.5464       2029.5164
  20445987.0644  -31767318.76449 -24726447.09447  20445985.4984   20445990.0484
      -526.6524       -410.3774
  19977623.5144  -29095293.14549 -22336683.67947  19977622.1614   19977626.5954
      -155.1054       -120.8624
  22789646.6824  -27734600.19548 -21277892.52846  22789644.9074   22789650.4564
     -1596.3664      -1243.9214
  23722315.4904   -7210641.33547  -5312111.36945  23722314.5234   23722322.4084
      4127.9074       3216.5494
 00  1  6  1 22 59.9970000  0  7G 8G 5G24G 9G 4G 7G30
  22940656.9864  -29029991.68647 -22056784.76145  22940655.5954   22940661.9894
     -2983.8434      -2325.0774
  20554784.6924  -29523439.67949 -22978813.53247  20554782.5734   20554788.0564
      2991.4324       2330.9844
  19999534.3404  -29814891.46249 -22862146.61447  19999532.7434   19999538.3174
      2581.5584       2011.6034
  20449053.2564  -31751209.77849 -24713894.64247  20449051.3424   20449055.9024
      -548.9084       -427.7214
  19978576.1904  -29090284.48549 -22332780.80747  19978575.0244   19978579.5274
      -180.3284       -140.5164
  22798772.4944  -27686643.85148 -21240523.93446  22798770.2884   22798776.2274
     -1602.3254      -1248.5694
  23698760.1204   -7334425.70647  -5408566.57345  23698758.8494   23698766.4444
      4122.6954       3212.4824
 00  1  6  1 23 29.9970000  0  7G 8G 5G24G 9G 4G 7G30
  22957684.5854  -28940514.41147 -21987062.23545  22957682.4914   22957689.4734
     -2978.8444      -2321.1794
  20537716.1654  -29613133.21249 -23048704.55447  20537714.2684   20537719.9774
      2990.7844       2330.4804
  19984828.8444  -29892167.31249 -22922361.52947  19984827.5414   19984833.2574
      2572.7444       2004.7344
  20452220.1014  -31734566.19549 -24700925.62447  20452218.4884   20452223.2974
      -558.1424       -434.9164
  19979643.1014  -29084677.56849 -22328411.76347  19979642.0284   19979646.5834
      -190.9094       -148.7614
  22807904.2784  -27638656.96748 -21203131.54246  22807902.0164   22807908.1554
     -1594.5134      -1242.4774
  23675208.4474   -7458187.79447  -5505004.41345  23675206.9844   23675214.5874
      4130.7534       3218.7624
 00  1  6  1 23 59.9970000  0  7G 8G 5G24G 9G 4G 7G30
  22974713.5104  -28851028.88447 -21917333.28745  22974711.8984   22974718.3494
     -2985.6384      -2326.4744
  20520680.8894  -29702652.19849 -23118459.56547  20520679.1904   20520684.7604
      2978.3244       2320.7714
  19970203.2944  -29969024.95749 -22982250.57147  19970201.8294   19970207.4014
      2552.1554       1988.6914
  20455471.2644  -31717479.16149 -24687611.05947  20455469.7594   20455474.3964
      -579.7384       -451.7444
  19980799.9304  -29078598.89349 -22323675.11847  19980798.6764   19980803.3684
      -213.3704       -166.2644
  22817020.5514  -27590748.95448 -21165800.60346  22817018.6784   22817024.6854
     -1598.4894      -1245.5774
  23651640.0754   -7582037.64647  -5601510.67245  23651638.8514   23651647.5244
      4126.9774       3215.8214
 00  1  6  1 24 29.9970000  0  7G 8G 5G24G 9G 4G 7G30
  22991753.2914  -28761483.20847 -21847557.46545  22991751.8924   22991757.9174
     -2983.5054      -2324.8134
  20503690.9264  -29791937.50949 -23188032.49547  20503688.9214   20503694.1224
      2974.6274       2317.8914
  19955668.6474  -30045405.54149 -23041767.87547  19955667.0264   19955672.5944
      2540.3144       1979.4634
  20458819.3894  -31699886.63649 -24673902.60347  20458817.7724   20458822.3854
      -592.6474       -461.8034
  19982057.7904  -29071988.23649 -22318523.94447  19982056.6904   19982061.0564
      -227.0214       -176.9004
  22826133.3684  -27542858.97248 -21128483.72046  22826131.5994   22826137.5594
     -1593.8384      -1241.9534
  23628067.4034   -7705909.11947  -5698033.75945  23628066.8644   23628074.2664
      4131.5884       3219.4104
 00  1  6  1 24 59.9970000  0  7G 8G 5G24G 9G 4G 7G30
  23008788.5044  -28671962.80747 -21777801.34545  23008786.6384   23008793.8564
     -2985.2124      -2326.1444
  20486729.3194  -29881069.73349 -23257486.13347  20486727.3354   20486732.6214
      2966.8294       2311.8134
  19941211.1264  -30121382.09849 -23100970.34847  19941209.4614   19941215.0434
      2523.9954       1966.7484
  20462251.0894  -31681850.48349 -24659848.46547  20462249.4774   20462254.5714
      -610.5714       -475.7694
  19983402.7274  -29064922.02749 -22313017.79147  19983401.6344   19983405.3984
      -244.7814       -190.7394
  22835230.6254  -27495055.91348 -21091234.57446  22835228.2864   22835233.9414
     -1594.0074      -1242.0844
  23604480.5944   -7829867.33847  -5794624.48445  23604479.5174   23604485.9704
      4131.5914       3219.4144
 00  1  6  1 25 29.9970000  0  7G 8G 5G24G 9G 4G 7G30
  23025866.1414  -28582225.50347 -21707876.20545  23025863.3594   23025869.8974
     -2995.6414      -2334.2664
  20469844.5734  -29969798.48949 -23326625.37947  20469842.7384   20469847.9034
      2950.1214       2298.7954
  19926879.1994  -30196697.21849 -23159657.41847  19926877.4064   19926882.9024
      2498.3824       1946.7904
  20465818.8744  -31663099.03149 -24645236.95247  20465817.4774   20465822.6964
      -637.6464       -496.8664
  19984880.8254  -29057155.63649 -22306966.03547  19984879.2774   19984883.3404
      -271.5324       -211.5844
  22844364.2204  -27447058.63648 -21053834.08146  22844362.2574   22844368.2064
     -1604.4314      -1250.2074
  23580922.0654   -7953664.30347  -5891089.62345  23580921.1444   23580927.5204
      4123.2414       3212.9194
 00  1  6  1 25 59.9970000  0  7G 8G 5G24G 9G 4G 7G30
  23042957.4334  -28492407.25847 -21637887.99145  23042955.7414   23042961.8164
     -2992.7214      -2331.9884
  20453012.0374  -30058254.82449 -23395552.34447  20453010.2044   20453015.2664
      2946.4634       2295.9454
  19912650.6404  -30271464.19449 -23217917.36147  19912649.4164   19912655.0354
      2485.4524       1936.7154
  20469497.4964  -31643771.53849 -24630176.57547  20469495.8174   20469500.7204
      -651.2034       -507.4314
  19986470.2314  -29048802.33449 -22300456.94747  19986469.0844   19986472.7054
      -286.0814       -222.9214
  22853512.9374  -27398980.97648 -21016370.95546  22853510.8954   22853517.2394
     -1601.5054      -1247.9244
  23557366.9834   -8077441.75747  -5987539.60145  23557365.9574   23557373.5524
      4128.1304       3216.7314
 00  1  6  1 26 29.9970000  0  7G 8G 5G24G 9G 4G 7G30
  23060038.6414  -28402643.40047 -21567942.17845  23060036.6164   23060043.3264
     -2988.3144      -2328.5634
  20436208.2584  -30146560.05649 -23464361.57247  20436206.3734   20436211.6134
      2944.0054       2294.0304
  19898505.3264  -30345800.48549 -23275841.70947  19898503.8314   19898509.8134
      2473.6814       1927.5424
  20473258.0884  -31624008.44149 -24614776.76647  20473256.6844   20473261.5334
      -662.9384       -516.5754
  19988150.1504  -29039974.22549 -22293577.88347  19988148.9304   19988152.7354
      -299.1674       -233.1174
  22862654.1994  -27350942.50848 -20978938.38946  22862652.5384   22862658.5664
     -1597.8294      -1245.0594
  23533793.6904   -8201324.42947  -6084071.55545  23533793.0064   23533800.4544
      4134.2284       3221.4774
 00  1  6  1 26 59.9970000  0  7G 8G 5G24G 9G 4G 7G30
  23077128.2834  -28312836.58247 -21497962.87445  23077125.3654   23077132.4294
     -2996.0334      -2334.5654
  20419450.0584  -30234623.98049 -23532982.77247  20419448.1104   20419453.3714
      2929.7744       2282.9394
  19884459.9024  -30419609.55049 -23333355.23047  19884458.3354   19884464.2514
      2449.8264       1908.9554
  20477117.6964  -31603728.32949 -24598974.09147  20477116.0014   20477120.6324
      -685.9894       -534.5364
  19989936.5124  -29030584.48149 -22286261.18247  19989935.4434   19989939.4914
      -323.8264       -252.3324
  22871806.3554  -27302846.93048 -20941461.30346  22871804.5554   22871810.3484
     -1605.7604      -1251.2454
  23510217.2224   -8325227.88747  -6180619.70645  23510215.6734   23510222.3804
      4129.0504       3217.4434
 00  1  6  1 27 29.9970000  0  7G 8G 5G24G 9G 4G 7G30
  23094217.5864  -28223024.64947 -21427979.60345  23094216.3914   23094222.6544
     -2997.8444      -2335.9834
  20402731.4834  -30322483.41849 -23601444.63747  20402729.4434   20402734.1924
      2921.3154       2276.3494
  19870507.9164  -30492926.66349 -23390485.41647  19870506.5354   19870512.0654
      2431.5034       1894.6774
  20481063.6464  -31582991.93449 -24582815.87447  20481061.9304   20481067.0304
      -702.6024       -547.4804
  19991821.9744  -29020678.26849 -22278542.03747  19991820.7504   19991824.4454
      -343.0324       -267.2974
  22880959.6254  -27254744.40548 -20903978.79246  22880958.1234   22880964.1614
     -1607.5264      -1252.6174
  23486626.6694   -8449197.41247  -6277219.33045  23486625.1884   23486630.9674
      4129.0794       3217.4644
 00  1  6  1 27 59.9970000  0  7G 8G 5G24G 9G 4G 7G30
  23111324.5614  -28133133.99347 -21357934.96145  23111322.8234   23111329.2954
     -2996.4214      -2334.8724
  20386063.0404  -30410072.49349 -23669695.82947  20386061.3424   20386066.5474
      2916.3984       2272.5174
  19856665.9124  -30565670.88349 -23447169.18547  19856664.4284   19856669.2434
      2416.6324       1883.0884
  20485107.1054  -31561742.60949 -24566257.97247  20485105.6904   20485110.7984
      -715.6174       -557.6234
  19993821.4314  -29010173.03649 -22270356.12647  19993819.9784   19993823.7514
      -358.8344       -279.6124
  22890127.0084  -27206573.78447 -20866443.22146  22890124.8754   22890130.3444
     -1605.5274      -1251.0624
  23463043.6114   -8573128.78047  -6373789.20045  23463042.4194   23463048.7614
      4131.3974       3219.2734
 00  1  6  1 28 29.9970000  0  7G 8G 5G24G 9G 4G 7G30
  23128436.0044  -28043213.61347 -21287867.17345  23128433.8364   23128440.8244
     -2998.5344      -2336.5174
  20369437.2974  -30497443.64649 -23737777.20847  20369435.3804   20369440.7814
      2908.1274       2266.0724
  19842921.1994  -30637899.08249 -23503450.86547  19842919.6214   19842924.6764
      2398.2334       1868.7544
  20489237.8184  -31540037.48749 -24549344.90047  20489236.1634   20489240.9644
      -731.7964       -570.2304
  19995922.1324  -28999131.10949 -22261752.01947  19995920.9084   19995925.0914
      -377.7234       -294.3294
  22899297.0254  -27158387.44147 -20828895.40045  22899294.4694   22899300.0904
     -1607.2644      -1252.4124
  23439462.1114   -8697047.96047  -6470349.62545  23439460.7744   23439466.5314
      4129.6364       3217.8984
 00  1  6  1 28 59.9970000  0  7G 8G 5G24G 9G 4G 7G30
  23145570.7294  -27953163.69247 -21217698.45445  23145569.9464   23145577.0854
     -2997.5204      -2335.7334
  20352869.8314  -30584506.93849 -23805618.69947  20352867.7374   20352873.1464
      2903.2544       2262.2744
  19829293.0714  -30709511.19549 -23559252.47647  19829291.6984   19829297.1804
      2383.0784       1856.9434
  20493473.9814  -31517775.91749 -24531998.23547  20493472.3414   20493477.2904
      -745.1584       -580.6424
  19998144.4574  -28987451.71049 -22252651.17647  19998143.4624   19998147.7604
      -393.6914       -306.7724
  22908485.6994  -27110097.19247 -20791266.62545  22908483.4464   22908489.4514
     -1605.0854      -1250.7204
  23415903.0574   -8820845.83647  -6566815.50945  23415902.0014   23415908.4384
      4130.8504       3218.8494
 00  1  6  1 29 29.9970000  0  7G 8G 5G24G 9G 4G 7G30
  23162695.1154  -27863171.37147 -21147574.62345  23162694.4444   23162702.1894
     -3002.3644      -2339.5004
  20336325.0794  -30671449.82349 -23873366.37747  20336323.3574   20336328.4754
      2892.5234       2253.9144
  19815748.3324  -30780693.11549 -23614718.86847  19815746.5674   19815751.7954
      2361.8694       1840.4164
  20497784.0504  -31495125.09849 -24514348.25547  20497782.5434   20497787.7934
      -765.2694       -596.3124
  20000454.3704  -28975315.76249 -22243194.57747  20000453.1184   20000456.9384
      -415.7244       -323.9414
  22917658.7304  -27061890.77547 -20753703.16846  22917657.0274   22917663.2004
     -1609.2454      -1253.9544
  23392337.0784   -8944687.80547  -6663315.73445  23392335.9424   23392342.3614
      4125.0864       3214.3524
 00  1  6  1 29 59.9970000  0  7G 8G 5G24G 9G 4G 7G30
  23179838.5984  -27773087.61547 -21077379.52845  23179837.7874   23179844.6614
     -3001.1354      -2338.5424
  20319831.4484  -30758123.71049 -23940904.44347  20319829.5364   20319834.8234
      2887.8874       2250.3014
  19802311.9174  -30851301.67549 -23669738.48847  19802310.2524   19802315.5544
      2347.6544       1829.3404
  20502198.1584  -31471928.52649 -24496273.00847  20502196.5914   20502201.9754
      -778.9664       -606.9864
  20002876.4544  -28962588.64149 -22233277.32747  20002875.0544   20002878.9844
      -430.5234       -335.4734
  22926843.9784  -27013622.89047 -20716091.82346  22926841.8474   22926848.4864
     -1606.5294      -1251.8384
  23368790.0364   -9068429.94947  -6759738.17945  23368788.5244   23368795.0964
      4126.9684       3215.8174
 00  1  6  1 30 29.9970000  0  7G 8G 5G24G 9G 4G 7G30
  23196996.7374  -27682924.46647 -21007122.58745  23196995.0214   23197001.6744
     -3002.4864      -2339.5974
  20303387.7924  -30844537.44649 -24008239.79347  20303385.8004   20303391.0614
      2880.2874       2244.3784
  19788977.6674  -30921370.76449 -23724337.74547  19788976.2694   19788982.0344
      2330.8554       1816.2504
  20506712.6044  -31448205.79849 -24477787.77747  20506711.0244   20506716.2114
      -795.2524       -619.6764
  20005403.6374  -28949303.42349 -22222925.20347  20005402.6874   20005406.7974
      -447.9734       -349.0704
  22936035.6384  -26965322.81248 -20678455.39946  22936033.4184   22936039.3764
     -1606.2744      -1251.6374
  23345252.0354   -9192125.89847  -6856124.59145  23345250.7654   23345256.3644
      4126.8994       3215.7664
 00  1  6  1 30 59.9970000  0  7G 8G 5G24G 9G 4G 7G30
  23214137.7644  -27592849.93947 -20936934.68545  23214136.0094   23214141.9214
     -3002.3864      -2339.5174
  20286963.9624  -30930844.64049 -24075492.12047  20286961.9874   20286966.8654
      2873.4134       2239.0224
  19775714.5344  -30991068.10849 -23778647.33547  19775713.1174   19775718.8494
      2315.6474       1804.4004
  20511295.9734  -31424121.32549 -24459020.66347  20511294.1594   20511299.1844
      -810.1514       -631.2864
  20008006.1274  -28935629.18749 -22212269.93947  20008004.9594   20008009.3184
      -463.4974       -361.1664
  22945198.5514  -26917168.33948 -20640932.43246  22945196.7184   22945202.5834
     -1604.3144      -1250.1164
  23321686.3204   -9315962.91747  -6952620.89645  23321685.4414   23321691.5264
      4128.9574       3217.3634
 00  1  6  1 31 29.9970000  0  7G 8G 5G24G 9G 4G 7G30
  23231303.1094  -27502646.20747 -20866646.10345  23231300.9104   23231307.9194
     -3006.6564      -2342.8454
  20270606.4394  -31016800.23949 -24142470.48047  20270604.8384   20270610.0324
      2861.5284       2229.7604
  19762564.7614  -31060174.51449 -23832496.44947  19762563.0164   19762568.2634
      2295.9624       1789.0594
  20515986.9084  -31399466.72949 -24439809.29547  20515985.5454   20515990.3324
      -828.6744       -645.7204
  20010721.5634  -28921358.02449 -22201149.54547  20010720.5004   20010725.3014
      -483.4014       -376.6764
  22954379.1084  -26868926.04247 -20603341.01446  22954377.1954   22954382.6524
     -1607.5034      -1252.6004
  23298134.4314   -9439727.48047  -7049060.71745  23298133.2784   23298139.4134
      4126.8244       3215.7064
 00  1  6  1 31 59.9970000  0  7G 8G 5G24G 9G 4G 7G30
  23248477.3224  -27412389.28847 -20796316.10845  23248475.9384   23248483.2044
     -3005.1734      -2341.6864
  20254306.3054  -31102459.20649 -24209217.69847  20254304.3604   20254309.6924
      2854.6574       2224.4084
  19749513.3344  -31128757.55849 -23885937.74847  19749511.9914   19749517.4924
      2281.6824       1777.9334
  20520769.2824  -31374338.01549 -24420228.48547  20520767.5934   20520771.9504
      -841.1334       -655.4284
  20013538.6034  -28906555.56849 -22189615.16047  20013537.3754   20013541.8604
      -498.1594       -388.1764
  22963562.9304  -26820661.92047 -20565732.59446  22963561.2014   22963566.8454
     -1604.9884      -1250.6364
  23274579.0974   -9563512.01947  -7145516.09045  23274577.8964   23274582.9664
      4130.7054       3218.7244
 00  1  6  1 32 29.9970000  0  7G 8G 5G24G 9G 4G 7G30
  23265652.9474  -27322133.24947 -20725986.78245  23265650.9534   23265657.3234
     -3008.5474      -2344.3174
  20238053.0904  -31187867.74249 -24275769.77247  20238051.3474   20238057.2294
      2842.6064       2215.0164
  19736555.0694  -31196853.75949 -23938999.69247  19736553.4614   19736559.0774
      2261.2834       1762.0364
  20525631.6574  -31348785.08449 -24400317.11747  20525630.0504   20525634.4744
      -859.0464       -669.3874
  20016448.8334  -28891257.66249 -22177694.70547  20016448.0494   20016452.8154
      -518.4774       -404.0094
  22972743.8704  -26772419.73447 -20528141.26345  22972741.6994   22972747.3874
     -1608.1044      -1253.0684
  23251012.3314   -9687353.49047  -7242015.80745  23251010.9304   23251016.3994
      4128.5424       3217.0414
 00  1  6  1 32 59.9970000  0  7G 8G 5G24G 9G 4G 7G30
  23282831.3054  -27231864.74147 -20655647.73445  23282828.4554   23282835.3754
     -3005.3674      -2341.8384
  20221851.8794  -31273004.50049 -24342110.06847  20221850.4034   20221855.8524
      2837.2434       2210.8384
  19723697.6894  -31264418.76649 -23991647.71447  19723696.2464   19723701.4074
      2246.9704       1750.8844
  20530580.1344  -31322779.56949 -24380053.08147  20530578.7424   20530583.0124
      -870.6584       -678.4354
  20019459.2114  -28875440.66349 -22165369.76247  20019458.0234   20019462.6174
      -532.0594       -414.5914
  22981924.9524  -26724170.23247 -20490544.24145  22981922.7604   22981928.9054
     -1604.8494      -1250.5354
  23227444.0014   -9811204.55547  -7338522.95745  23227442.7334   23227448.7144
      4132.0904       3219.8074
 00  1  6  1 33 29.9970000  0  7G 8G 5G24G 9G 4G 7G30
  23299996.3924  -27141655.70147 -20585355.03945  23299995.5504   23300001.1214
     -3006.1684      -2342.4624
  20205687.9844  -31357951.82949 -24408302.76347  20205685.8864   20205691.0204
      2828.3874       2203.9384
  19710930.9824  -31331510.04449 -24043926.60447  19710929.3144   19710934.4084
      2228.2074       1736.2644
  20535604.0444  -31296380.71449 -24359482.54947  20535602.3044   20535606.3064
      -886.9424       -691.1234
  20022555.9754  -28859169.21849 -22152690.70047  20022554.6324   20022558.9604
      -550.3114       -428.8154
  22991095.0534  -26675980.02247 -20452993.41845  22991092.7334   22991098.5884
     -1605.4214      -1250.9804
  23203865.6594   -9935109.97847  -7435072.45245  23203864.6894   23203870.2014
      4130.7104       3218.7274
 00  1  6  1 33 59.9970000  0  7G 8G 5G24G 9G 4G 7G30
  23317182.0454  -27051343.49747 -20514981.94645  23317180.3714   23317188.3234
     -3013.5934      -2348.2514
  20189588.4674  -31442551.64149 -24474224.66447  20189586.8974   20189592.2734
      2812.9594       2191.9154
  19698285.6104  -31397960.66449 -24095706.28147  19698284.1804   19698289.6244
      2202.9884       1716.6144
  20540737.8544  -31269400.29349 -24338458.85247  20540736.3274   20540740.4264
      -910.5884       -709.5494
  20025770.9764  -28842273.51149 -22139525.20447  20025769.9024   20025774.1804
      -574.8574       -447.9414
  23000280.6524  -26627708.10247 -20415378.90945  23000279.0534   23000284.6464
     -1611.7084      -1255.8834
  23180312.7514  -10058883.38647  -7531519.08645  23180311.9314   23180317.5154
      4122.0514       3211.9834
 00  1  6  1 34 29.9970000  0  7G 8G 5G24G 9G 4G 7G30
  23334381.2314  -26960967.46447 -20444559.12945  23334377.6804   23334384.9334
     -3017.1024      -2350.9834
  20173545.8084  -31526858.41449 -24539918.21747  20173543.8674   20173549.4034
      2801.8184       2183.2334
  19685753.0144  -31463818.32349 -24147023.90547  19685751.5514   19685756.9194
      2181.9354       1700.2074
  20545976.9474  -31241867.12649 -24317004.43947  20545975.5284   20545980.2404
      -930.4474       -725.0234
  20029094.1414  -28824809.85849 -22125917.15547  20029092.9794   20029097.3324
      -595.1494       -463.7534
  23009473.3894  -26579402.35747 -20377738.04245  23009471.4404   23009477.1094
     -1614.4044      -1257.9784
  23156779.2914  -10182551.41547  -7627883.62745  23156777.9984   23156783.9274
      4116.9764       3208.0264
 00  1  6  1 34 59.9970000  0  7G 8G 5G24G 9G 4G 7G30
  23351574.8934  -26870607.51447 -20374148.83945  23351572.9474   23351580.4804
     -3012.4734      -2347.3834
  20157544.5084  -31610946.24249 -24605441.16147  20157542.5184   20157547.5814
      2798.5194       2180.6644
  19673316.8144  -31529173.10249 -24197949.67747  19673315.2644   19673320.4744
      2169.5644       1690.5674
  20551306.4324  -31213863.08449 -24295183.11447  20551304.8074   20551309.6094
      -941.9474       -733.9854
  20032511.7184  -28806850.46149 -22111922.80747  20032510.5854   20032514.7464
      -607.7434       -473.5674
  23018658.9594  -26531131.01647 -20340124.00945  23018657.2104   23018662.5124
     -1609.3744      -1254.0614
  23133249.5124  -10306190.13447  -7724225.28545  23133248.6404   23133255.8034
      4120.2254       3210.5664
 00  1  6  1 35 29.9970000  0  7G 8G 5G24G 9G 4G 7G30
  23368778.0794  -26780204.45047 -20303704.98245  23368776.3434   23368783.0094
     -3016.9234      -2350.8474
  20141596.5144  -31694750.65149 -24670743.26147  20141594.9514   20141600.1034
      2785.7694       2170.7284
  19660982.8694  -31593987.81049 -24248454.61747  19660981.2434   19660986.6864
      2148.7054       1674.3154
  20556734.9384  -31185335.67049 -24272953.96847  20556733.4224   20556738.4804
      -962.3994       -749.9214
  20036036.4904  -28788328.19849 -22097489.86147  20036035.1924   20036039.4564
      -629.8204       -490.7694
  23027851.3174  -26482824.46847 -20302482.53545  23027849.1504   23027855.4244
     -1613.9204      -1257.5984
  23109736.5584  -10429756.26147  -7820510.39045  23109735.2934   23109741.9174
      4115.1344       3206.5984
 00  1  6  1 35 59.9970000  0  7G 8G 5G24G 9G 4G 7G30
  23385971.3394  -26689850.44347 -20233299.33645  23385970.8204   23385977.7094
     -3012.8374      -2347.6604
  20125689.0934  -31778348.85349 -24735884.67347  20125686.8744   20125691.9194
      2781.3644       2167.2954
  19648733.8764  -31658355.89949 -24298611.53947  19648732.4204   19648738.2034
      2136.1294       1664.5144
  20562243.8814  -31156384.70849 -24250394.78647  20562242.2704   20562247.8404
      -973.8044       -758.8084
  20039653.1114  -28769324.32049 -22082681.63247  20039651.8124   20039655.8154
      -643.5284       -501.4514
  23037038.9444  -26434547.46947 -20264864.08345  23037036.7834   23037042.5174
     -1611.1704      -1255.4594
  23086214.7994  -10553359.69147  -7916824.57945  23086214.1444   23086219.7744
      4119.1234       3209.7014
 00  1  6  1 36 29.9970000  0  6G 8G 5G24G 9G 4G 7
  23403154.6324  -26599553.73747 -20162938.34945  23403153.7354   23403160.6634
     -3013.5474      -2348.2224
  20109818.6284  -31861746.94449 -24800870.15647  20109816.6674   20109821.8064
      2771.5684       2159.6624
  19636571.5054  -31722269.98549 -24348414.69347  19636569.9744   19636575.3664
      2117.8964       1650.3094
  20567831.4154  -31127022.91549 -24227515.47347  20567829.7774   20567835.2404
      -990.2704       -771.6394
  20043363.0884  -28749826.21749 -22067488.29347  20043361.9124   20043366.1634
      -663.2814       -516.8424
  23046227.1614  -26386262.00447 -20227239.02345  23046224.9924   23046230.8304
     -1614.6894      -1258.2064
 00  1  6  1 36 59.9970000  0  7G 8G 5G24G 9G 4G 7G30
  23420347.0814  -26509210.88147 -20092541.39145  23420344.5114   23420352.3004
     -3011.0374      -2346.2654
  20094012.3844  -31944809.57949 -24865594.24847  20094010.5214   20094015.8744
      2764.2784       2153.9824
  19624520.0404  -31785600.55749 -24397763.16147  19624518.5494   19624523.6694
      2102.3664       1638.2084
  20573517.5574  -31097141.89149 -24204231.56547  20573515.9324   20573521.7544
     -1003.5104       -781.9554
  20047192.2124  -28729704.04949 -22051808.66347  20047191.0514   20047195.0904
      -679.7194       -529.6514
  23055439.5294  -26337848.02047 -20189513.81645  23055437.4674   23055443.4924
     -1614.5364      -1258.0814
  23039165.5534  -10800610.36047  -8109487.13645  23039164.1394   23039168.9934
      4120.0124       3210.3964
 00  1  6  1 37 29.9970000  0  7G 8G 5G24G 9G 4G 7G30
  23437528.4034  -26418919.75947 -20022184.75145  23437526.2964   23437534.7494
     -3007.6814      -2343.6384
  20078253.2584  -32027624.22849 -24930125.10047  20078251.2634   20078256.4484
      2757.5054       2148.7044
  19612565.2264  -31848425.40549 -24446717.55247  19612563.5194   19612568.6854
      2086.5994       1625.9204
  20579285.8914  -31066828.13549 -24180610.45947  20579284.3624   20579290.0174
     -1016.5544       -792.1214
  20051119.0264  -28709066.82649 -22035727.69247  20051117.8594   20051122.1744
      -695.3374       -541.8224
  23064655.1334  -26289417.26347 -20151775.54845  23064653.6564   23064659.5494
     -1613.4614      -1257.2484
  23015640.9534  -10924234.07647  -8205817.12845  23015639.0284   23015645.1404
      4122.2874       3212.1594
 00  1  6  1 37 59.9970000  0  7G 8G 5G24G 9G 4G 7G30
  23454714.2214  -26328608.74647 -19951812.63745  23454713.1394   23454719.8664
     -3010.0324      -2345.4764
  20062555.6094  -32110113.15349 -24994402.14347  20062554.0814   20062558.9814
      2744.8614       2138.8514
  19600722.8304  -31910652.64649 -24495206.27847  19600721.5254   19600727.3134
      2064.9884       1609.0804
  20585151.1664  -31036006.89149 -24156593.90447  20585149.5774   20585154.9974
     -1034.9144       -806.4274
  20055157.1104  -28687847.47349 -22019193.11447  20055155.9564   20055160.0084
      -716.0684       -557.9764
  23073886.6374  -26240911.23147 -20113978.62945  23073884.0594   23073889.5004
     -1617.1464      -1260.1104
  22992126.8674  -11047793.55247  -8302097.09145  22992125.9994   22992132.3794
      4118.1404       3208.9394
 00  1  6  1 38 29.9960000  0  7G 8G 5G24G 9G 4G 7G30
  23471872.4104  -26238452.98947 -19881561.48245  23471868.6364   23471875.2834
     -3009.7354      -2345.2464
  20046890.5304  -32192436.87349 -25058550.45747  20046888.4104   20046893.2064
      2734.5544       2130.8204
  19588962.8384  -31972454.31049 -24543363.38847  19588961.3544   19588966.6064
      2046.1944       1594.4354
  20591076.3054  -31004870.10649 -24132331.47247  20591074.8314   20591079.9574
     -1049.8544       -818.0694
  20059267.4704  -28666246.80849 -22002361.41347  20059266.3854   20059270.7254
      -732.9494       -571.1304
  23083090.9794  -26192540.68247 -20076287.26945  23083089.1444   23083093.6174
     -1616.7814      -1259.8334
  22968597.8544  -11171445.49847  -8398449.12945  22968596.4034   22968603.0954
      4116.5684       3207.7144
 00  1  6  1 38 59.9960000  0  7G 8G 5G24G 9G 4G 7G30
  23489031.2494  -26148274.03447 -19811292.26745  23489028.8294   23489035.6954
     -3006.8104      -2342.9644
  20031286.7304  -32274432.55149 -25122443.15347  20031284.8664   20031289.8504
      2727.2974       2125.1654
  19577313.5644  -32033671.51449 -24591065.07747  19577312.0574   19577317.4494
      2030.3284       1582.0734
  20597091.4024  -30973262.46249 -24107702.14047  20597089.7544   20597094.5164
     -1061.9884       -827.5234
  20063476.0134  -28644132.77049 -21985129.68347  20063474.7314   20063478.9484
      -745.9954       -581.2954
  23092296.0014  -26144165.63647 -20038592.40445  23092294.0854   23092299.7844
     -1613.2234      -1257.0534
  22945078.9474  -11295030.78647  -8494749.22345  22945078.6144   22945085.3364
      4117.7764       3208.6554
 00  1  6  1 39 29.9960000  0  7G 8G 5G24G 9G 4G 7G30
  23506208.1374  -26058012.56947 -19740958.75245  23506206.6364   23506212.2454
     -3003.0124      -2340.0074
  20015756.4624  -32356044.90949 -25186037.15147  20015754.6474   20015759.6654
      2721.0674       2120.3104
  19565786.8964  -32094242.57949 -24638263.27647  19565785.5574   19565790.9914
      2015.1754       1570.2674
  20603208.7074  -30941115.97449 -24082652.92947  20603207.1194   20603211.6974
     -1073.4774       -836.4754
  20067791.0494  -28621456.94649 -21967460.19447  20067789.8504   20067793.8854
      -758.4694       -591.0154
  23101515.6454  -26095718.07347 -20000841.04245  23101513.4444   23101519.0964
     -1609.5034      -1254.1554
  22921588.5634  -11418478.87647  -8590942.40145  22921587.5414   22921593.8954
      4119.7614       3210.1974
 00  1  6  1 39 59.9960000  0  7G 8G 5G24G 9G 4G 7G30
  23523380.9854  -25967767.08747 -19670637.68545  23523379.6804   23523386.3994
     -3011.3004      -2346.4614
  20000279.9874  -32437373.03249 -25249409.67147  20000278.1794   20000283.0884
      2702.8964       2106.1524
  19554365.0734  -32154267.37149 -24685035.80647  19554363.4624   19554368.4204
      1988.3954       1549.3974
  20609409.2714  -30908531.34149 -24057262.30247  20609407.7494   20609412.4354
     -1096.7244       -854.5894
  20072195.3464  -28598311.69049 -21949424.91447  20072194.1804   20072198.1284
      -782.5244       -609.7594
  23110733.2844  -26047275.57547 -19963093.63145  23110731.2234   23110737.8144
     -1618.2244      -1260.9564
  22898103.1864  -11541893.80047  -8687109.75345  22898102.6334   22898108.1904
      4109.9764       3202.5754
 00  1  6  1 40 29.9960000  0  7G 8G 5G24G 9G 4G 7G30
  23540555.5984  -25877519.19047 -19600314.74045  23540552.8284   23540558.9624
     -3008.3474      -2344.1614
  19984861.0924  -32518401.08349 -25312548.36847  19984859.0634   19984864.1984
      2695.9344       2100.7254
  19543050.6314  -32213724.94749 -24731366.34847  19543049.2264   19543054.3134
      1972.1884       1536.7694
  20615697.1054  -30875487.02049 -24031513.47847  20615695.6774   20615700.4824
     -1109.5664       -864.5974
  20076691.0364  -28574685.26049 -21931014.68947  20076690.0144   20076694.2324
      -796.0164       -620.2734
  23119958.8624  -25998796.24847 -19925317.52245  23119957.0004   23119962.6074
     -1617.1214      -1260.0984
  22874628.1594  -11665256.47547  -8783236.41345  22874627.2084   22874633.0474
      4111.0304       3203.3984
 00  1  6  1 40 59.9960000  0  7G 8G 5G24G 9G 4G 7G30
  23557715.0654  -25787341.66847 -19530046.65845  23557712.2154   23557720.1604
     -3004.3374      -2341.0314
  19969484.7864  -32599202.89849 -25375510.78147  19969482.8614   19969487.9774
      2689.8684       2096.0004
  19531831.3414  -32272683.55349 -24777308.08347  19531829.6364   19531835.2144
      1957.5874       1525.3914
  20622065.2774  -30842024.63449 -24005438.89247  20622063.5504   20622068.1654
     -1122.0324       -874.3114
  20081269.8724  -28550623.24349 -21912265.05347  20081268.7374   20081273.0064
      -809.2574       -630.5904
  23129181.3394  -25950330.68947 -19887552.12945  23129179.8684   23129185.4354
     -1614.9634      -1258.4154
  22851152.0834  -11788624.48347  -8879367.24745  22851150.7124   22851156.2664
      4112.6524       3204.6634
 00  1  6  1 41 29.9960000  0  7G 8G 5G24G 9G 4G 7G30
  23574882.2124  -25697131.24447 -19459752.95445  23574879.7284   23574887.0594
     -3006.4564      -2342.6944
  19954174.2084  -32679661.56849 -25438205.80647  19954172.4214   19954177.6444
      2677.3954       2086.2804
  19520723.6404  -32331053.17549 -24822790.86947  19520722.1194   19520727.6844
      1937.0404       1509.3804
  20628532.4074  -30808037.30449 -23978955.25547  20628530.9884   20628535.4264
     -1140.2394       -888.4994
  20085956.1874  -28525998.90549 -21893077.23647  20085954.8554   20085958.6364
      -829.0284       -645.9964
  23138421.3924  -25901774.58847 -19849716.19445  23138419.7114   23138425.4944
     -1618.7764      -1261.3824
  22827695.9804  -11911884.35947  -8975413.84345  22827695.3124   22827700.4154
      4107.9874       3201.0274
 00  1  6  1 41 59.9960000  0  7G 8G 5G24G 9G 4G 7G30
  23592032.8894  -25607003.47347 -19389523.63645  23592030.5514   23592038.3864
     -3005.1434      -2341.6734
  19938906.4384  -32759894.74949 -25500725.12547  19938904.2824   19938909.8934
      2668.5544       2079.3914
  19509704.1824  -32388960.45549 -24867913.38747  19509702.6584   19509708.0474
      1920.3304       1496.3594
  20635073.6804  -30773665.24149 -23952171.82547  20635071.8724   20635076.1814
     -1154.1104       -899.3074
  20090725.0584  -28500938.65249 -21873549.74847  20090723.6074   20090727.6014
      -844.6064       -658.1364
  23147652.1514  -25853264.85047 -19811916.40345  23147650.8104   23147655.6984
     -1618.3964      -1261.0904
  22804239.1714  -12035147.25547  -9071462.77145  22804238.5734   22804243.5374
      4106.4974       3199.8624
 00  1  6  1 42 29.9960000  0  7G 8G 5G24G 9G 4G 7G30
  23609181.5134  -25516889.37747 -19319304.99445  23609178.7524   23609185.3384
     -3003.7174      -2340.5664
  19923692.5544  -32839840.41349 -25563020.41447  19923690.9714   19923696.2104
      2659.7684       2072.5464
  19498784.4864  -32446341.41049 -24912625.78647  19498783.1224   19498789.0904
      1903.6474       1483.3614
  20641695.2374  -30738862.88349 -23925053.10547  20641693.9564   20641698.7914
     -1167.4124       -909.6724
  20095587.1274  -28475385.11749 -21853637.87947  20095586.1174   20095589.7934
      -860.4194       -670.4574
  23156883.6884  -25804754.14947 -19774115.83645  23156881.7974   23156887.1454
     -1617.1014      -1260.0774
  22780797.3004  -12158339.40747  -9167456.58345  22780796.1594   22780801.3754
      4105.1234       3198.7914
 00  1  6  1 42 59.9960000  0  7G 8G 5G24G 9G 4G 7G30
  23626327.3324  -25426797.12447 -19249103.33945  23626325.0214   23626330.3344
     -3004.1604      -2340.9034
  19908534.9684  -32919493.15549 -25625087.44847  19908533.4164   19908538.9294
      2648.6524       2063.8834
  19487964.3594  -32503201.52348 -24956932.33247  19487962.8434   19487968.2754
      1885.1574       1468.9524
  20648397.3264  -30703643.33249 -23897609.29947  20648395.9364   20648400.6474
     -1182.1384       -921.1474
  20100544.8164  -28449333.77549 -21833338.10747  20100543.3574   20100547.5214
      -878.0154       -684.1684
  23166110.9254  -25756267.53747 -19736334.02045  23166108.5294   23166113.5024
     -1617.3964      -1260.3084
  22757365.3394  -12281473.77947  -9263405.35845  22757364.3064   22757369.6384
      4102.2024       3196.5194
 00  1  6  1 43 29.9960000  0  7G 6G 5G24G 9G 4G 7G30
  23896798.5064   -6565527.66957  -4843723.71845  23896796.9214   23896804.7204
      3473.5024       2706.6144
  19893440.4124  -32998817.85149 -25686898.85847  19893438.4874   19893443.8004
      2642.4544       2059.0544
  19477252.9484  -32559493.53248 -25000796.20147  19477251.1994   19477255.8464
      1870.0474       1457.1784
  20655182.0404  -30667991.68549 -23869828.79347  20655180.3584   20655185.3534
     -1191.9264       -928.7744
  20105599.8564  -28422767.62449 -21812637.18847  20105598.7904   20105603.0134
      -890.4424       -693.8524
  23175340.4354  -25707766.58247 -19698541.03145  23175338.2884   23175342.7114
     -1613.5764      -1257.3284
  22733949.0074  -12404528.17047  -9359291.80745  22733947.2294   22733953.5634
      4104.2224       3198.0914
 00  1  6  1 43 59.9960000  0  7G 6G 5G24G 9G 4G 7G30
  23876998.9974   -6669578.32447  -4924801.89845  23876996.4684   23877004.8044
      3467.2974       2701.7804
  19878404.1144  -33077838.89749 -25748473.66147  19878401.7674   19878406.6304
      2629.4714       2048.9374
  19466651.5674  -32615200.92348 -25044204.52647  19466650.1404   19466655.4344
      1847.6964       1439.7644
  20662045.0194  -30631924.65249 -23841724.61147  20662043.5424   20662048.2994
     -1208.7454       -941.8784
  20110748.9304  -28395708.09449 -21791551.82347  20110747.7934   20110752.6694
      -909.6874       -708.8474
  23184571.0814  -25659255.68647 -19660740.29145  23184569.4694   23184574.9094
     -1616.9184      -1259.9324
  22710542.3994  -12527530.17147  -9455137.43445  22710540.7684   22710546.9744
      4099.9714       3194.7814
 00  1  6  1 44 29.9960000  0  7G 6G 5G24G 9G 4G 7G30
  23857214.6794   -6773544.03747  -5005813.92245  23857213.0274   23857220.1824
      3465.1674       2700.1224
  19863423.1404  -33156562.91349 -25809817.01747  19863421.0494   19863425.8384
      2620.0694       2041.6114
  19456158.1954  -32670343.46848 -25087172.71447  19456156.9104   19456162.3314
      1829.8084       1425.8244
  20668986.6164  -30595446.74849 -23813300.26847  20668985.1704   20668989.6544
     -1221.8784       -952.1134
  20115991.2464  -28368162.74149 -21770087.89747  20115990.0264   20115993.9884
      -925.3294       -721.0374
  23193802.0334  -25610746.77747 -19622941.13245  23193799.8304   23193806.1904
     -1615.8264      -1259.0894
  22687139.3004  -12650513.97047  -9550968.87645  22687137.9134   22687144.4644
      4100.3904       3195.1074
 00  1  6  1 44 59.9960000  0  7G 6G 5G24G 9G 4G 7G30
  23837448.3424   -6877409.48847  -5086747.84645  23837446.4624   23837454.6434
      3461.4584       2697.2354
  19848503.1044  -33234965.40649 -25870909.83047  19848501.0624   19848506.2954
      2608.9224       2032.9254
  19445774.2704  -32724912.91048 -25129694.32747  19445772.7554   19445777.9884
      1810.0734       1410.4464
  20676012.0474  -30558527.13549 -23784531.73247  20676010.5864   20676015.3514
     -1237.3144       -964.1414
  20121328.0894  -28340116.23749 -21748233.45447  20121326.8624   20121331.1904
      -942.3634       -734.3094
  23203036.6524  -25562217.18047 -19585125.85545  23203034.8664   23203040.8314
     -1617.6894      -1260.5344
  22663739.8784  -12773476.37647  -9646783.66145  22663739.3524   22663744.6834
      4099.0454       3194.0604
 00  1  6  1 45 29.9960000  0  7G 6G 5G24G 9G 4G 7G30
  23817682.1584   -6981274.52947  -5167681.47945  23817681.1934   23817689.8164
      3460.0014       2696.0924
  19833626.7444  -33313139.68849 -25931824.81947  19833624.9044   19833629.9934
      2599.8414       2025.8484
  19435482.7184  -32778994.34048 -25171835.66747  19435481.1104   19435486.6394
      1792.4854       1396.7404
  20683106.5174  -30521246.37949 -23755481.78947  20683105.0484   20683109.9484
     -1250.9254       -974.7474
  20126742.9914  -28311663.33049 -21726062.34147  20126741.6084   20126745.3164
      -957.4324       -746.0524
  23212262.4384  -25513739.09847 -19547350.70645  23212259.8064   23212266.0014
     -1617.1744      -1260.1394
  22640329.1014  -12896500.35147  -9742646.44245  22640328.3444   22640333.0744
      4099.6564       3194.5334
 00  1  6  1 45 59.9960000  0  7G 6G 5G24G 9G 4G 7G30
  23797934.8414   -7085055.40747  -5248549.58145  23797932.9404   23797941.1364
      3458.6884       2695.0794
  19818812.5874  -33390989.88649 -25992487.28047  19818810.8874   19818815.4694
      2590.1634       2018.3074
  19425297.6124  -32832518.02148 -25213542.40447  19425296.2944   19425301.4454
      1776.0064       1383.8994
  20690288.8744  -30483504.02549 -23726072.15847  20690287.4364   20690291.8494
     -1265.2024       -985.8724
  20132252.1004  -28282712.62749 -21703503.32947  20132250.6994   20132254.2094
      -972.5944       -757.8674
  23221493.4314  -25465229.52847 -19509551.02145  23221491.6274   23221496.9944
     -1616.8304      -1259.8664
  22616924.8174  -13019485.92347  -9838479.27645  22616924.2114   22616930.3404
      4099.4674       3194.3864
 00  1  6  1 46 29.9960000  0  7G 6G 5G24G 9G 4G 7G30
  23778200.8384   -7188751.44247  -5329351.57045  23778200.1894   23778207.4414
      3456.4074       2693.2974
  19804061.3154  -33468509.98749 -26052892.52347  19804059.2194   19804063.9024
      2580.1364       2010.4954
  19415211.4574  -32885522.15348 -25254844.29347  19415209.9244   19415214.7414
      1759.5974       1371.1124
  20697559.9394  -30445297.13549 -23696300.54747  20697558.2894   20697562.0664
     -1279.6074       -997.0974
  20137854.0984  -28253271.46049 -21680562.13047  20137853.0294   20137856.7554
      -987.9484       -769.8304
  23230729.0534  -25416697.65347 -19471733.95445  23230726.6164   23230731.1084
     -1616.6534      -1259.7334
  22593531.9214  -13142421.74747  -9934273.34145  22593530.5234   22593536.5114
      4098.3554       3193.5204
 00  1  6  1 46 59.9960000  0  7G 6G 5G24G 9G 4G 7G30
  23758482.3634   -7292377.50747  -5410099.09245  23758480.7844   23758487.6314
      3449.1604       2687.6634
  19789365.6404  -33545734.04049 -26113067.08547  19789363.9924   19789368.3734
      2565.3714       1998.9904
  19405220.0494  -32938025.24848 -25295755.76247  19405218.7424   19405223.7054
      1737.6474       1354.0094
  20704911.7014  -30406660.21749 -23666193.85047  20704910.3094   20704914.5324
     -1298.7184      -1011.9884
  20143542.7124  -28223376.52749 -21657267.35447  20143541.6574   20143545.6154
     -1007.9094       -785.3834
  23239964.1484  -25368163.59847 -19433915.18545  23239962.8044   23239967.7904
     -1621.8564      -1263.7874
  22570147.1564  -13265311.48747 -10030031.50146  22570146.2224   22570151.1324
      4091.4004       3188.0994
 00  1  6  1 47 29.9960000  0  7G 6G 5G24G 9G 4G 7G30
  23738784.0244   -7395894.47047  -5490761.58745  23738782.2384   23738789.9994
      3447.0574       2686.0144
  19774735.3724  -33622616.78849 -26172975.69147  19774733.5454   19774738.0544
      2555.3314       1991.1674
  19395334.5174  -32989978.18448 -25336238.53547  19395332.8264   19395337.6224
      1720.9674       1341.0114
  20712351.3314  -30367566.35149 -23635731.09247  20712349.8274   20712354.1124
     -1312.3274      -1022.5934
  20149324.9604  -28192989.91949 -21633589.45647  20149324.0134   20149327.9034
     -1022.7854       -796.9754
  23249207.0414  -25319592.65847 -19396067.65645  23249204.9594   23249209.6014
     -1621.1394      -1263.2284
  22546781.9994  -13388090.87847 -10125703.66345  22546781.0574   22546786.6254
      4089.0304       3186.2534
 00  1  6  1 47 59.9960000  0  7G 6G 5G24G 9G 4G 7G30
  23719107.9134   -7499290.27947  -5571329.67245  23719106.3724   23719113.8764
      3446.0064       2685.1994
  19760172.7254  -33699143.20149 -26232606.62847  19760170.9714   19760175.7274
      2546.4814       1984.2704
  19385553.5774  -33041372.60448 -25376286.10747  19385552.3234   19385557.9074
      1705.2674       1328.7784
  20719878.8654  -30328008.92149 -23604907.11147  20719877.3304   20719881.9194
     -1324.5314      -1032.1024
  20155202.8524  -28162102.22649 -21609521.10847  20155201.6704   20155205.6064
     -1036.3824       -807.5704
  23258456.3774  -25270984.78447 -19358191.33845  23258454.9644   23258459.1464
     -1619.3434      -1261.8284
  22523443.4114  -13510737.58947 -10221272.43645  22523442.2234   22523447.9694
      4087.5784       3185.1274
 00  1  6  1 48 29.9960000  0  7G 6G 5G24G 9G 4G 7G30
  23699447.9634   -7602598.80347  -5651829.73445  23699446.8164   23699455.6634
      3445.3534       2684.6864
  19745671.6814  -33775346.79249 -26291986.01847  19745669.9744   19745674.4904
      2537.8954       1977.5804
  19375877.9964  -33092220.01348 -25415907.44147  19375876.6104   19375881.7264
      1688.4394       1315.6664
  20727484.1584  -30288040.23649 -23573762.67647  20727482.5884   20727487.6224
     -1335.9464      -1040.9974
  20161170.0514  -28130745.30349 -21585087.12747  20161168.7904   20161172.3164
     -1050.0814       -818.2474
  23267706.7514  -25222376.34647 -19320314.60145  23267704.1074   23267710.4194
     -1617.3404      -1260.2654
  22500122.7224  -13633287.82547 -10316766.04945  22500121.5914   22500126.8024
      4086.5134       3184.2984
 00  1  6  1 48 59.9960000  0  7G 6G 5G24G 9G 4G 7G30
  23679794.2114   -7705885.37247  -5732312.68545  23679793.1474   23679799.7314
      3438.1504       2679.0744
  19731219.5604  -33851297.43849 -26351168.30647  19731217.2154   19731221.4874
      2523.1174       1966.0654
  19366300.0054  -33142551.74148 -25455126.93747  19366298.5934   19366303.5034
      1664.7334       1297.1934
  20735155.8894  -30247727.14049 -23542349.86947  20735154.1334   20735159.0864
     -1353.9974      -1055.0634
  20167214.7344  -28098980.52049 -21560335.33147  20167213.5184   20167217.2354
     -1069.9684       -833.7414
  23276945.9654  -25173824.39347 -19282481.88845  23276943.8634   23276949.3524
     -1621.9354      -1263.8444
  22476807.3004  -13755806.44147 -10412235.02045  22476806.6454   22476812.7144
      4079.1524       3178.5614
 00  1  6  1 49 29.9960000  0  7G 6G 5G24G 9G 4G 7G30
  23660164.4324   -7809043.41847  -5812695.51945  23660162.1784   23660169.7724
      3436.9504       2678.1374
  19716832.6224  -33926899.23049 -26410078.76947  19716830.7044   19716834.9554
      2514.9474       1959.6984
  19356839.0734  -33192271.03548 -25493869.22347  19356837.5964   19356842.3064
      1647.7754       1283.9804
  20742912.8684  -30206963.26749 -23510585.80347  20742911.5394   20742916.1254
     -1365.7314      -1064.2064
  20173355.7284  -28066710.13249 -21535189.55747  20173354.2834   20173358.1264
     -1083.6224       -844.3804
  23286192.9004  -25125233.02147 -19244618.47245  23286190.9804   23286195.6864
     -1619.8764      -1262.2454
  22453515.2404  -13878203.81947 -10507609.49845  22453514.9824   22453521.3674
      4078.7024       3178.2084
 00  1  6  1 49 59.9960000  0  7G 6G 5G24G 9G 4G 7G30
  23640537.3424   -7912176.44347  -5893058.80745  23640536.0034   23640543.3904
      3435.4544       2676.9734
  19702489.9124  -34002271.30649 -26468810.23647  19702487.7594   19702492.1174
      2506.6814       1953.2574
  19347473.2074  -33241490.58548 -25532222.08847  19347471.5944   19347476.2384
      1630.4674       1270.4944
  20750734.8944  -30165861.08349 -23478558.11547  20750733.0924   20750737.6024
     -1377.4684      -1073.3524
  20179573.2354  -28034036.67349 -21509729.70347  20179571.8554   20179575.5374
     -1097.6764       -855.3324
  23295426.6554  -25076707.68347 -19206806.50145  23295423.6484   23295430.1134
     -1618.3994      -1261.0904
  22430224.1354  -14000602.95147 -10602985.35446  22430223.1024   22430229.5124
      4078.2234       3177.8314
 00  1  6  1 50 29.9960000  0  7G 6G 5G24G 9G 4G 7G30
  23620939.1184   -8015172.00247  -5973314.98645  23620937.8334   23620943.8964
      3431.9194       2674.2214
  19688211.8014  -34077300.20249 -26527274.28247  19688210.0544   19688214.8834
      2496.2204       1945.1064
  19338222.0374  -33290103.32348 -25570102.11847  19338220.6134   19338225.7124
      1611.4544       1255.6784
  20758641.0384  -30124308.50949 -23446179.48047  20758639.7144   20758644.7484
     -1391.7194      -1084.4564
  20185888.6104  -28000846.38849 -21483867.12147  20185887.6214   20185891.5504
     -1113.9884       -868.0434
  23304670.0784  -25028129.48447 -19168953.32345  23304668.5644   23304673.2524
     -1619.4704      -1261.9264
  22406953.5624  -14122892.38047 -10698275.73846  22406952.5914   22406958.7044
      4075.4274       3175.6504
 00  1  6  1 50 59.9960000  0  7G 6G 5G24G 9G 4G 7G30
  23601360.5744   -8118057.11747  -6053485.08845  23601358.8834   23601366.0384
      3429.7164       2672.5054
  19673994.7184  -34152010.79349 -26585490.29947  19673993.0614   19673997.9994
      2486.9024       1937.8444
  19329079.1344  -33338151.29148 -25607542.06747  19329077.3624   19329082.3134
      1594.3454       1242.3474
  20766629.8734  -30082330.00649 -23413468.95047  20766628.1824   20766633.1874
     -1404.2304      -1094.2054
  20192296.3594  -27967175.02149 -21457629.67447  20192295.2894   20192299.0894
     -1128.2274       -879.1374
  23313920.8524  -24979517.67447 -19131073.93545  23313918.7694   23313924.3244
     -1618.8454      -1261.4374
  22383698.7364  -14245097.67747 -10793500.55346  22383697.4964   22383703.3394
      4074.1904       3174.6914
 00  1  6  1 51 29.9960000  0  7G 6G 5G24G 9G 4G 7G30
  23581794.8304   -8220873.08047  -6133601.28345  23581793.2364   23581800.6974
      3426.7374       2670.1804
  19659835.5484  -34226418.25249 -26643470.11047  19659833.5324   19659838.6074
      2475.5084       1928.9674
  19320035.3284  -33385676.05348 -25644574.32347  19320033.7704   19320038.6804
      1575.9444       1228.0074
  20774690.0024  -30039969.90449 -23380461.06847  20774688.8704   20774694.0534
     -1417.5974      -1104.6224
  20198788.9574  -27933056.07449 -21431043.46647  20198787.5184   20198791.7344
     -1144.4054       -891.7454
  23323169.3754  -24930913.64247 -19093200.61845  23323167.9124   23323173.0294
     -1619.5264      -1261.9744
  22360452.4274  -14367255.12747 -10888688.08546  22360451.4074   22360457.5844
      4071.7204       3172.7684
 00  1  6  1 51 59.9960000  0  7G 6G 5G24G 9G 4G 7G30
  23562238.3684   -8323643.51547  -6213682.00745  23562236.3644   23562243.4324
      3427.4194       2670.7134
  19645734.1234  -34300518.73549 -26701210.72147  19645732.5854   19645737.7264
      2467.0824       1922.4014
  19311088.5934  -33432690.60248 -25681209.00747  19311087.1634   19311092.1904
      1561.0804       1216.4244
  20782818.4374  -29997258.08049 -23347179.12847  20782816.8454   20782821.8384
     -1427.3034      -1112.1844
  20205364.4404  -27898500.84449 -21404117.30247  20205363.1724   20205367.6784
     -1156.4914       -901.1644
  23332414.6284  -24882336.53347 -19055348.29645  23332411.9824   23332417.2074
     -1616.4294      -1259.5554
  22337213.1894  -14489382.15847 -10983851.91446  22337212.0484   22337217.1964
      4072.6394       3173.4814
 00  1  6  1 52 29.9960000  0  7G 6G 5G24G 9G 4G 7G30
  23542692.4334   -8426359.04947  -6293719.95145  23542690.7644   23542697.5184
      3425.8664       2669.5074
  19631697.1654  -34374285.47249 -26758691.26847  19631695.3164   19631700.4544
      2456.0814       1913.8304
  19302241.5924  -33479180.96748 -25717435.23747  19302240.2164   19302245.4634
      1543.5674       1202.7804
  20791015.3374  -29954182.82149 -23313613.99347  20791013.6384   20791018.7854
     -1439.0204      -1121.3144
  20212020.6574  -27863519.88449 -21376859.39847  20212019.7494   20212024.4014
     -1170.2644       -911.8944
  23341653.5304  -24833783.97647 -19017515.12045  23341651.2164   23341656.5544
     -1615.2944      -1258.6714
  22313981.0134  -14611466.86147 -11078982.74645  22313979.7204   22313985.7834
      4071.7534       3172.7914
 00  1  6  1 52 59.9960000  0  7G 6G 5G24G 9G 4G 7G30
  23523172.3474   -8528936.34547  -6373650.14645  23523170.6614   23523177.4464
      3419.6694       2664.6744
  19617742.2034  -34447620.75549 -26815835.61647  19617740.1984   19617745.1384
      2440.0194       1901.3124
  19293515.0234  -33525041.43048 -25753170.63947  19293513.3884   19293518.2994
      1520.8034       1185.0424
  20799295.7504  -29910667.49849 -23279705.95347  20799294.2024   20799299.6724
     -1455.1724      -1133.9014
  20218773.8264  -27828036.94949 -21349210.34247  20218772.4764   20218776.4634
     -1188.4194       -926.0424
  23350903.5294  -24785171.67747 -18979635.38545  23350901.1594   23350906.6844
     -1618.7274      -1261.3434
  22290772.5264  -14733424.54847 -11174014.64346  22290771.7854   22290777.6234
      4065.7404       3168.1104
 00  1  6  1 53 29.9960000  0  7G 6G 5G24G 9G 4G 7G30
  23503668.6304   -8631424.75247  -6453511.09345  23503667.8394   23503674.0834
      3417.1324       2662.6964
  19603859.9624  -34520572.17049 -26872680.84847  19603857.9834   19603862.8254
      2427.7934       1891.7854
  19284898.4754  -33570320.26848 -25788452.82747  19284896.9654   19284902.2504
      1502.1084       1170.4734
  20807651.1814  -29866759.43649 -23245491.88047  20807649.5484   20807655.2614
     -1467.6194      -1143.6004
  20225612.0054  -27792100.08649 -21321207.57347  20225610.6914   20225614.6474
     -1203.0564       -937.4474
  23360156.8934  -24736545.86247 -18941745.12545  23360154.5874   23360159.6694
     -1619.0604      -1261.5974
  22267583.3824  -14855289.31048 -11268974.10846  22267581.9554   22267587.5364
      4062.7824       3165.8004
 00  1  6  1 53 59.9960000  0  7G 6G 5G24G 9G 4G 7G30
  23484173.3534   -8733868.45547  -6533337.18445  23484172.2114   23484180.5114
      3414.4614       2660.6144
  19590038.7074  -34593202.65449 -26929276.00747  19590036.8714   19590041.6854
      2416.2094       1882.7594
  19276381.8314  -33615075.47448 -25823326.98847  19276380.4624   19276385.4954
      1483.4034       1155.8974
  20816070.8034  -29822515.56449 -23211016.13447  20816069.4044   20816074.5394
     -1480.1634      -1153.3744
  20232523.3344  -27755777.68949 -21292904.39447  20232522.3324   20232526.6784
     -1216.6464       -948.0354
  23369406.5654  -24687941.89947 -18903871.84845  23369403.4904   23369409.7134
     -1619.5484      -1261.9904
  22244405.4394  -14977091.56548 -11363884.87946  22244404.2044   22244409.5124
      4059.3024       3163.0844
 00  1  6  1 54 29.9960000  0  7G 6G 5G24G 9G 4G 7G30
  23464685.9614   -8836280.38147  -6613138.49045  23464684.6654   23464692.4504
      3412.9534       2659.4374
  19576274.2024  -34665537.18049 -26985640.54547  19576272.0744   19576276.9454
      2406.0524       1874.8454
  19267964.9274  -33659307.29048 -25857793.31147  19267963.4204   19267968.0184
      1465.3334       1141.8184
  20824552.7684  -29777941.73749 -23176283.27947  20824551.2194   20824556.3384
     -1491.5784      -1162.2694
  20239505.6064  -27719087.56149 -21264314.67047  20239504.4154   20239508.5234
     -1229.7094       -958.2164
  23378649.9694  -24639362.37947 -18866017.64145  23378647.8444   23378653.7394
     -1619.4224      -1261.8884
  22221238.4634  -15098835.58648 -11458750.27146  22221237.3654   22221243.0644
      4056.8794       3161.1994
 00  1  6  1 54 59.9960000  0  7G 6G 5G24G 9G 4G 7G30
  23445227.5264   -8938537.36247  -6692819.04245  23445225.6404   23445233.1614
      3407.1404       2654.9034
  19562585.0654  -34737470.59049 -27041692.52847  19562583.4574   19562588.4064
      2392.5104       1864.2934
  19259669.2754  -33702899.79148 -25891761.46747  19259667.7904   19259672.5774
      1443.9504       1125.1544
  20833120.5784  -29732918.08449 -23141199.90747  20833119.0564   20833123.8824
     -1507.0564      -1174.3294
  20246582.4524  -27681898.23349 -21235335.96147  20246581.4044   20246585.5374
     -1246.7144       -971.4664
  23387913.6504  -24590674.60247 -18828079.08245  23387911.8014   23387918.9744
     -1623.5164      -1265.0744
  22198106.8064  -15220394.12148 -11553471.13046  22198105.2284   22198111.1214
      4050.0904       3155.9144
 00  1  6  1 55 29.9960000  0  7G 6G 5G24G 9G 4G 7G30
  23425800.3374   -9040625.50247  -6772368.04046  23425799.1254   23425806.7504
      3403.1024       2651.7604
  19548971.3234  -34809011.59549 -27097438.74247  19548969.6674   19548974.6854
      2381.0444       1855.3594
  19251492.4064  -33745869.10048 -25925244.02247  19251491.0024   19251496.2744
      1424.8984       1110.3094
  20841774.4084  -29687441.68249 -23105763.74247  20841773.0274   20841777.8104
     -1520.3164      -1184.6614
  20253754.7774  -27644208.45749 -21205967.29147  20253753.5824   20253757.4384
     -1261.5944       -983.0594
  23397199.2934  -24541880.27247 -18790057.50345  23397197.4804   23397203.4284
     -1625.2364      -1266.4204
  22175009.5224  -15341766.78748 -11648047.17546  22175008.2254   22175013.7414
      4045.8084       3152.5764
 00  1  6  1 55 59.9960000  0  7G 6G 5G24G 9G 4G 7G30
  23406364.5544   -9142761.09547  -6851954.00146  23406362.6924   23406370.6524
      3398.3714       2648.0814
  19535392.0124  -34880370.92349 -27153043.38947  19535390.2504   19535395.5764
      2368.5464       1845.6204
  19243395.1544  -33788422.68349 -25958402.62847  19243393.6314   19243398.3754
      1404.3564       1094.3034
  20850473.5344  -29641726.56649 -23070141.57547  20850471.9744   20850476.6004
     -1535.1084      -1196.1884
  20260980.5584  -27606239.12449 -21176380.77847  20260979.1034   20260983.0254
     -1277.5454       -995.4904
  23406460.6874  -24493217.26947 -18752138.24245  23406458.9194   23406463.8914
     -1626.8344      -1267.6624
  22151903.6594  -15463188.39448 -11742661.34646  22151902.5784   22151907.4934
      4041.4464       3149.1724
 00  1  6  1 56 29.9960000  0  7G 6G 5G24G 9G 4G 7G30
  23386958.5794   -9244736.29147  -6931415.01145  23386957.0884   23386965.1234
      3394.6074       2645.1434
  19521889.2684  -34951331.02649 -27208336.94847  19521887.3014   19521892.5764
      2356.7314       1836.4134
  19235417.5144  -33830347.04249 -25991070.93347  19235415.9204   19235420.6804
      1385.4034       1079.5324
  20859262.1554  -29595543.15749 -23034154.50247  20859260.4434   20859264.7434
     -1549.1004      -1207.0914
  20268301.8804  -27567762.16149 -21146398.71447  20268300.5714   20268304.6754
     -1292.9714      -1007.5114
  23415733.9554  -24444480.16347 -18714161.25645  23415732.3904   23415737.4324
     -1627.7604      -1268.3824
  22128826.5244  -15584459.37548 -11837158.15246  22128825.1284   22128830.7344
      4037.8714       3146.3924
 00  1  6  1 56 59.9960000  0  7G 6G 5G24G 9G 4G 7G30
  23367563.4944   -9346657.50547  -7010833.91745  23367562.1084   23367569.1184
      3393.8764       2644.5694
  19508441.7764  -35021999.56249 -27263403.30947  19508439.7614   19508444.6124
      2348.0384       1829.6394
  19227531.8314  -33871782.89649 -26023358.58247  19227530.4544   19227535.8194
      1370.6044       1068.0034
  20868117.1274  -29549008.61349 -22997893.81447  20868115.6094   20868120.0754
     -1559.4964      -1215.1924
  20275697.5184  -27528896.60949 -21116113.85347  20275696.5464   20275700.4924
     -1304.4714      -1016.4704
  23425002.3744  -24395778.91247 -18676212.20145  23425000.7544   23425005.8474
     -1625.4664      -1266.5954
  22105759.1084  -15705679.13948 -11931615.03346  22105758.0404   22105763.0514
      4037.1704       3145.8444
 00  1  6  1 57 29.9960000  0  7G 6G 5G24G 9G 4G 7G30
  23348199.1914   -9448415.53747  -7090125.73945  23348197.2924   23348203.7134
      3387.8174       2639.8494
  19495072.6404  -35092249.29049 -27318143.33247  19495071.4334   19495076.0494
      2332.7524       1817.7284
  19219759.2444  -33912630.09149 -26055187.54447  19219757.7184   19219763.0294
      1349.9914       1051.9414
  20877058.0774  -29502022.56249 -22961281.30547  20877056.5654   20877061.5804
     -1575.3654      -1227.5584
  20283187.3964  -27489539.47549 -21085445.94247  20283186.1134   20283190.1084
     -1321.9474      -1030.0894
  23434283.3194  -24347006.12547 -18638207.37845  23434281.1244   23434286.5104
     -1628.7434      -1269.1504
  22082722.0324  -15826735.69148 -12025944.74646  22082720.8224   22082726.4554
      4030.7844       3140.8734
 00  1  6  1 57 59.9960000  0  7G 6G 5G24G 9G 4G 7G30
  23328854.3644   -9550077.71847  -7169342.84045  23328853.0334   23328859.2494
      3389.3624       2641.0504
  19481776.3044  -35162125.69849 -27372592.45147  19481774.2674   19481779.0674
      2325.3994       1811.9994
  19212087.6694  -33952942.75849 -26086599.98547  19212086.2304   19212091.5674
      1337.1984       1041.9714
  20886074.5564  -29454640.68449 -22924360.36847  20886073.1794   20886078.5954
     -1583.5624      -1233.9444
  20290761.1694  -27449735.67749 -21054429.98147  20290759.9914   20290764.3154
     -1332.0374      -1037.9514
  23443569.0104  -24298210.90147 -18600185.08945  23443567.0914   23443572.2404
     -1624.8984      -1266.1584
  22059708.4344  -15947678.07248 -12120185.49346  22059706.9914   22059711.3844
      4031.7434       3141.6164
 00  1  6  1 58 29.9960000  0  7G 6G 5G24G 9G 4G 7G30
  23309525.5754   -9651642.06447  -7248483.76245  23309524.4514   23309531.1474
      3385.3694       2637.9484
  19468548.2674  -35231634.78249 -27426755.33747  19468546.8554   19468551.8774
      2312.3284       1801.8144
  19204513.9594  -33992740.67949 -26117611.31847  19204512.7634   19204518.0124
      1319.6084       1028.2654
  20895162.4534  -29406883.93149 -22887147.31947  20895160.9674   20895166.2004
     -1596.2864      -1243.8604
  20298418.8184  -27409496.32649 -21023074.63747  20298417.6494   20298421.7764
     -1346.8954      -1049.5294
  23452859.5534  -24249384.13647 -18562138.22445  23452858.3514   23452863.6134
     -1626.5144      -1267.4134
  22036716.2974  -16068498.98048 -12214331.60646  22036714.9944   22036719.9624
      4026.8034       3137.7674
 00  1  6  1 58 59.9960000  0  7G 6G 5G24G 9G 4G 7G30
  23290188.8374   -9753263.26947  -7327668.98245  23290187.2344   23290192.9624
      3384.6534       2637.3884
  19455363.8734  -35300924.96249 -27480747.65147  19455361.8094   19455366.2784
      2302.1014       1793.8444
  19197009.7134  -34032176.84949 -26148340.77147  19197008.2554   19197013.6544
      1304.2804       1016.3224
  20904287.2434  -29358933.42349 -22849783.29147  20904285.5574   20904290.6654
     -1605.3514      -1250.9244
  20306127.5194  -27368986.54549 -20991508.56247  20306126.1864   20306130.5814
     -1358.8224      -1058.8234
  23462124.5214  -24200695.60247 -18524199.06345  23462122.7984   23462128.9504
     -1624.3194      -1265.7054
  22013717.2734  -16189360.20248 -12308509.11246  22013716.1204   22013721.6154
      4025.8004       3136.9864
 00  1  6  1 59 29.9960000  0  7G 6G 5G24G 9G 4G 7G30
  23270882.7834   -9854717.65247  -7406724.19945  23270880.5924   23270886.9284
      3384.0154       2636.8914
  19442267.2384  -35369747.02749 -27534375.19947  19442265.3774   19442269.7364
      2291.0944       1785.2664
  19189626.1414  -34070979.77049 -26178576.78747  19189624.5474   19189629.9434
      1287.2704       1003.0684
  20913494.2734  -29310549.63449 -22812081.64447  20913492.7934   20913498.0954
     -1615.3354      -1258.7024
  20313935.9924  -27327951.42749 -20959533.13147  20313934.9584   20313938.9454
     -1371.9184      -1069.0274
  23471406.0124  -24151925.01647 -18486195.98645  23471403.8514   23471409.4174
     -1622.3434      -1264.1684
  21990752.0674  -16310040.58248 -12402545.69746  21990750.8664   21990756.9434
      4024.3834       3135.8804
 00  1  6  1 59 59.9960000  0  7G 6G 5G24G 9G 4G 7G30
  23251579.3384   -9956154.45247  -7485765.76345  23251577.9864   23251584.8624
      3378.1884       2632.3524
  19429230.4064  -35438253.74549 -27587757.02547  19429228.7404   19429233.2504
      2275.9164       1773.4414
  19182339.7184  -34109268.08249 -26208411.80547  19182338.2324   19182343.8224
      1265.1134        985.8004
  20922757.5254  -29261872.40349 -22774151.33847  20922755.9634   20922761.0894
     -1629.8164      -1269.9864
  20321816.6414  -27286538.31049 -20927263.15147  20321815.5534   20321819.5594
     -1389.0364      -1082.3664
  23480674.4334  -24103220.43747 -18448244.33445  23480672.0844   23480677.5854
     -1625.0014      -1266.2354
  21967795.5674  -16430679.73448 -12496550.17246  21967794.2634   21967800.0064
      4018.0214       3130.9234
 00  1  6  2  0 29.9960000  0  7G 6G 5G24G 9G 4G 7G30
  23232301.0064  -10057465.93447  -7564709.66945  23232299.4024   23232305.1464
      3373.2354       2628.4934
  19416274.2354  -35506339.98149 -27640811.20647  19416272.1784   19416276.6834
      2260.6024       1761.5074
  19175173.7304  -34146925.76349 -26237755.42347  19175172.1544   19175177.3324
      1242.5854        968.2474
  20932095.5534  -29212801.29649 -22735914.11647  20932094.0404   20932099.0544
     -1644.2954      -1281.2684
  20329787.2164  -27244656.27549 -20894627.78147  20329785.5814   20329789.5114
     -1405.9334      -1095.5334
  23489948.7564  -24054482.21347 -18410266.45345  23489947.4904   23489951.2614
     -1627.1844      -1267.9364
  21944867.4994  -16551166.77448 -12590436.11646  21944866.8004   21944871.5494
      4011.7494       3126.0364
 00  1  6  2  0 59.9960000  0  7G 6G 5G24G 9G 4G 7G30
  23213031.8704  -10158721.63447  -7643610.18445  23213030.7094   23213037.2084
      3370.3034       2626.2064
  19403387.0274  -35574062.67149 -27693582.10047  19403385.0314   19403389.4214
      2247.3794       1751.2044
  19168120.2404  -34183990.47548 -26266636.98847  19168118.7854   19168124.2554
      1221.6914        951.9664
  20941499.9994  -29163379.94949 -22697403.97847  20941498.4564   20941504.0484
     -1657.2944      -1291.3974
  20337837.1184  -27202351.60349 -20861663.08847  20337836.0564   20337840.2254
     -1421.1954      -1107.4254
  23499218.1384  -24005771.57547 -18372310.07845  23499216.1004   23499221.8734
     -1627.3154      -1268.0354
  21921958.7104  -16671557.38448 -12684246.92446  21921957.2654   21921962.1544
      4007.3134       3122.5774
 00  1  6  2  1 29.9960000  0  7G 6G 5G24G 9G 4G 7G30
  23193772.6904  -10259927.65547  -7722471.94345  23193771.6594   23193778.4994
      3373.0194       2628.3214
  19390566.9624  -35641433.08649 -27746078.49547  19390564.7954   19390568.9644
      2240.3434       1745.7214
  19161176.2794  -34220480.55548 -26295070.79147  19161174.6774   19161180.5384
      1207.4474        940.8674
  20950970.4674  -29113612.50849 -22658624.15447  20950969.0814   20950974.2104
     -1664.0134      -1296.6344
  20345963.8284  -27159645.41049 -20828385.52247  20345962.6604   20345966.4624
     -1429.4344      -1113.8454
  23508480.7884  -23957093.12747 -18334378.80745  23508478.8354   23508484.3254
     -1621.9734      -1263.8754
  21899068.5274  -16791844.29148 -12777976.91446  21899066.8994   21899072.3574
      4008.1664       3123.2454
 00  1  6  2  1 59.9960000  0  6G 6G 5G24G 9G 4G30
  23174514.9934  -10361128.07447  -7801329.34845  23174513.6744   23174520.4064
      3369.2864       2625.4164
  19377800.5664  -35708520.36649 -27798354.26347  19377798.6924   19377803.0344
      2227.7714       1735.9244
  19154325.4924  -34256480.41648 -26323122.59947  19154324.2884   19154329.8654
      1188.2694        925.9234
  20960492.3854  -29063574.39249 -22619633.40947  20960490.9474   20960496.0404
     -1676.2274      -1306.1514
  20354150.5914  -27116622.98349 -20794861.53747  20354149.3244   20354153.4364
     -1443.1604      -1124.5424
  21876187.8134  -16912080.54648 -12871667.44746  21876187.0994   21876191.7494
      4003.3294       3119.4754
 00  1  6  2  2 29.9960000  0  6G 6G 5G24G 9G 4G30
  23155306.9744  -10462069.45948  -7879984.88346  23155305.5594   23155312.6724
      3362.6814       2620.2684
  19365136.0014  -35775073.55149 -27850213.85747  19365134.1504   19365138.1474
      2211.7804       1723.4634
  19147614.0944  -34291753.29349 -26350607.92347  19147612.7114   19147617.4574
      1165.7934        908.4094
  20970115.1284  -29013007.66049 -22580230.76347  20970113.3844   20970118.3464
     -1692.2274      -1318.6184
  20362446.0334  -27073031.20349 -20760893.89947  20362444.6804   20362448.3814
     -1460.4404      -1138.0074
  21853364.1394  -17032019.07148 -12965125.97446  21853362.4704   21853368.4794
      3995.1774       3113.1234
 00  1  6  2  2 59.9960000  0  6G 6G 5G24G 9G 4G30
  23136105.8244  -10562975.13948  -7958612.61546  23136104.3924   23136110.6794
      3365.8304       2622.7214
  19352528.1124  -35841324.86149 -27901838.22347  19352526.5444   19352530.7984
      2206.2404       1719.1474
  19140994.6884  -34326536.44149 -26377711.64047  19140993.2934   19140998.6404
      1154.5704        899.6644
  20979793.5224  -28962145.07449 -22540597.57647  20979791.9894   20979797.0234
     -1697.1114      -1322.4244
  20370805.9584  -27029098.54549 -20726660.63647  20370804.7084   20370808.5114
     -1466.9044      -1143.0444
  21830552.6454  -17151890.75548 -13058532.41146  21830551.8574   21830557.8164
      3997.7134       3115.0994
 00  1  6  2  3 29.9960000  0  6G 6G 5G24G 9G 4G30
  23116918.1784  -10663802.29447  -8037179.18846  23116917.1184   23116924.1084
      3361.0654       2619.0114
  19339987.0434  -35907231.70149 -27953194.17647  19339985.2664   19339989.2554
      2192.6994       1708.5974
  19134472.4064  -34360808.16648 -26404416.84847  19134470.9624   19134477.0724
      1135.1534        884.5344
  20989532.2244  -28910966.47249 -22500718.14447  20989530.7614   20989536.0664
     -1709.6914      -1332.2274
  20379234.5184  -26984807.32349 -20692147.98247  20379233.1954   20379237.0704
     -1480.7894      -1153.8634
  21807760.7014  -17271662.46648 -13151860.94146  21807759.8604   21807765.9914
      3992.3084       3110.8854
 00  1  6  2  3 59.9960000  0  6G 6G 5G24G 9G 4G30
  23097750.2324  -10764530.58248  -8115668.72746  23097749.1834   23097755.9514
      3355.5864       2614.7444
  19327513.5664  -35972780.89349 -28004271.44247  19327511.4994   19327515.7864
      2178.5344       1697.5604
  19128053.8684  -34394535.65748 -26430697.97947  19128052.7634   19128058.7074
      1114.6974        868.5954
  20999336.2874  -28859445.63248 -22460572.03647  20999334.9694   20999340.0774
     -1723.6494      -1343.1034
  20387734.5834  -26940139.39049 -20657341.78347  20387733.2634   20387736.9044
     -1495.8374      -1165.5874
  21784992.4034  -17391314.97148 -13245096.58546  21784991.1514   21784996.3424
      3985.9324       3105.9204
 00  1  6  2  4 29.9960000  0  6G 6G 5G24G 9G 4G30
  23078593.5604  -10865201.57647  -8194113.57146  23078591.8504   23078599.3584
      3351.6714       2611.6904
  19315101.6064  -36038003.40849 -28055094.15847  19315100.0154   19315104.5894
      2165.4074       1687.3294
  19121733.4224  -34427753.83748 -26456582.24147  19121731.9664   19121737.6494
      1095.7424        853.8224
  21009199.5894  -28807615.89949 -22420185.23047  21009198.1134   21009202.9644
     -1735.6594      -1352.4624
  20396299.4714  -26895129.55348 -20622269.16447  20396298.1484   20396301.6984
     -1509.0974      -1175.9204
  21762239.2484  -17510883.00848 -13338266.41446  21762238.2214   21762243.5424
      3981.0854       3102.1404
 00  1  6  2  4 59.9960000  0  6G 6G 5G24G 9G 4G30
  23059460.7644  -10965741.06047  -8272455.95946  23059458.8064   23059467.1694
      3345.3654       2606.7764
  19302768.3924  -36102816.03949 -28105597.48747  19302766.3884   19302771.0844
      2149.6804       1675.0744
  19115519.8424  -34460403.93548 -26482023.84247  19115518.4854   19115524.5094
      1075.1794        837.8014
  21019130.2294  -28755428.94049 -22379520.07047  21019128.8044   21019134.0354
     -1749.2874      -1363.0804
  20404941.4354  -26849715.01048 -20586881.19047  20404940.3274   20404943.6964
     -1524.2334      -1187.7154
  21739514.6654  -17630303.67748 -13431321.40646  21739513.2104   21739518.3554
      3974.5414       3097.0434
 00  1  6  2  5 29.9960000  0  7G 6G 5G24G 9G 4G30G10
  23040348.8874  -11066175.66948  -8350716.62846  23040347.2574   23040354.5434
      3341.6444       2603.8784
  19290508.4664  -36167239.57449 -28155797.61947  19290506.8364   19290511.8024
      2136.7594       1665.0064
  19109410.2074  -34492511.18848 -26507042.44747  19109408.8974   19109414.7044
      1056.5984        823.3234
  21029124.2894  -28702910.31048 -22338596.46147  21029122.8654   21029127.9464
     -1760.5284      -1371.8404
  20413653.6464  -26803933.17349 -20551207.01247  20413652.4684   20413655.9704
     -1536.7354      -1197.4574
  21716812.6434  -17749599.10548 -13524278.79746  21716811.7234   21716816.8014
      3969.9054       3093.4304
  23365471.2894    -726043.85446   -254472.76444  23365466.8464   23365476.7764
      4172.9854       3251.6554
 00  1  6  2  5 59.9960000  0  7G 6G 5G24G 9G 4G30G10
  23021267.2144  -11166446.65547  -8428849.82545  23021266.3644   23021273.0284
      3339.6254       2602.3054
  19278332.4534  -36231226.98049 -28205657.90947  19278330.6054   19278335.5244
      2125.3334       1656.1004
  19103413.7584  -34524021.51549 -26531595.91847  19103412.5154   19103418.3524
      1040.4834        810.7644
  21039191.4634  -28650007.15348 -22297373.21547  21039190.0584   21039195.3004
     -1769.8804      -1379.1284
  20422447.2434  -26757721.64149 -20515198.01047  20422446.0824   20422449.5564
     -1547.7894      -1206.0704
  21694146.6724  -17868708.98548 -13617091.60646  21694145.2364   21694151.0274
      3967.0914       3091.2354
  23341627.0044    -851344.89646   -352109.84544  23341624.9624   23341633.6414
      4176.7804       3254.6434
 00  1  6  2  6 29.9960000  0  7G 6G 5G24G 9G 4G30G10
  23002213.3694  -11266577.03247  -8506873.43445  23002211.6294   23002219.3984
      3330.2804       2595.0224
  19266239.1414  -36294777.45049 -28255177.73247  19266237.4894   19266242.1914
      2105.8474       1640.9194
  19097526.1144  -34554962.52349 -26555705.76047  19097524.5944   19097530.4484
      1016.6874        792.2234
  21049327.0294  -28596744.41148 -22255869.76847  21049325.7284   21049331.0064
     -1786.4704      -1392.0554
  20431320.6264  -26711092.35648 -20478863.48147  20431319.3564   20431322.6644
     -1566.4814      -1220.6344
  21671513.6494  -17987645.23248 -13709769.10546  21671512.8574   21671518.2174
      3956.2914       3082.8214
  23317781.5864    -976661.28246   -449758.93945  23317777.2084   23317787.4214
      4172.0214       3250.9354
 00  1  6  2  6 59.9960000  0  7G 6G 5G24G 9G 4G30G10
  22983166.3984  -11366672.43547  -8584869.79145  22983164.8394   22983171.5084
      3333.4414       2597.4844
  19254211.6384  -36357981.08749 -28304427.29847  19254210.1054   19254214.7504
      2098.5044       1635.1984
  19091728.5064  -34585429.00848 -26579445.84847  19091727.0934   19091732.6854
      1004.9304        783.0624
  21059511.2284  -28543225.18848 -22214166.47547  21059509.7234   21059515.5144
     -1790.9344      -1395.5344
  20440255.2974  -26664138.89048 -20442276.34547  20440254.2704   20440257.7674
     -1573.0524      -1225.7544
  21648899.2364  -18106488.23548 -13802373.96346  21648897.9574   21648902.7944
      3957.2354       3083.5574
  23293914.8684   -1102069.00646   -547479.21745  23293913.5024   23293920.6364
      4179.1344       3256.4644
 00  1  6  2  7 29.9960000  0  7G 6G 5G24G 9G 4G30G10
  22964123.8244  -11466744.43647  -8662847.88946  22964122.0014   22964127.8504
      3338.9634       2601.7864
  19242249.6834  -36420844.76949 -28353411.96147  19242247.9674   19242251.9824
      2093.4694       1631.2734
  19086022.8784  -34615410.66448 -26602808.14447  19086021.4684   19086027.6584
       994.8194        775.1834
  21069744.2294  -28489449.56648 -22172263.39647  21069742.8464   21069748.3524
     -1793.0154      -1397.1554
  20449251.7794  -26616861.89148 -20405437.11247  20449250.6574   20449254.4814
     -1577.8824      -1229.5204
  21626304.3054  -18225221.52548 -13894893.32446  21626303.5464   21626309.0124
      3959.4734       3085.3024
  23270036.7354   -1227558.95047   -645263.54945  23270035.0124   23270041.5674
      4187.8844       3263.2824
 00  1  6  2  7 59.9950000  0  7G 6G 5G24G 9G 4G30G10
  22945095.0654  -11566741.69347  -8740767.73246  22945093.4874   22945099.2314
      3330.2744       2595.0164
  19230362.5484  -36483312.81249 -28402088.33147  19230360.6334   19230364.7934
      2073.5374       1615.7424
  19080419.8354  -34644854.87749 -26625751.66147  19080418.5754   19080424.4814
       970.4954        756.2294
  21080035.1834  -28435372.82248 -22130125.67147  21080033.4424   21080038.6164
     -1809.7314      -1410.1814
  20458320.9904  -26569202.19749 -20368299.67447  20458319.8204   20458323.7954
     -1597.1114      -1244.5034
  21603742.9314  -18343783.46148 -13987279.15046  21603741.8414   21603747.2914
      3947.3574       3075.8614
  23246152.7484   -1353061.56646   -743057.77945  23246149.8674   23246156.7314
      4181.6294       3258.4274
 00  1  6  2  8 29.9950000  0  7G 6G 5G24G 9G 4G30G10
  22926078.0264  -11666673.49547  -8818636.57246  22926075.9154   22926082.6374
      3328.7034       2593.7894
  19218553.0174  -36545371.02549 -28450445.36147  19218551.1634   19218555.4504
      2060.5854       1605.6514
  19074921.1924  -34673753.73549 -26648270.22447  19074919.6254   19074924.9584
       952.8754        742.4984
  21090383.8294  -28380990.81748 -22087750.07547  21090382.3454   21090386.7564
     -1818.8554      -1417.2894
  20467465.1604  -26521149.94149 -20330856.34347  20467464.1424   20467467.6844
     -1609.5054      -1254.1594
  21581214.7294  -18462173.69748 -14079531.20146  21581213.2974   21581217.9094
      3942.4054       3072.0004
  23222271.2984   -1478559.65846   -840848.46845  23222269.6864   23222275.3674
      4181.9694       3258.6774
 00  1  6  2  8 59.9950000  0  7G 6G 5G24G 9G 4G30G10
  22907072.5824  -11766543.33447  -8896457.12245  22907071.1274   22907077.7094
      3329.1914       2594.1664
  19206819.3634  -36607034.22249 -28498494.59147  19206817.4794   19206821.1894
      2050.5024       1597.7954
  19069524.3554  -34702110.37848 -26670366.27947  19069523.2664   19069529.0614
       937.5504        730.5574
  21100787.1754  -28326322.37348 -22045151.27447  21100785.6464   21100790.0374
     -1825.6744      -1422.6044
  20476681.6454  -26472719.88848 -20293118.62147  20476680.2974   20476683.5994
     -1619.0964      -1261.6334
  21558713.6654  -18580416.83148 -14171668.62346  21558712.1684   21558716.9094
      3940.7254       3070.6914
  23198387.5594   -1604068.80446   -938647.75545  23198385.1054   23198392.9844
      4185.3754       3261.3194
 00  1  6  2  9 29.9950000  0  7G 6G 5G24G 9G 4G30G10
  22888084.2004  -11866327.63947  -8974211.03045  22888082.7474   22888089.3464
      3321.8544       2588.4534
  19195158.9364  -36668308.54249 -28546240.79547  19195157.0714   19195160.9234
      2033.2054       1584.3154
  19064233.8604  -34729913.90749 -26692031.34047  19064232.3674   19064238.2524
       914.8994        712.9074
  21111246.5654  -28271355.98548 -22002320.31847  21111244.9974   21111249.9354
     -1839.8914      -1433.6824
  20485968.8684  -26423913.83148 -20255087.90747  20485967.7074   20485971.0644
     -1635.9604      -1274.7754
  21536238.5594  -18698520.42648 -14263697.30046  21536237.4744   21536242.1804
      3931.8034       3063.7424
  23174500.3274   -1729592.49746  -1036458.38544  23174498.3684   23174507.1714
      4181.7044       3258.4824
 00  1  6  2  9 59.9950000  0  7G 6G 5G24G 9G 4G30G10
  22869110.8064  -11966035.15647  -9051905.10846  22869109.2434   22869115.5344
      3322.2644       2588.7704
  19183569.4804  -36729208.50649 -28593695.28647  19183568.0024   19183572.0954
      2023.5184       1576.7664
  19059043.0424  -34757191.29349 -26713286.42447  19059041.3404   19059047.4394
       900.4454        701.6464
  21121760.5044  -28216104.39748 -21959267.13047  21121759.0714   21121763.9424
     -1846.6184      -1438.9244
  20495322.3604  -26374760.75248 -20216786.78947  20495321.0714   20495324.5054
     -1644.1174      -1281.1304
  21513783.9184  -18816517.40948 -14355642.90646  21513783.2344   21513788.1124
      3931.5404       3063.5324
  23150605.7114   -1855154.58146  -1134298.94244  23150606.0444   23150612.1814
      4186.1164       3261.9004
 00  1  6  2 10 29.9950000  0  7G 6G 5G24G 9G 4G30G10
  22850150.1474  -12065670.73047  -9129543.11146  22850148.7014   22850155.7564
      3321.1184       2587.8784
  19172052.3004  -36789730.78449 -28640855.48447  19172050.8064   19172055.1694
      2012.4104       1568.1124
  19053949.7154  -34783954.31448 -26734140.70147  19053948.4194   19053954.7754
       884.6804        689.3614
  21132328.6374  -28160568.21448 -21915992.17647  21132327.0354   21132332.1014
     -1854.8644      -1445.3494
  20504738.7024  -26325278.22748 -20178228.96147  20504737.4914   20504741.0424
     -1653.6384      -1288.5484
  21491347.3744  -18934423.92648 -14447518.03146  21491346.1974   21491350.6644
      3929.9134       3062.2654
  23126703.3554   -1980772.09246  -1232182.65544  23126701.6764   23126709.3714
      4189.5864       3264.6044
 00  1  6  2 10 59.9950000  0  7G 6G 5G24G 9G 4G30G10
  22831216.4974  -12165163.29647  -9207069.67346  22831215.7454   22831223.1944
      3318.6254       2585.9414
  19160617.4674  -36849825.01549 -28687682.13747  19160615.4574   19160619.7474
      2000.7584       1559.0314
  19048966.5744  -34810141.91948 -26754546.60547  19048965.1004   19048971.1964
       868.0974        676.4384
  21142964.4624  -28104674.89748 -21872438.94347  21142963.2664   21142967.9004
     -1864.3574      -1452.7464
  20514225.9534  -26275421.50548 -20139379.54947  20514224.7754   20514228.3374
     -1663.3854      -1296.1454
  21468939.4244  -19052177.22548 -14539273.76846  21468938.5794   21468943.3314
      3927.0434       3060.0324
  23102797.1684   -2106403.75246  -1330077.38644  23102795.4144   23102803.0294
      4192.6134       3266.9804
 00  1  6  2 11 29.9950000  0  7G 6G 5G24G 9G 4G30G10
  22812312.1564  -12264515.38647  -9284486.77046  22812310.6294   22812316.8814
      3308.5344       2578.0764
  19149264.4074  -36909483.50849 -28734169.24847  19149262.8134   19149267.0274
      1980.0414       1542.8874
  19044092.3174  -34835758.51849 -26774507.56947  19044090.7914   19044096.9334
       843.3204        657.1324
  21153668.6594  -28048426.92848 -21828609.35547  21153667.0494   21153671.8094
     -1881.8054      -1466.3414
  20523783.6114  -26225194.11948 -20100241.31347  20523782.4474   20523786.0854
     -1681.6864      -1310.4064
  21446564.4544  -19169760.26948 -14630896.83846  21446563.1894   21446567.6534
      3915.4174       3050.9714
  23078889.0894   -2232043.02246  -1427978.01744  23078885.0874   23078895.4834
      4186.9914       3262.5944
 00  1  6  2 11 59.9950000  0  7G 6G 5G24G 9G 4G30G10
  22793438.2204  -12363698.81048  -9361772.46046  22793436.7114   22793442.7264
      3304.8804       2575.2274
  19138006.7774  -36968644.53949 -28780268.72447  19138004.9034   19138008.9764
      1965.2864       1531.3904
  19039333.9434  -34860762.95849 -26793991.52547  19039332.6674   19039338.7184
       824.6834        642.6094
  21164447.5504  -27991781.04948 -21784469.70847  21164446.1954   21164451.1274
     -1893.2474      -1475.2584
  20533422.1954  -26174542.99648 -20060772.88747  20533421.1004   20533424.9094
     -1693.9984      -1319.9994
  21424232.0414  -19287115.32048 -14722342.26446  21424231.2054   21424235.4134
      3909.3694       3046.2574
  23054989.3294   -2357641.14847  -1525846.62945  23054987.1924   23054993.4554
      4187.3664       3262.8714
 00  1  6  2 12 29.9950000  0  7G 6G 5G24G 9G 4G30G10
  22774568.1544  -12462855.84348  -9439037.60146  22774566.9504   22774574.0524
      3302.6764       2573.5064
  19126817.0224  -37027445.15049 -28826087.35647  19126815.3894   19126819.4214
      1952.0344       1521.0644
  19034667.7924  -34885283.81549 -26813098.66947  19034666.3204   19034672.4534
       807.1204        628.9234
  21175273.7994  -27934886.13948 -21740136.01347  21175272.6334   21175277.6324
     -1902.5324      -1482.4944
  20543118.8194  -26123589.18948 -20021068.60647  20543117.5864   20543121.0684
     -1705.9264      -1329.2934
  21401919.4424  -19404367.28148 -14813707.34846  21401918.6994   21401923.1464
      3904.4294       3042.4094
  23031072.4844   -2483327.38747  -1623783.88345  23031070.2864   23031076.0454
      4188.7344       3263.9424
 00  1  6  2 12 59.9950000  0  7G 6G 5G24G 9G 4G30G10
  22755697.9904  -12562019.29448  -9516307.70446  22755696.7584   22755704.3134
      3303.0124       2573.7724
  19115690.1984  -37085918.37849 -28871650.88847  19115688.2834   19115692.3124
      1940.9094       1512.3964
  19030088.9414  -34909345.97249 -26831848.38047  19030087.5464   19030093.3344
       791.8204        617.0024
  21186138.7104  -27877794.30748 -21695648.87647  21186137.0744   21186142.2554
     -1908.8104      -1487.3854
  20552870.7204  -26072341.48648 -19981135.30747  20552869.4694   20552873.0184
     -1716.0494      -1337.1814
  21379624.4594  -19521531.83248 -14905004.34346  21379622.9304   21379627.2474
      3901.2794       3039.9544
  23007137.3494   -2609109.30547  -1721795.70145  23007134.0834   23007140.8064
      4191.3244       3265.9534
 00  1  6  2 13 29.9950000  0  7G 6G 5G24G 9G 4G30G10
  22736846.0644  -12661091.21048  -9593506.50246  22736844.2164   22736851.1044
      3302.7324       2573.5524
  19104646.0694  -37143952.43449 -28916872.21047  19104644.5614   19104649.0414
      1929.0054       1503.1194
  19025617.8574  -34932844.03749 -26850158.53947  19025616.0464   19025622.0754
       775.6254        604.3824
  21197058.1124  -27820410.58448 -21650934.29647  21197056.8764   21197062.1054
     -1915.8984      -1492.9074
  20562701.6484  -26020676.18648 -19940876.61647  20562700.5274   20562704.4164
     -1727.3094      -1345.9564
  21357367.3794  -19638492.20948 -14996142.22246  21357366.0134   21357371.0294
      3897.0154       3036.6304
  22983205.5424   -2734856.80547  -1819780.69045  22983203.2484   22983211.1234
      4192.7924       3267.1164
 00  1  6  2 13 59.9950000  0  7G 6G 5G24G 9G 4G30G10
  22718000.3574  -12760124.90248  -9670675.51246  22717998.6574   22718005.7024
      3296.7904       2568.9274
  19093671.5934  -37201623.41849 -28961810.61547  19093670.0924   19093674.6814
      1913.0444       1490.6824
  19021241.4294  -34955839.18349 -26868076.82147  19021239.9694   19021246.2864
       754.6524        588.0404
  21208022.2024  -27762794.77148 -21606038.85947  21208020.8334   21208025.6324
     -1927.6174      -1502.0404
  20572600.0374  -25968660.96648 -19900345.26047  20572598.9914   20572602.6454
     -1742.8664      -1358.0784
  21335138.7664  -19755304.23048 -15087164.50246  21335137.5594   21335142.4744
      3887.8704       3029.5084
  22959272.4134   -2860630.84747  -1917786.37245  22959270.3474   22959276.2054
      4189.4924       3264.5344
 00  1  6  2 14 29.9950000  0  7G 6G 5G24G 9G 4G30G10
  22699164.3634  -12859109.98048  -9747806.67546  22699162.7424   22699169.2954
      3302.1064       2573.0694
  19082764.1674  -37258945.41649 -29006477.08647  19082762.2934   19082766.6954
      1908.3294       1487.0094
  19016961.7944  -34978330.59149 -26885602.57547  19016960.3704   19016966.1214
       744.6414        580.2404
  21219025.3564  -27704971.67548 -21560981.90147  21219024.0444   21219028.8664
     -1927.4564      -1501.9144
  20582561.1374  -25916316.47648 -19859557.33047  20582559.8854   20582563.3864
     -1746.6804      -1361.0494
  21312937.0034  -19871974.96648 -15178076.69846  21312935.8264   21312940.6334
      3890.0544       3031.2084
  22935334.3334   -2986427.71847  -2015809.84545  22935331.5584   22935337.6204
      4196.9924       3270.3754
 00  1  6  2 14 59.9950000  0  7G 6G 5G24G 9G 4G30G10
  22680344.6334  -12958004.66348  -9824867.38046  22680343.1554   22680350.8684
      3291.8174       2565.0464
  19071929.0544  -37315884.13449 -29050844.90147  19071927.2234   19071931.3924
      1888.5524       1471.5984
  19012786.2634  -35000270.54149 -26902698.61847  19012784.9574   19012791.1144
       718.9974        560.2564
  21230076.6974  -27646898.57748 -21515730.14147  21230075.3074   21230080.4894
     -1943.2764      -1514.2404
  20592585.8094  -25863634.96448 -19818506.78447  20592584.6464   20592588.3994
     -1764.4274      -1374.8794
  21290770.5684  -19988462.98448 -15268846.51346  21290768.8254   21290773.8924
      3876.9254       3020.9774
  22911396.7634   -3112208.11647  -2113820.49145  22911396.6804   22911403.0094
      4189.4574       3264.5064
 00  1  6  2 15 29.9950000  0  7G 6G 5G24G 9G 4G30G10
  22661551.9524  -13056758.39548  -9901818.23946  22661550.4984   22661557.5414
      3291.4034       2564.7244
  19061173.9084  -37372400.83349 -29094883.87147  19061172.1234   19061176.6304
      1878.6484       1463.8824
  19008725.8354  -35021613.45949 -26919329.44847  19008724.1344   19008729.8154
       703.3264        548.0454
  21241188.0194  -27588509.08248 -21470231.83747  21241186.4274   21241191.4284
     -1949.7504      -1519.2854
  20602676.6774  -25810606.00448 -19777185.50847  20602675.6424   20602679.7694
     -1771.2264      -1380.1764
  21268644.1174  -20104737.14348 -15359449.69846  21268642.8234   21268647.6484
      3874.1744       3018.8354
  22887470.1604   -3237945.92446  -2211797.94745  22887468.0094   22887475.7404
      4192.7104       3267.0414
 00  1  6  2 15 59.9950000  0  7G 6G 5G24G 9G 4G30G10
  22642781.7104  -13155398.53748  -9978680.60246  22642780.1464   22642786.7164
      3289.9404       2563.5904
  19050497.3474  -37428504.62849 -29138601.09647  19050495.7314   19050500.3194
      1866.7194       1454.5864
  19004774.0994  -35042376.32249 -26935508.27847  19004772.6084   19004778.3314
       686.1454        534.6584
  21252355.1934  -27529824.70948 -21424503.75247  21252353.5884   21252358.7094
     -1957.2244      -1525.1094
  20612824.7774  -25757277.16148 -19735630.55847  20612823.5844   20612827.9474
     -1778.9474      -1386.1924
  21246553.5764  -20220821.09248 -15449904.67046  21246552.4964   21246557.0694
      3870.0974       3015.6604
  22863547.1744   -3363671.70247  -2309766.05345  22863544.5124   22863550.8054
      4194.2524       3268.2564
 00  1  6  2 16 29.9950000  0  7G 6G 5G24G 9G 4G30G10
  22624047.7864  -13253847.69348 -10055394.15646  22624046.2184   22624052.0454
      3281.9194       2557.3384
  19039922.4164  -37484078.68649 -29181905.53347  19039920.5294   19039924.7454
      1846.8314       1439.0894
  19000951.0884  -35062464.34649 -26951161.26447  19000949.6994   19000956.0494
       661.7854        515.6764
  21263595.6134  -27470752.18448 -21378473.21647  21263594.1654   21263599.7884
     -1972.5304      -1537.0374
  20623048.8144  -25703552.38148 -19693767.08547  20623047.5164   20623051.3894
     -1794.3294      -1398.1784
  21224517.2244  -20336622.88448 -15540139.78446  21224515.9704   21224520.8634
      3858.5334       3006.6454
  22839642.5854   -3489285.93747  -2407647.21245  22839641.1694   22839647.8164
      4188.4824       3263.7464
 00  1  6  2 16 59.9950000  0  7G 6G 5G24G 9G 4G30G10
  22605295.8604  -13352387.58948 -10132178.41346  22605294.2064   22605300.6934
      3281.6954       2557.1584
  19029397.6224  -37539387.27149 -29225003.10747  19029395.6574   19029399.7764
      1834.7284       1429.6574
  18997200.6814  -35082175.67649 -26966520.72547  18997199.1994   18997204.9794
       646.7364        503.9504
  21274863.1194  -27411542.20548 -21332335.57547  21274861.9774   21274867.0494
     -1980.3394      -1543.1224
  20633297.1704  -25649696.04648 -19651801.10347  20633296.0494   20633300.1014
     -1802.0434      -1404.1904
  21202484.1254  -20452407.50848 -15630361.51046  21202483.3014   21202487.9414
      3854.7274       3003.6814
  22815709.5224   -3615055.11247  -2505649.14745  22815708.6984   22815713.2314
      4190.3784       3265.2254
 00  1  6  2 17 29.9950000  0  7G 6G 5G24G 9G 4G30G10
  22586570.7874  -13450787.34148 -10208853.45146  22586569.2094   22586576.0434
      3280.6684       2556.3654
  19018967.4804  -37594193.38949 -29267709.15747  19018965.9424   19018970.7184
      1821.4504       1419.3124
  18993559.2904  -35101310.89949 -26981431.26647  18993557.9824   18993563.5104
       631.2944        491.9174
  21286198.5504  -27351976.37648 -21285920.63947  21286197.1694   21286201.8294
     -1988.0624      -1549.1384
  20643616.3114  -25595469.59948 -19609546.72047  20643615.1684   20643618.7174
     -1810.7674      -1410.9874
  21180499.1174  -20567937.83548 -15720385.09646  21180498.0674   21180503.0814
      3849.6164       2999.6994
  22791791.6614   -3740747.01747  -2603590.86945  22791789.9484   22791795.8474
      4191.3824       3266.0134
 00  1  6  2 17 59.9950000  0  7G 6G 5G24G 9G 4G30G10
  22567855.7144  -13549138.55648 -10285490.66946  22567854.0184   22567859.8844
      3278.8454       2554.9434
  19008617.8674  -37648584.66949 -29310091.95247  19008615.9944   19008620.4834
      1807.7124       1408.6054
  18990007.8034  -35119972.11549 -26995972.45247  18990006.5354   18990012.1754
       615.7634        479.8154
  21297578.7004  -27292176.04348 -21239322.97347  21297577.1674   21297581.5874
     -1995.7194      -1555.1074
  20653989.5704  -25540955.31448 -19567068.04447  20653988.4754   20653992.1814
     -1820.7994      -1418.8034
  21158546.5114  -20683298.43948 -15810276.42546  21158545.5764   21158550.8874
      3844.1584       2995.4464
  22767873.0554   -3866439.78747  -2701533.26245  22767870.2914   22767876.7524
      4190.9894       3265.7024
 00  1  6  2 18 29.9950000  0  7G 6G 5G24G 9G 4G30G10
  22549156.4044  -13647399.79848 -10362057.78146  22549154.8224   22549161.8774
      3270.8084       2548.6774
  18998348.4344  -37702553.23249 -29352145.36147  18998346.3574   18998350.5764
      1789.2254       1394.2024
  18986549.0734  -35138150.21149 -27010137.18147  18986547.6574   18986553.1054
       594.9864        463.6264
  21309005.9174  -27232121.48348 -21192527.21946  21309004.7364   21309009.6404
     -2008.9284      -1565.3994
  20664426.4894  -25486109.38348 -19524330.95147  20664425.3254   20664428.9654
     -1836.6024      -1431.1194
  21136629.8474  -20798474.48648 -15900023.92846  21136628.7604   21136633.9474
      3833.2754       2986.9654
  22743960.7984   -3992100.20047  -2799450.43245  22743957.2524   22743965.5484
      4185.2044       3261.1894
 00  1  6  2 18 59.9950000  0  7G 6G 5G24G 9G 4G30G10
  22530481.0134  -13745539.10148 -10438529.86846  22530479.6514   22530486.2304
      3267.7724       2546.3134
  18988158.7194  -37756098.18949 -29393868.68047  18988156.7484   18988161.6864
      1776.2074       1384.0554
  18983184.9024  -35155831.83849 -27023915.05247  18983183.0064   18983188.1624
       579.3284        451.4234
  21320484.2954  -27171804.36648 -21145526.87746  21320482.4324   21320487.2124
     -2016.2164      -1571.0784
  20674928.8124  -25430921.99048 -19481327.77847  20674927.2764   20674930.8224
     -1846.6374      -1438.9384
  21114748.7294  -20913457.66148 -15989621.16746  21114747.8764   21114752.1014
      3828.2714       2983.0674
  22720055.7284   -4117715.50447  -2897332.48345  22720053.6524   22720060.5314
      4185.0054       3261.0484
 00  1  6  2 19 29.9950000  0  7G 6G 5G24G 9G 4G30G10
  22511824.1554  -13843582.11248 -10514926.93846  22511822.4984   22511829.2294
      3269.4964       2547.6604
  18978046.0344  -37809238.20649 -29435276.46247  18978044.5544   18978049.2084
      1767.3054       1377.1214
  18979915.1824  -35173011.85049 -27037302.04847  18979913.8854   18979919.1764
       566.8334        441.6874
  21332003.7024  -27111266.57848 -21098354.58746  21332002.4484   21332006.9524
     -2018.7854      -1573.0784
  20685489.8384  -25375421.72048 -19438080.79847  20685488.7024   20685492.3444
     -1852.5824      -1443.5724
  21092898.6054  -21028284.42448 -16079096.52946  21092897.4694   21092901.9194
      3827.7844       2982.6864
  22696155.7304   -4243312.10647  -2995199.94345  22696152.7434   22696161.3394
      4189.0214       3264.1814
 00  1  6  2 19 59.9950000  0  7G 6G 5G24G 9G 4G30G10
  22493189.9864  -13941501.88748 -10591227.98746  22493188.9444   22493195.0364
      3262.5544       2542.2464
  18968020.9044  -37861923.28449 -29476329.74647  18968019.1804   18968023.3284
      1748.9934       1362.8504
  18976752.0994  -35189633.97749 -27050254.33047  18976750.6324   18976756.0964
       545.2584        424.8744
  21343575.6874  -27050460.27148 -21050973.05546  21343573.8964   21343578.0164
     -2030.9724      -1582.5754
  20696120.5784  -25319556.02848 -19394549.07547  20696119.5794   20696123.0864
     -1867.8564      -1455.4744
  21071084.7214  -21142918.10548 -16168421.43046  21071083.2414   21071087.5624
      3818.4294       2975.3994
  22672267.3264   -4368847.43347  -3093019.64645  22672265.1474   22672272.3654
      4184.0344       3260.2814
 00  1  6  2 20 29.9950000  0  7G 6G 5G24G 9G 4G30G10
  22474582.1524  -14039287.97348 -10667424.84546  22474580.8014   22474587.5044
      3255.1164       2536.4504
  18958087.4924  -37914124.30849 -29517005.83847  18958085.4654   18958089.9714
      1729.3834       1347.5694
  18973698.7374  -35205676.42349 -27062754.91547  18973697.4734   18973703.1554
       522.6934        407.2934
  21355203.1764  -26989355.22548 -21003358.74546  21355201.9274   21355206.1104
     -2044.1334      -1592.8294
  20706823.2524  -25263311.64148 -19350722.27347  20706822.2894   20706825.7894
     -1883.1954      -1467.4254
  21049311.5554  -21257332.55848 -16257575.51346  21049310.8144   21049315.3714
      3807.5874       2966.9494
  22648393.2454   -4494303.25547  -3190777.39045  22648392.0564   22648398.5944
      4178.2364       3255.7684
 00  1  6  2 20 59.9950000  0  7G 6G 5G24G 9G 4G30G10
  22455975.6134  -14137061.94448 -10743612.27146  22455974.6804   22455982.0324
      3258.7104       2539.2534
  18948229.9844  -37965923.61449 -29557368.91747  18948228.2114   18948233.1244
      1719.4334       1339.8174
  18970735.0444  -35221252.71349 -27074892.26047  18970733.5604   18970739.1414
       511.1424        398.2924
  21366866.7484  -26928063.40848 -20955598.89246  21366864.9944   21366869.9074
     -2046.4364      -1594.6254
  20717574.4144  -25206817.21148 -19306700.63247  20717573.1014   20717576.4804
     -1887.6214      -1470.8734
  21027564.0804  -21371616.88548 -16346628.19546  21027563.1984   21027567.9294
      3806.8704       2966.3924
  22624517.0534   -4619781.84247  -3288552.88045  22624514.4054   22624520.0674
      4182.5594       3259.1404
 00  1  6  2 21 29.9950000  0  7G 6G 5G24G 9G 4G30G10
  22437384.6224  -14234762.05548 -10819742.13946  22437382.8944   22437389.6324
      3254.6554       2536.0934
  18938464.4664  -38017240.50449 -29597356.08747  18938462.9174   18938467.8094
      1701.8444       1326.1124
  18967870.5014  -35236304.79248 -27086621.12647  18967869.2244   18967874.3824
       492.4884        383.7554
  21378576.4484  -26866523.67248 -20907645.85146  21378575.1654   21378580.4724
     -2056.1624      -1602.2064
  20728384.4604  -25150010.80248 -19262435.88347  20728383.3424   20728386.4394
     -1899.5244      -1480.1504
  21005856.4674  -21485690.67048 -16435516.81246  21005855.6504   21005859.9484
      3798.0454       2959.5124
  22600649.4234   -4745208.91447  -3386288.21245  22600647.7824   22600652.9704
      4179.3504       3256.6304
 00  1  6  2 21 59.9950000  0  7G 6G 5G24G 9G 4G30G10
  22418808.0584  -14332382.63448 -10895810.04146  22418806.8274   22418812.5414
      3253.2244       2534.9794
  18928790.0004  -38068082.39449 -29636973.12047  18928788.0504   18928793.1354
      1687.6664       1315.0634
  18965101.9674  -35250855.06248 -27097958.97447  18965100.4124   18965105.4714
       477.3854        371.9864
  21390334.0964  -26804739.15248 -20859502.06546  21390332.5154   21390337.9714
     -2062.7694      -1607.3514
  20739250.7374  -25092905.22648 -19217938.02247  20739249.6364   20739253.1014
     -1907.5054      -1486.3674
  20984189.9574  -21599550.31348 -16524238.56246  20984188.8584   20984193.2674
      3792.5534       2955.2344
  22576789.2654   -4870591.09347  -3483988.53045  22576786.5034   22576793.9424
      4179.3364       3256.6274
 00  1  6  2 22 29.9950000  0  7G 6G 5G24G 9G 4G30G10
  22400256.5564  -14429870.67848 -10971774.66546  22400255.6514   22400260.9774
      3247.4384       2530.4704
  18919211.0284  -38118417.70649 -29676195.42147  18919209.3264   18919214.8244
      1669.5004       1300.9094
  18962435.0554  -35264869.44048 -27108879.24447  18962433.6554   18962438.7674
       458.2404        357.0694
  21402144.5594  -26742674.70048 -20811140.15346  21402143.0694   21402148.5714
     -2073.3354      -1615.5854
  20750178.2904  -25035480.54448 -19173191.51047  20750177.1444   20750180.6824
     -1919.4734      -1495.6924
  20962572.1434  -21713153.76248 -16612760.68446  20962571.0794   20962575.1204
      3782.5284       2947.4224
  22552946.7374   -4995880.04647  -3581616.18145  22552944.0984   22552952.4524
      4174.8324       3253.1134
 00  1  6  2 22 59.9950000  0  7G 6G 5G24G 9G 4G30G10
  22381713.9504  -14527318.02148 -11047707.57846  22381712.2984   22381718.0194
      3246.1164       2529.4384
  18909708.8474  -38168348.97049 -29715102.88147  18909707.3914   18909713.1564
      1656.5914       1290.8504
  18959852.9264  -35278440.74549 -27119454.26447  18959851.3514   18959856.2604
       443.3064        345.4344
  21413988.4494  -26680434.66948 -20762641.43646  21413986.9454   21413992.3394
     -2078.8644      -1619.8934
  20761147.8584  -24977836.38048 -19128273.97146  20761146.3904   20761149.9144
     -1926.4914      -1501.1634
  20940983.5554  -21826603.81548 -16701163.27246  20940982.0914   20940985.9404
      3777.8174       2943.7514
  22529102.4874   -5121179.87747  -3679252.30945  22529101.0884   22529107.8894
      4175.5924       3253.7134
 00  1  6  2 23 29.9950000  0  7G 6G 5G24G 9G 4G30G10
  22363171.6954  -14624752.19448 -11123630.23846  22363170.5084   22363175.7284
      3245.1434       2528.6784
  18900273.3874  -38217937.36549 -29753743.16047  18900271.5874   18900276.7394
      1644.9894       1281.8094
  18957351.8784  -35291579.53648 -27129692.26347  18957350.3904   18957355.9274
       428.1984        333.6584
  21425858.5044  -26618057.07848 -20714035.52846  21425857.2354   21425862.4434
     -2084.0654      -1623.9474
  20772152.0544  -24920008.66848 -19083213.40446  20772150.8634   20772154.2134
     -1933.2604      -1506.4374
  20919416.6084  -21939938.29448 -16789475.79646  20919415.4934   20919419.1854
      3773.3374       2940.2614
  22505249.3774   -5246534.07947  -3776930.79045  22505247.2634   22505253.4184
      4176.8024       3254.6514
 00  1  6  2 23 59.9950000  0  7G 6G 5G24G 9G 4G30G10
  22344665.8434  -14721996.62248 -11199405.02946  22344664.6844   22344670.8814
      3237.8824       2523.0244
  18890933.3834  -38267021.85649 -29791990.80047  18890931.5284   18890936.0334
      1627.1484       1267.9084
  18954970.4344  -35304093.25148 -27139443.18847  18954969.2454   18954974.7624
       406.1024        316.4424
  21437790.4834  -26555358.24448 -20665179.29946  21437788.8224   21437793.8654
     -2095.8024      -1633.0934
  20783225.9904  -24861815.62848 -19037868.16246  20783224.6074   20783228.2594
     -1946.3784      -1516.6584
  20897907.2524  -22052969.49648 -16877552.00046  20897905.8944   20897910.0964
      3761.9704       2931.4024
  22481419.9474   -5371753.95147  -3874504.60845  22481418.2904   22481425.3764
      4170.9754       3250.1094
 00  1  6  2 24 29.9950000  0  7G 6G 5G24G 9G 4G30G10
  22326192.9274  -14819074.26148 -11275049.86446  22326191.5784   22326197.1134
      3233.4264       2519.5534
  18881685.9004  -38315616.93449 -29829857.08247  18881683.8694   18881688.7874
      1611.9834       1256.0894
  18952707.1994  -35315986.66248 -27148710.75947  18952706.0324   18952711.3484
       386.3034        301.0154
  21449778.2754  -26492361.46548 -20616090.90746  21449776.7284   21449781.5564
     -2104.4924      -1639.8634
  20794367.4954  -24803267.10848 -18992245.92346  20794366.2344   20794369.7674
     -1957.3054      -1525.1734
  20876455.4434  -22165698.37148 -16965392.62146  20876454.2964   20876458.6824
      3752.8954       2924.3324
  22457617.5674   -5496842.37047  -3971975.97245  22457614.7604   22457621.1914
      4167.7534       3247.5924
 00  1  6  2 24 59.9950000  0  7G 6G 5G24G 9G 4G30G10
  22307728.9594  -14916103.97348 -11350657.35646  22307727.4764   22307733.2934
      3232.7724       2519.0444
  18872507.3314  -38363847.78949 -29867439.55147  18872505.6914   18872510.7114
      1600.9404       1247.4854
  18950540.2244  -35327376.72449 -27157586.11147  18950538.7264   18950543.8854
       370.5024        288.7024
  21461798.2694  -26429197.86548 -20566872.53646  21461796.4204   21461800.9684
     -2108.9714      -1643.3534
  20805553.3884  -24744485.17948 -18946441.80746  20805551.9864   20805555.4244
     -1964.2134      -1530.5554
  20855038.4664  -22278244.50248 -17053090.84546  20855037.2154   20855041.8004
      3747.5574       2920.1714
  22433814.3244   -5621925.36547  -4069443.14645  22433812.9744   22433818.3084
      4168.3584       3248.0724
 00  1  6  2 25 29.9950000  0  7G 6G 5G24G 9G 4G30G10
  22289285.5834  -15013025.46448 -11426180.52446  22289284.1514   22289290.3174
      3235.8484       2521.4404
  18863411.3884  -38411648.82249 -29904687.09247  18863409.5714   18863414.3114
      1592.7384       1241.0934
  18948479.5174  -35338207.33949 -27166025.52447  18948477.6984   18948482.8744
       358.8874        279.6524
  21473860.9184  -26365805.99848 -20517476.29146  21473859.4344   21473864.1184
     -2109.9904      -1644.1484
  20816797.8474  -24685393.11048 -18900396.02146  20816796.6754   20816800.0254
     -1968.2914      -1533.7354
  20833671.4114  -22390527.50948 -17140584.03046  20833670.6324   20833674.6764
      3745.2644       2918.3844
  22410028.0474   -5746921.70347  -4166842.77545  22410025.9474   22410032.3314
      4171.7794       3250.7294
 00  1  6  2 25 59.9950000  0  7G 6G 5G24G 9G 4G30G10
  22270850.3394  -15109901.06248 -11501667.93446  22270849.1204   22270855.2674
      3226.7454       2514.3424
  18854391.3494  -38459049.67449 -29941622.79647  18854389.4314   18854394.3344
      1571.3614       1224.4364
  18946509.5374  -35348557.87849 -27174090.85847  18946508.3324   18946513.2714
       335.4494        261.3874
  21485955.6144  -26302246.50248 -20467949.42346  21485954.2254   21485959.3414
     -2122.9004      -1654.2084
  20828092.8994  -24626036.34548 -18854143.98246  20828091.9694   20828095.5744
     -1984.5614      -1546.4114
  20812343.6224  -22502608.28948 -17227919.64846  20812342.6084   20812346.3024
      3731.1534       2907.3904
  22386251.0854   -5871874.58747  -4264208.53445  22386249.3054   22386254.3944
      4162.8734       3243.7914
 00  1  6  2 26 29.9950000  0  7G 6G 5G24G 9G 4G30G10
  22252424.4684  -15206731.69948 -11577120.31046  22252423.1694   22252429.3264
      3225.7994       2513.6104
  18845451.7224  -38506030.68449 -29978231.35547  18845449.6484   18845453.9784
      1557.9154       1213.9604
  18944629.0974  -35358440.35549 -27181791.46647  18944627.7204   18944632.3764
       320.5824        249.8034
  21498080.1684  -26238531.80448 -20418301.61746  21498078.6994   21498083.7984
     -2127.5474      -1657.8294
  20839437.8924  -24566418.78548 -18807688.73546  20839436.6454   20839440.5244
     -1992.6444      -1552.7104
  20791051.1634  -22614501.50848 -17315109.11046  20791049.9794   20791053.8204
      3725.6334       2903.0884
  22362478.8914   -5996794.95447  -4361548.98745  22362476.3074   22362482.6694
      4162.3564       3243.3904
 00  1  6  2 26 59.9950000  0  7G 6G 5G24G 9G 4G30G10
  22234008.0884  -15303510.38648 -11652532.20046  22234006.8374   22234011.9284
      3226.6184       2514.2464
  18836593.4114  -38552579.19149 -30014502.90847  18836591.5724   18836595.9484
      1545.7264       1204.4614
  18942836.8474  -35367856.08949 -27189128.37647  18942835.6534   18942840.6804
       307.4904        239.6024
  21510237.2034  -26174648.70548 -20368522.59546  21510235.1674   21510239.9614
     -2130.8504      -1660.4014
  20850832.0304  -24506542.67648 -18761032.01946  20850830.6444   20850834.4644
     -1998.8494      -1557.5454
  20769794.6244  -22726205.97748 -17402151.49546  20769793.6764   20769797.3014
      3721.7414       2900.0554
  22338715.1674   -6121669.78347  -4458853.92845  22338713.4894   22338721.3994
      4162.8424       3243.7784
 00  1  6  2 27 29.9950000  0  7G 6G 5G24G 9G 4G30G10
  22215607.1814  -15400208.69148 -11727881.47546  22215605.6114   22215611.1634
      3227.3224       2514.7924
  18827826.3304  -38598648.57049 -30050401.10947  18827824.6874   18827829.2334
      1533.0184       1194.5584
  18941140.7944  -35376771.59749 -27196075.50047  18941139.1374   18941143.7474
       294.2034        229.2484
  21522434.1584  -26110553.59248 -20318578.36546  21522432.6364   21522437.3614
     -2134.6284      -1663.3464
  20862281.5264  -24446371.40348 -18714145.30546  20862280.5984   20862284.7674
     -2005.0454      -1562.3734
  20748580.7704  -22837684.79948 -17489018.04646  20748579.8774   20748583.7704
      3717.7164       2896.9184
  22314972.0774   -6246441.66247  -4556078.66645  22314970.2614   22314976.9494
      4162.7664       3243.7074
 00  1  6  2 27 59.9950000  0  7G 6G 5G24G 9G 4G30G10
  22197211.9834  -15496877.22148 -11803207.54546  22197210.3784   22197216.0784
      3216.2794       2506.1884
  18819141.3064  -38644289.18349 -30085965.20147  18819139.5454   18819144.3024
      1508.7374       1175.6384
  18939531.7294  -35385228.02249 -27202664.89347  18939530.2814   18939534.6084
       268.4844        209.2064
  21534662.3994  -26046292.43048 -20268504.74546  21534660.7744   21534665.6544
     -2150.3294      -1675.5804
  20873774.8484  -24385973.88748 -18667082.30446  20873773.7634   20873777.6464
     -2022.3854      -1575.8844
  20727399.2984  -22948994.08348 -17575752.49846  20727398.3004   20727402.0554
      3701.9034       2884.5994
  22291239.8974   -6371154.42047  -4653257.34945  22291237.8504   22291245.0964
      4150.6734       3234.2894
 00  1  6  2 28 29.9950000  0  7G 6G 5G24G 9G 4G30G10
  22178852.0234  -15593359.72148 -11878388.64646  22178850.5104   22178856.8734
      3215.7194       2505.7554
  18810567.1514  -38689350.64449 -30121078.00847  18810565.1994   18810569.2594
      1495.3114       1165.1764
  18938042.0824  -35393054.51349 -27208763.43347  18938040.6964   18938045.3744
       253.0344        197.1684
  21546951.8744  -25981705.23748 -20218177.08046  21546950.8914   21546955.9104
     -2155.6254      -1679.7084
  20885337.5784  -24325211.63848 -18619735.08746  20885336.6934   20885340.5664
     -2028.6764      -1580.7884
  20706280.8504  -23059970.70648 -17662227.73946  20706279.9054   20706283.7044
      3696.3224       2880.2494
  22267548.7104   -6495656.69047  -4750272.03845  22267545.5504   22267552.1504
      4149.2094       3233.1474
 00  1  6  2 28 59.9950000  0  7G 6G 5G24G 9G 4G30G10
  22160501.0344  -15689792.03048 -11953530.63746  22160499.7604   22160506.1814
      3213.6464       2504.1364
  18802074.1104  -38733981.32649 -30155855.14547  18802072.2264   18802076.4454
      1480.6494       1153.7524
  18936646.4944  -35400387.83049 -27214477.68547  18936645.2184   18936649.7754
       236.3024        184.1314
  21559279.3334  -25916929.21048 -20167702.27746  21559277.6904   21559282.4734
     -2162.1064      -1684.7584
  20896941.4964  -24264234.11048 -18572220.12546  20896940.5154   20896944.1664
     -2036.2594      -1586.6954
  20685201.1524  -23170745.69148 -17748545.85446  20685199.9364   20685203.8944
      3689.1754       2874.6804
  22243871.1774   -6620076.18347  -4847222.22545  22243869.7144   22243876.7114
      4146.1164       3230.7404
 00  1  6  2 29 29.9950000  0  7G 6G 5G24G 9G 4G30G10
  22142159.8034  -15786177.65848 -12028636.25746  22142158.3614   22142164.6004
      3215.9064       2505.8974
  18793660.8884  -38778191.93449 -30190304.95447  18793659.0454   18793663.0084
      1470.6934       1145.9944
  18935343.2074  -35407239.27649 -27219816.44947  18935341.5304   18935345.9834
       224.3214        174.7954
  21571637.3704  -25851983.40548 -20117095.16946  21571636.2144   21571640.9874
     -2163.5964      -1685.9194
  20908586.9664  -24203037.37448 -18524534.33946  20908585.8414   20908589.4494
     -2039.5914      -1589.2934
  20664160.3854  -23281316.63248 -17834704.97346  20664158.9644   20664162.8034
      3686.2724       2872.4194
  22220207.8164   -6744432.60847  -4944123.24945  22220206.2434   22220212.3714
      4148.4294       3232.5424
 00  1  6  2 29 59.9950000  0  7G 6G 5G24G 9G 4G30G10
  22123812.0464  -15882592.04448 -12103764.28946  22123810.6394   22123816.8304
      3206.1054       2498.2644
  18785311.0924  -38822067.80049 -30224493.92447  18785309.4914   18785313.8924
      1448.8014       1128.9344
  18934114.8964  -35413693.34249 -27224845.57347  18934113.4284   18934117.8744
       200.4804        156.2184
  21584011.7474  -25786957.86648 -20066425.93046  21584010.3464   21584015.1784
     -2176.9714      -1696.3414
  20920258.4084  -24141705.73248 -18476743.42746  20920257.0744   20920260.3324
     -2054.8074      -1601.1494
  20643141.5774  -23391770.35048 -17920772.74846  20643140.2184   20643144.1584
      3671.7644       2861.1134
  22196535.9854   -6868827.38047  -5041054.16245  22196534.4334   22196540.5394
      4139.0704       3225.2474
 00  1  6  2 30 29.9950000  0  7G 6G 5G24G 9G 4G30G10
  22105516.5024  -15978735.98348 -12178681.57946  22105514.9604   22105520.9634
      3202.8324       2495.7104
  18777080.7564  -38865321.16849 -30258197.82847  18777079.0894   18777083.2984
      1434.1904       1117.5514
  18933014.3634  -35419474.63749 -27229350.45647  18933013.0864   18933017.9084
       184.3444        143.6464
  21596455.8074  -25721561.12948 -20015467.44246  21596454.3014   21596459.6214
     -2183.4294      -1701.3734
  20932009.9284  -24079950.63748 -18428622.55846  20932008.4694   20932012.3054
     -2063.0584      -1607.5764
  20622199.7364  -23501815.66248 -18006522.28846  20622198.9544   20622202.9554
      3663.8684       2854.9624
  22172911.2664   -6992971.86047  -5137790.04145  22172910.1484   22172916.4114
      4136.3414       3223.1194
 00  1  6  2 30 59.9950000  0  7G 6G 5G24G 9G 4G30G10
  22087233.2344  -16074811.87548 -12253545.84746  22087232.1134   22087238.1504
      3200.9224       2494.2234
  18768927.5854  -38908165.31849 -30291582.86347  18768925.7464   18768930.2494
      1420.7294       1107.0624
  18931999.5764  -35424807.26149 -27233505.73647  18931998.3524   18932002.8594
       169.8524        132.3534
  21608932.5034  -25655999.38848 -19964380.37446  21608930.7644   21608935.3934
     -2188.5234      -1705.3424
  20943804.0484  -24017968.81848 -18380325.02546  20943802.7884   20943807.0884
     -2070.3734      -1613.2794
  20601299.3894  -23611648.81248 -18092106.50946  20601298.3094   20601302.5244
      3657.1324       2849.7124
  22149301.7184   -7117051.69147  -5234475.53845  22149298.9094   22149305.2314
      4134.4884       3221.6734
 00  1  6  2 31 29.9950000  0  7G 6G 5G24G 9G 4G30G10
  22068957.8624  -16170854.39848 -12328384.11246  22068956.2924   22068961.8754
      3198.1874       2492.0924
  18760846.9524  -38950629.78349 -30324672.03747  18760845.0694   18760849.5414
      1406.3514       1095.8564
  18931063.6704  -35429730.48849 -27237341.99747  18931061.9154   18931065.8604
       154.4454        120.3464
  21621432.8844  -25590309.40848 -19913193.39446  21621431.2664   21621436.1284
     -2194.6224      -1710.0934
  20955635.0154  -23955797.42648 -18331879.77846  20955633.8284   20955637.8454
     -2078.1134      -1619.3084
  20580432.4454  -23721307.56748 -18177554.83947  20580431.5284   20580435.4664
      3649.7014       2843.9224
  22125695.4104   -7241102.39347  -5331138.32645  22125692.4384   22125699.1714
      4131.6294       3219.4524
 00  1  6  2 31 59.9950000  0  7G 6G 5G24G 9G 4G30G10
  22050713.5874  -16266730.31548 -12403092.55346  22050711.5194   22050717.0964
      3192.4044       2487.5844
  18752866.7534  -38992565.72849 -30357349.38247  18752864.9134   18752869.2324
      1388.0954       1081.6334
  18930231.4954  -35434098.82149 -27240745.87647  18930230.1834   18930234.8484
       135.5114        105.5934
  21633985.8874  -25524344.33448 -19861792.05946  21633984.5674   21633989.2454
     -2204.2774      -1717.6174
  20967525.2364  -23893313.54848 -18283191.03046  20967524.1444   20967528.1134
     -2088.9004      -1627.7154
  20559623.9584  -23830656.77048 -18262761.96447  20559622.9944   20559626.8534
      3638.7634       2835.3994
  22102124.2504   -7364963.47147  -5427653.35645  22102122.1154   22102129.3744
      4124.3964       3213.8114
 00  1  6  2 32 29.9950000  0  7G 6G 5G24G 9G 4G30G10
  22032483.6074  -16362526.54248 -12477738.90346  22032482.1234   22032488.1434
      3192.9894       2488.0414
  18744974.3734  -39034042.65749 -30389669.04747  18744972.6464   18744976.4414
      1375.8654       1072.1024
  18929490.7714  -35437995.19649 -27243782.00247  18929489.1934   18929493.4004
       123.0064         95.8474
  21646574.5774  -25458190.22448 -19810243.40446  21646573.1744   21646577.6854
     -2206.9094      -1719.6714
  20979459.5164  -23830598.12948 -18234321.86346  20979458.3544   20979462.5064
     -2093.3894      -1631.2124
  20538863.5864  -23939753.32248 -18347772.21947  20538862.4354   20538866.3344
      3633.2734       2831.1204
  22078579.0254   -7488693.53347  -5524066.29845  22078577.4174   22078583.0284
      4123.2374       3212.9114
 00  1  6  2 32 59.9950000  0  7G 6G 5G24G 9G 4G30G10
  22014259.7374  -16458292.97948 -12552362.04346  22014258.6104   22014264.3754
      3195.0004       2489.6074
  18737162.5894  -39075095.70549 -30421658.41547  18737160.6094   18737164.1234
      1364.4604       1063.2144
  18928831.0974  -35441459.33349 -27246481.31747  18928829.8234   18928833.8774
       111.4594         86.8514
  21659184.6254  -25391922.13148 -19758605.92546  21659183.2104   21659188.1884
     -2207.2684      -1719.9474
  20991431.1454  -23767689.08048 -18185301.81446  20991429.6654   20991433.5274
     -2096.9504      -1633.9874
  20518143.6734  -24048637.50348 -18432616.98947  20518142.5974   20518146.4134
      3629.3434       2828.0584
  22055048.8164   -7612344.86147  -5620417.88945  22055047.3624   22055052.9964
      4123.8524       3213.3854
 00  1  6  2 33 29.9950000  0  7G 6G 5G24G 9G 4G30G10
  21996048.9824  -16553993.65848 -12626933.93946  21996047.3344   21996052.8384
      3186.7134       2483.1534
  18729440.0114  -39115678.23549 -30453281.15347  18729437.8454   18729441.5674
      1342.6414       1046.2134
  18928262.4624  -35444449.03949 -27248810.93847  18928260.8294   18928264.7834
        89.5044         69.7424
  21671820.2724  -25325519.46948 -19706863.59146  21671818.6974   21671823.7934
     -2217.8824      -1728.2184
  21003445.5764  -23704552.16248 -18136104.20646  21003444.3624   21003448.1404
     -2110.7414      -1644.7354
  20497469.8614  -24157279.67348 -18517273.18147  20497468.6474   20497472.5384
      3615.0634       2816.9284
  22031538.9234   -7735894.90847  -5716690.54845  22031536.9354   22031541.5874
      4114.3024       3205.9514
 00  1  6  2 33 59.9950000  0  7G 6G 5G24G 9G 4G30G10
  21977859.8734  -16649576.83448 -12701414.27146  21977858.2554   21977862.7884
      3185.1654       2481.9444
  18721816.1554  -39155740.88849 -30484498.78947  18721814.0894   18721817.7734
      1327.9894       1034.7954
  18927792.6784  -35446917.13349 -27250734.11147  18927791.1584   18927795.2634
        74.7724         58.2624
  21684490.9194  -25258938.81748 -19654982.56746  21684488.9234   21684492.9714
     -2221.0804      -1730.7124
  21015513.1944  -23641134.92148 -18086688.16846  21015512.0234   21015515.9884
     -2117.5374      -1650.0304
  20476852.3214  -24265625.39648 -18601698.37147  20476850.9704   20476855.3054
      3607.6824       2811.1784
  22008057.5894   -7859286.91247  -5812840.04845  22008055.7754   22008061.2594
      4111.6014       3203.8434
 00  1  6  2 34 29.9950000  0  7G 6G 5G24G 9G 4G30G10
  21959676.8484  -16745125.48948 -12775867.70546  21959675.5094   21959680.4684
      3183.5494       2480.6844
  18714270.4104  -39195392.22749 -30515395.92147  18714268.5744   18714272.1024
      1314.2004       1024.0514
  18927402.1544  -35448968.12749 -27252332.27847  18927400.7244   18927404.9904
        60.6104         47.2304
  21697172.8904  -25192291.07648 -19603049.27446  21697171.7074   21697176.2644
     -2223.4184      -1732.5314
  21027616.5754  -23577531.27548 -18037126.88646  21027615.3914   21027619.3794
     -2124.0354      -1655.0934
  20456272.4014  -24373774.26648 -18685970.17547  20456271.1964   20456274.8554
      3601.1614       2806.0994
  21984586.0394   -7982626.93347  -5908949.05845  21984584.7624   21984589.9004
      4109.8684       3202.4914
 00  1  6  2 34 59.9950000  0  7G 6G 5G24G 9G 4G30G10
  21941518.6364  -16840550.75948 -12850224.99946  21941517.1554   21941522.2314
      3175.9144       2474.7354
  18706818.7264  -39234551.90349 -30545909.94147  18706816.8924   18706820.4364
      1294.1984       1008.4654
  18927108.0424  -35450513.03749 -27253536.09047  18927106.8414   18927111.0524
        40.1204         31.2634
  21709885.4944  -25125485.23248 -19550992.77646  21709883.8294   21709889.5244
     -2232.7284      -1739.7874
  21039772.7704  -23513651.22248 -17987350.21546  21039771.5754   21039775.2994
     -2136.8744      -1665.0974
  20435741.8084  -24481656.91348 -18770034.53647  20435740.9864   20435745.3694
      3588.6594       2796.3564
  21961141.1794   -8105834.41647  -6004954.78945  21961138.6674   21961144.6884
      4101.4884       3195.9654
 00  1  6  2 35 29.9950000  0  7G 6G 5G24G 9G 4G30G10
  21923381.6944  -16935856.08748 -12924488.83246  21923380.5524   21923386.3934
      3172.7574       2472.2734
  18699461.3044  -39273217.53349 -30576038.99847  18699459.2564   18699462.3664
      1278.6024        996.3124
  18926910.1224  -35451552.95549 -27254346.40047  18926909.0094   18926913.1634
        24.1824         18.8414
  21722633.2904  -25058492.02248 -19498790.28846  21722632.1934   21722637.4294
     -2238.3744      -1744.1894
  21051980.0954  -23449502.71848 -17937364.35646  21051978.9454   21051982.4544
     -2144.7244      -1671.2144
  20415264.3234  -24589266.97348 -18853886.48947  20415263.3094   20415267.6364
      3580.2764       2789.8244
  21937723.6224   -8228892.81547  -6100844.35045  21937722.0034   21937727.8994
      4097.3554       3192.7374
 00  1  6  2 35 59.9950000  0  7G 6G 5G24G 9G 4G30G10
  21905258.4244  -17031097.61248 -12998702.93746  21905257.0094   21905262.4314
      3170.5774       2470.5774
  18692186.2894  -39311445.56649 -30605827.06447  18692184.2864   18692187.7594
      1263.7664        984.7524
  18926797.5064  -35452145.28249 -27254807.94147  18926796.1104   18926800.4924
         9.0544          7.0554
  21735407.5774  -24991363.38948 -19446482.27046  21735406.5154   21735411.5294
     -2242.9514      -1747.7544
  21064224.9614  -23385153.68148 -17887222.24446  21064224.0624   21064227.7764
     -2151.4784      -1676.4774
  20394830.6234  -24696649.47948 -18937561.13147  20394829.4494   20394833.5614
      3572.3504       2783.6484
  21914325.9924   -8351850.81047  -6196655.66945  21914323.8044   21914329.2004
      4093.7074       3189.8984
 00  1  6  2 36 29.9950000  0  7G 6G 5G24G 9G 4G30G10
  21887166.6204  -17126171.61648 -13072786.50346  21887164.8324   21887170.2234
      3168.0494       2468.6074
  18685019.0924  -39349109.39949 -30635175.49547  18685017.0274   18685020.6364
      1247.4254        972.0194
  18926791.9894  -35452175.89849 -27254831.78447  18926790.4804   18926794.8294
        -6.7394         -5.2514
  21748228.7984  -24923988.41348 -19393982.30046  21748227.5654   21748233.3184
     -2248.4164      -1752.0164
  21076529.2254  -23320493.06548 -17836837.34646  21076528.1664   21076532.2114
     -2159.0384      -1682.3674
  20374462.6604  -24803682.91448 -19020963.76747  20374461.5164   20374465.9024
      3563.4944       2776.7484
  21890970.2944   -8474589.63047  -6292296.20945  21890968.3054   21890972.7604
      4089.0174       3186.2504
 00  1  6  2 36 59.9950000  0  7G 6G 5G24G 9G 4G30G10
  21869084.4664  -17221193.95248 -13146829.80446  21869082.9944   21869088.3334
      3166.9804       2467.7734
  18677941.7444  -39386298.10749 -30664153.69847  18677940.1244   18677944.0534
      1232.1714        960.1344
  18926872.3824  -35451754.14649 -27254503.13447  18926870.7664   18926875.0344
       -21.0304        -16.3884
  21761077.3824  -24856467.13748 -19341368.34446  21761076.4864   21761082.5734
     -2252.4554      -1755.1574
  21088873.5034  -23255624.96648 -17786290.76446  21088872.5074   21088875.8884
     -2165.0584      -1687.0564
  20354143.2934  -24910462.99548 -19104168.98747  20354142.1194   20354145.9724
      3555.5004       2770.5194
  21867636.7664   -8597198.43947  -6387835.45445  21867635.1234   21867641.5694
      4085.2444       3183.3034
 00  1  6  2 37 29.9940000  0  7G 6G 5G24G 9G 4G30G10
  21851016.4074  -17316139.98848 -13220813.66546  21851015.1094   21851020.2004
      3164.3884       2465.7544
  18670958.8144  -39422994.27849 -30692748.10347  18670957.1634   18670960.8964
      1215.9464        947.4894
  18927039.7834  -35450873.99849 -27253817.28847  18927038.2754   18927042.6394
       -36.2184        -28.2234
  21773953.6904  -24788806.61748 -19288645.88246  21773951.9244   21773958.3304
     -2256.6664      -1758.4414
  21101255.1614  -23190559.86848 -17735590.67446  21101254.2494   21101257.5134
     -2171.3924      -1691.9954
  20333875.0734  -25016969.36148 -19187160.92747  20333874.3014   20333878.4014
      3546.7554       2763.7054
  21844333.2444   -8719663.27747  -6483262.49245  21844330.9884   21844337.8554
      4080.9044       3179.9274
 00  1  6  2 37 59.9940000  0  7G 6G 5G24G 9G 4G30G10
  21832941.8154  -17411126.65948 -13294829.19346  21832940.2004   21832944.7114
      3161.8894       2463.8034
  18664045.1914  -39459327.80749 -30721059.93447  18664043.3044   18664046.9764
      1199.9524        935.0274
  18927272.2114  -35449649.56349 -27252863.16847  18927271.0824   18927275.6564
       -51.7714        -40.3424
  21786830.2734  -24721140.38448 -19235918.96646  21786828.2014   21786833.8854
     -2260.7064      -1761.5904
  21113651.8784  -23125414.84548 -17684828.31046  21113650.4824   21113653.8114
     -2178.1324      -1697.2464
  20313634.1934  -25123336.89248 -19270044.68747  20313633.3244   20313637.0924
      3538.1984       2757.0374
  21821032.7784   -8842109.41947  -6578674.96745  21821029.7784   21821036.8414
      4075.8004       3175.9434
 00  1  6  2 38 29.9940000  0  7G 6G 5G24G 9G 4G30G10
  21814890.0814  -17505984.76948 -13368744.51246  21814889.0424   21814893.6994
      3165.0504       2466.2684
  18657232.4304  -39495129.77149 -30748957.56147  18657230.3234   18657233.8024
      1190.1234        927.3694
  18927604.5894  -35447905.50949 -27251504.15347  18927602.9874   18927607.7104
       -61.4814        -47.9074
  21799738.4494  -24653303.82148 -19183059.32246  21799737.3464   21799742.7664
     -2258.7334      -1760.0504
  21126097.5004  -23060012.14648 -17633865.16346  21126096.2774   21126099.4174
     -2179.0174      -1697.9374
  20293451.4584  -25229397.74048 -19352689.46647  20293450.2364   20293454.4404
      3535.5374       2754.9614
  21797769.4304   -8964354.36147  -6673930.68245  21797768.1674   21797773.6234
      4076.7884       3176.7124
 00  1  6  2 38 59.9940000  0  7G 6G 5G24G 9G 4G30G10
  21796838.7694  -17600844.60348 -13442661.17246  21796837.2174   21796842.4814
      3161.8654       2463.7884
  18650489.6974  -39530560.53749 -30776565.94147  18650488.0454   18650491.7484
      1174.8144        915.4404
  18928009.3444  -35445776.51749 -27249845.18747  18928008.0174   18928012.6524
       -77.5494        -60.4274
  21812653.0784  -24585439.12248 -19130177.73346  21812651.2094   21812656.3954
     -2262.5494      -1763.0294
  21138564.4144  -22994497.97348 -17582815.14546  21138562.9834   21138566.6374
     -2185.5484      -1703.0254
  20273301.5194  -25335284.06048 -19435198.26247  20273300.8874   20273304.4154
      3526.4534       2747.8854
  21774517.7444   -9086541.79047  -6769141.58745  21774515.8204   21774521.7304
      4071.9214       3172.9254
 00  1  6  2 39 29.9940000  0  7G 6G 5G24G 9G 4G30G10
  21778834.0404  -17695462.48548 -13516389.30146  21778832.4594   21778837.1244
      3152.5714       2456.5484
  18643862.8294  -39565387.27749 -30803703.64947  18643861.0144   18643864.5914
      1153.5144        898.8424
  18928533.4444  -35443022.19449 -27247698.95147  18928532.1024   18928536.7054
       -99.5764        -77.5914
  21825617.3524  -24517313.92348 -19077093.15446  21825615.4094   21825620.5594
     -2272.8244      -1771.0344
  21151095.1874  -22928646.61548 -17531502.39246  21151094.2594   21151098.0064
     -2198.2554      -1712.9254
  20253232.4384  -25440748.08648 -19517377.99547  20253231.4134   20253235.3514
      3510.9154       2735.7764
  21751322.1824   -9208437.42347  -6864125.11145  21751320.3314   21751325.9464
      4060.7974       3164.2604
 00  1  6  2 39 59.9940000  0  7G 6G 5G24G 9G 4G30G10
  21760868.2124  -17789872.21748 -13589955.24046  21760866.7004   21760871.9194
      3151.1734       2455.4574
  18637344.6394  -39599640.91849 -30830394.78947  18637342.5354   18637345.9704
      1139.7094        888.0844
  18929171.1404  -35439671.23749 -27245087.80647  18929169.8044   18929174.4514
      -113.9604        -88.8014
  21838630.3704  -24448930.67348 -19023807.50046  21838628.7394   21838633.7164
     -2276.3364      -1773.7704
  21163687.7884  -22862468.78148 -17479935.25146  21163687.2144   21163691.0074
     -2203.8544      -1717.2884
  20233242.3144  -25545800.97448 -19599237.35747  20233240.7744   20233244.6404
      3502.2034       2728.9894
  21728179.9814   -9330049.77547  -6958887.87945  21728177.7174   21728183.5394
      4056.4544       3160.8674
 00  1  6  2 40 29.9940000  0  7G 6G 5G24G 9G 4G30G10
  21742893.0674  -17884332.50948 -13663560.57446  21742891.2154   21742896.7274
      3145.9924       2451.4214
  18630886.7444  -39633575.53949 -30856837.34547  18630884.8004   18630888.4284
      1122.5014        874.6764
  18929869.7524  -35436000.08649 -27242227.15647  18929868.4684   18929872.8744
      -130.8324       -101.9484
  21851643.6094  -24380545.61948 -18970520.44346  21851641.9554   21851646.7124
     -2282.8404      -1778.8344
  21176293.2974  -22796228.44948 -17428319.41046  21176292.4274   21176296.3194
     -2212.3214      -1723.8874
  20213283.1474  -25650683.42348 -19680963.91247  20213282.2354   20213286.3194
      3489.8914       2719.3954
  21705042.5754   -9451633.73847  -7053628.54045  21705041.4384   21705046.6384
      4049.0694       3155.1144
 00  1  6  2 40 59.9940000  0  7G 6G 5G24G 9G 4G30G10
  21724947.9454  -17978633.90948 -13737042.09746  21724946.5794   21724951.9344
      3142.4584       2448.6684
  18624528.4454  -39666988.11149 -30882873.10847  18624526.5834   18624530.2454
      1106.5084        862.2144
  18930664.3764  -35431827.87449 -27238976.06447  18930662.7164   18930666.7904
      -145.6524       -113.4964
  21864696.3044  -24311952.61348 -18917071.36346  21864694.8244   21864700.4414
     -2288.2614      -1783.0594
  21188947.7424  -22729730.67848 -17376502.96946  21188946.5484   21188950.2444
     -2219.2834      -1729.3124
  20193394.1194  -25755200.45348 -19762405.72347  20193393.2664   20193397.5514
      3479.5704       2711.3534
  21681949.9554   -9572988.73347  -7148190.78845  21681947.3974   21681952.7184
      4043.0064       3150.3944
 00  1  6  2 41 29.9940000  0  7G 6G 5G24G 9G 4G30G10
  21707029.7384  -18072792.62348 -13810412.44446  21707028.2494   21707033.9344
      3133.6274       2441.7854
  18618269.9664  -39699876.85049 -30908500.68847  18618268.1814   18618272.0854
      1084.9024        845.3784
  18931549.0904  -35427175.93149 -27235351.16147  18931547.6884   18931552.0504
      -165.8444       -129.2294
  21877788.8994  -24243153.18448 -18863461.43346  21877787.2434   21877792.1084
     -2299.3944      -1791.7364
  21201650.1394  -22662980.70248 -17324489.98946  21201648.8844   21201652.2554
     -2232.0144      -1739.2334
  20173571.5914  -25859369.43448 -19843576.32847  20173570.5834   20173574.8764
      3463.8834       2699.1294
  21658898.5334   -9694117.81747  -7242577.00645  21658897.0704   21658902.5264
      4031.0694       3141.0924
 00  1  6  2 41 59.9940000  0  7G 6G 5G24G 9G 4G30G10
  21689105.3304  -18166983.95048 -13883808.19746  21689103.7544   21689109.7784
      3141.1014       2447.6084
  18612079.9384  -39732404.75249 -30933847.09647  18612078.1604   18612081.9794
      1078.7844        840.6114
  18932496.3334  -35422199.70949 -27231473.57547  18932494.6304   18932498.9514
      -170.6214       -132.9524
  21890887.0664  -24174320.96748 -18809825.94746  21890885.3534   21890890.0094
     -2293.7624      -1787.3484
  21214369.1824  -22596142.95048 -17272408.61946  21214367.8434   21214371.0224
     -2228.5094      -1736.5024
  20153782.4734  -25963363.95448 -19924610.98147  20153781.3774   20153785.3644
      3464.4304       2699.5544
  21635862.6744   -9815181.46047  -7336912.23745  21635860.4424   21635865.3324
      4035.3024       3144.3874
 00  1  6  2 42 29.9940000  0  7G 6G 5G24G 9G 4G30G10
  21671194.1264  -18261110.73948 -13957153.67546  21671192.5594   21671197.6734
      3136.4054       2443.9504
  18605981.9704  -39764447.16949 -30958815.20647  18605980.4054   18605984.2144
      1059.8624        825.8664
  18933526.4614  -35416783.69149 -27227253.29247  18933524.8174   18933529.5044
      -188.1784       -146.6324
  21904004.5544  -24105385.50448 -18756110.01846  21904003.0394   21904008.2064
     -2299.6364      -1791.9244
  21227122.6374  -22529121.52948 -17220184.12346  21227121.1354   21227124.6394
     -2237.2924      -1743.3424
  20134044.1054  -26067088.70448 -20005435.43247  20134042.9014   20134046.8704
      3453.0014       2690.6494
  21612855.1824   -9936084.95447  -7431122.69645  21612853.2194   21612857.7004
      4027.3894       3138.2244
 00  1  6  2 42 59.9940000  0  7G 6G 5G24G 9G 4G30G10
  21653283.9984  -18355226.04848 -14030490.21646  21653282.6464   21653288.4404
      3130.4504       2439.3104
  18599970.2004  -39796041.37049 -30983434.05447  18599968.2234   18599972.1914
      1038.9754        809.5914
  18934636.3184  -35410951.60449 -27222708.79747  18934634.9714   18934639.2714
      -208.2374       -162.2634
  21917133.3014  -24036391.43148 -18702348.41946  21917131.8304   21917138.0884
     -2307.2684      -1797.8704
  21239902.7044  -22461960.84948 -17167851.11646  21239901.6004   21239904.6444
     -2247.4974      -1751.2984
  20114348.1134  -26170590.28348 -20086085.98147  20114347.3154   20114351.2004
      3439.4844       2680.1174
  21589870.3064  -10056870.59147  -7525241.30345  21589868.6324   21589873.8074
      4017.6074       3130.5994
 00  1  6  2 43 29.9940000  0  7G 6G 5G24G 9G 4G30G10
  21635411.7624  -18449147.21248 -14103675.47346  21635410.0334   21635415.3894
      3130.7304       2439.5294
  18594079.1924  -39826997.56549 -31007555.75247  18594077.3554   18594081.3334
      1024.5544        798.3534
  18935864.0354  -35404498.65249 -27217680.50447  18935862.7484   18935867.1404
      -222.1664       -173.1174
  21930305.9544  -23967171.11848 -18648410.53246  21930304.5974   21930310.1864
     -2307.5444      -1798.0834
  21252741.6854  -22394492.30748 -17115278.21646  21252740.4624   21252744.0224
     -2250.6694      -1753.7694
  20094734.4444  -26273663.31848 -20166402.60447  20094733.4314   20094736.9944
      3432.0054       2674.2894
  21566943.6114  -10177352.33247  -7619123.10245  21566941.5364   21566945.7354
      4014.2774       3128.0034
 00  1  6  2 43 59.9940000  0  7G 6G 5G24G 9G 4G30G10
  21617553.5804  -18542991.36148 -14176800.73246  21617552.1694   21617557.3844
      3124.4344       2434.6194
  18588286.9644  -39857435.56749 -31031273.67347  18588285.4934   18588289.1434
      1003.6824        782.0904
  18937186.8844  -35397547.99249 -27212264.39747  18937185.5554   18937189.9854
      -241.9944       -188.5674
  21943495.6514  -23897862.04348 -18594403.47846  21943493.6734   21943498.5724
     -2314.2064      -1803.2774
  21265613.9844  -22326847.87748 -17062568.26446  21265612.8274   21265616.0214
     -2260.1014      -1761.1174
  20075177.8834  -26376435.82248 -20246485.04747  20075176.1854   20075179.6474
      3418.5184       2663.7804
  21544051.1384  -10297649.93647  -7712861.41045  21544049.3664   21544053.8204
      4004.5584       3120.4264
 00  1  6  2 44 29.9940000  0  7G 6G 5G24G 9G 4G30G10
  21599723.5544  -18636685.65648 -14249809.22346  21599722.3224   21599728.5074
      3120.6954       2431.7074
  18582602.9624  -39887309.38649 -31054551.96147  18582600.9834   18582604.5134
       986.8434        768.9684
  18938611.0494  -35390066.43049 -27206434.59447  18938609.2574   18938613.8314
      -257.9224       -200.9794
  21956714.4074  -23828393.96948 -18540272.53046  21956713.1714   21956718.2984
     -2318.3974      -1806.5424
  21278530.0374  -22258974.24548 -17009679.71546  21278528.5964   21278532.4914
     -2266.0904      -1765.7844
  20055687.5514  -26478854.17748 -20326291.53147  20055686.6574   20055690.2524
      3408.0914       2655.6554
  21521205.0474  -10417707.85247  -7806412.96545  21521202.9194   21521208.0814
      3997.9694       3115.2984
 00  1  6  2 44 59.9940000  0  7G 6G 5G24G 9G 4G30G10
  21581889.9054  -18730405.88748 -14322837.91946  21581888.7104   21581893.8174
      3119.1484       2430.5054
  18576986.7134  -39916821.50749 -31077548.40247  18576984.7474   18576988.3704
       972.4404        757.7454
  18940095.1314  -35382262.63349 -27200353.70247  18940093.8084   18940099.1784
      -270.4814       -210.7654
  21969931.9494  -23758937.25648 -18486150.42846  21969930.4314   21969935.4744
     -2320.0644      -1807.8394
  21291452.0594  -22191067.10048 -16956765.05546  21291450.8714   21291454.2724
     -2269.3724      -1768.3414
  20036231.4304  -26581097.77948 -20405961.84547  20036230.0344   20036234.0964
      3399.9024       2649.2744
  21498371.4524  -10537700.57547  -7899913.71645  21498368.8704   21498374.6034
      3993.4264       3111.7614
 00  1  6  2 45 29.9940000  0  7G 6G 5G24G 9G 4G30G10
  21564105.3654  -18823859.71848 -14395659.03646  21564103.7644   21564109.6154
      3113.3304       2425.9694
  18571493.2324  -39945686.40549 -31100040.53147  18571491.8194   18571495.2494
       953.9804        743.3624
  18941690.3004  -35373879.01349 -27193820.99847  18941689.1774   18941694.1804
      -286.2764       -223.0734
  21983199.2194  -23689218.33148 -18431823.99946  21983197.3854   21983202.6824
     -2325.6344      -1812.1834
  21304435.8864  -22122836.74548 -16903598.53746  21304434.3844   21304437.9344
     -2277.3984      -1774.5964
  20016862.3874  -26682882.42748 -20485274.52847  20016861.2964   20016864.9884
      3387.9134       2639.9314
  21475605.0284  -10657337.56547  -7993137.27345  21475602.5894   21475609.1604
      3984.6074       3104.8894
 00  1  6  2 45 59.9940000  0  7G 6G 5G24G 9G 4G30G10
  21546337.9694  -18917232.82048 -14468417.25146  21546336.5414   21546341.1864
      3114.6774       2427.0214
  18566089.8074  -39974087.28549 -31122171.08047  18566087.8544   18566090.9884
       942.4484        734.3774
  18943358.7014  -35365114.68549 -27186991.63647  18943357.3244   18943361.6774
      -295.0434       -229.9054
  21996480.9914  -23619420.75748 -18377436.29246  21996478.9464   21996484.9304
     -2324.3394      -1811.1744
  21317449.4514  -22054451.18948 -16850311.08446  21317447.9574   21317451.6614
     -2278.6744      -1775.5904
  19997545.5794  -26784392.26448 -20564373.07447  19997544.5764   19997548.0724
      3382.2884       2635.5474
  21452873.0564  -10776796.61647  -8086222.18345  21452870.6944   21452876.3214
      3982.4874       3103.2354
 00  1  6  2 46 29.9940000  0  7G 6G 5G24G 9G 4G30G10
  21528565.2424  -19010626.49448 -14541191.51146  21528563.8914   21528569.3034
      3107.1114       2421.1254
  18560755.9814  -40002111.78049 -31144008.34247  18560754.3144   18560758.0714
       921.2824        717.8824
  18945082.5404  -35356056.40049 -27179933.21247  18945081.0074   18945085.4394
      -313.6154       -244.3774
  22009756.7204  -23549646.07948 -18323066.42546  22009756.2774   22009761.9834
     -2331.6064      -1816.8384
  21330475.2894  -21985997.65148 -16796970.66246  21330474.1454   21330477.6634
     -2289.5754      -1784.0824
  19978270.5664  -26885684.51548 -20643302.06947  19978269.4614   19978272.6214
      3365.8734       2622.7564
  21430157.1594  -10896164.13847  -8179235.76745  21430155.0394   21430160.8674
      3970.6724       3094.0214
 00  1  6  2 46 59.9940000  0  7G 6G 5G24G 9G 4G30G10
  21510811.9044  -19103917.12048 -14613885.45146  21510810.7524   21510816.8354
      3112.0754       2424.9894
  18555524.2854  -40029608.54749 -31165434.38947  18555522.1964   18555525.8004
       911.6854        710.4034
  18946890.8274  -35346553.34349 -27172528.21947  18946889.3704   18946894.0664
      -320.4334       -249.6894
  22023053.3584  -23479782.58348 -18268627.36146  22023051.4514   22023056.0274
     -2326.1814      -1812.6094
  21343543.0214  -21917327.64648 -16743461.56046  21343541.8734   21343545.0394
     -2288.7174      -1783.4204
  19959067.6974  -26986597.34848 -20721935.41347  19959066.2444   19959069.7024
      3361.4234       2619.2894
  21407487.7664  -11015296.71947  -8272066.27845  21407485.4504   21407490.8194
      3971.2394       3094.4654
 00  1  6  2 47 29.9940000  0  7G 6G 5G24G 9G 4G30G10
  21493055.7694  -19197233.04948 -14686599.12446  21493054.0994   21493058.8794
      3099.5774       2415.2534
  18550368.7624  -40056698.72749 -31186543.61447  18550367.1854   18550370.7314
       884.8944        689.5264
  18948764.7764  -35336705.58449 -27164854.62547  18948763.3824   18948767.9764
      -345.6804       -269.3624
  22036340.9464  -23409955.12648 -18214216.35746  22036339.5854   22036344.1334
     -2338.3064      -1822.0594
  21356629.5704  -21848555.91748 -16689873.18546  21356628.8364   21356632.0574
     -2305.3144      -1796.3484
  19939914.3754  -27087245.56348 -20800362.55947  19939913.3194   19939916.5984
      3339.2184       2601.9874
  21384837.5784  -11134320.48047  -8364812.01645  21384835.8444   21384841.1954
      3954.4264       3081.3694
 00  1  6  2 47 59.9940000  0  7G 6G 5G24G 9G 4G30G10
  21475331.5504  -19290372.14748 -14759174.99846  21475330.1804   21475335.4854
      3107.4264       2421.3704
  18545329.1404  -40083180.93749 -31207179.09447  18545327.4894   18545331.3004
       878.3554        684.4324
  18950747.7814  -35326284.79649 -27156734.51547  18950746.3564   18950750.9204
      -351.2624       -273.7124
  22049662.0914  -23339955.16848 -18159670.94546  22049660.3404   22049665.5754
     -2330.6294      -1816.0744
  21369772.1424  -21779489.21748 -16636054.97346  21369771.6724   21369775.3804
     -2301.3004      -1793.2214
  19920852.1324  -27187419.12248 -20878419.84447  19920850.9264   19920854.4344
      3337.0294       2600.2814
  21362246.3444  -11253031.78047  -8457314.28645  21362244.8844   21362250.9374
      3957.2774       3083.5934
 00  1  6  2 48 29.9940000  0  7G 6G 5G24G 9G 4G30G10
  21457608.8624  -19383504.63248 -14831745.70446  21457607.6554   21457612.7484
      3105.2874       2419.7024
  18540371.6884  -40109232.38149 -31227478.91347  18540370.0254   18540374.1884
       862.5034        672.0794
  18952808.0504  -35315457.79649 -27148297.87647  18952806.6404   18952811.1714
      -366.4674       -285.5594
  22062984.5354  -23269942.60048 -18105115.71446  22062982.8664   22062987.9114
     -2332.9784      -1817.9054
  21382936.1574  -21710313.21448 -16582151.59946  21382935.2914   21382939.2224
     -2306.5304      -1797.2954
  19901844.7334  -27287302.27148 -20956250.83647  19901843.7704   19901847.1534
      3326.0794       2591.7494
  21339687.1014  -11371589.93347  -8549697.21045  21339684.7654   21339689.7704
      3950.5654       3078.3594
 00  1  6  2 48 59.9940000  0  7G 6G 5G24G 9G 4G30G10
  21439910.1784  -19476516.73648 -14904222.62546  21439908.5114   21439913.1124
      3098.7064       2414.5724
  18535513.3254  -40134765.17649 -31247374.59247  18535511.3984   18535515.1564
       842.8554        656.7694
  18954964.7324  -35304124.42349 -27139466.65947  18954963.4114   18954967.8364
      -385.7724       -300.6034
  22076331.5594  -23199797.71448 -18050457.37846  22076329.9314   22076336.4514
     -2340.1724      -1823.5114
  21396138.0814  -21640936.41348 -16528091.75446  21396137.2304   21396141.2014
     -2315.3444      -1804.1644
  19882905.8964  -27386828.41748 -21033803.64647  19882904.7824   19882907.9794
      3312.2904       2581.0034
  21317175.6684  -11489895.16847  -8641883.05245  21317173.2064   21317177.0524
      3939.6044       3069.8184
 00  1  6  2 49 29.9940000  0  7G 6G 5G24G 9G 4G30G10
  21422215.7284  -19569501.17148 -14976677.99546  21422214.2934   21422218.8764
      3096.8764       2413.1494
  18530733.2384  -40159884.81349 -31266948.32847  18530731.5054   18530735.1694
       828.2424        645.3844
  18957196.6474  -35292396.11049 -27130327.69547  18957195.1614   18957199.7534
      -399.3984       -311.2204
  22089687.7394  -23129610.06148 -17995765.71246  22089686.5904   22089692.4684
     -2342.2184      -1825.1044
  21409355.6514  -21571478.60148 -16473968.77846  21409354.3044   21409358.8874
     -2318.6564      -1806.7444
  19864011.6904  -27486118.76248 -21111172.71247  19864010.5254   19864013.5284
      3303.7084       2574.3174
  21294692.5644  -11608040.35247  -8733944.15945  21294690.6114   21294694.4514
      3933.3914       3064.9784
 00  1  6  2 49 59.9940000  0  7G 6G 5G24G 9G 4G30G10
  21404550.9254  -19662327.42448 -15049010.09746  21404549.4144   21404554.6724
      3088.8584       2406.8994
  18526056.7504  -40184458.28549 -31286096.48247  18526054.8264   18526059.0554
       807.2704        629.0414
  18959523.9024  -35280164.29049 -27120796.39647  18959522.5894   18959527.5404
      -418.6824       -326.2464
  22103075.5074  -23059259.00748 -17940946.73146  22103074.0814   22103080.1064
     -2350.5654      -1831.6124
  21422611.3974  -21501818.71648 -16419688.34746  21422610.0504   21422614.5214
     -2328.1014      -1814.1014
  19845185.9624  -27585049.17448 -21188261.30747  19845184.6494   19845187.6954
      3288.9724       2562.8344
  21272264.7844  -11725890.86747  -8825775.66445  21272263.4394   21272268.9304
      3920.6204       3055.0234
 00  1  6  2 50 29.9940000  0  7G 6G 5G24G 9G 4G30G10
  21386909.1354  -19755030.47348 -15121246.18846  21386908.3224   21386913.6464
      3090.2914       2408.0164
  18521477.7044  -40208519.51649 -31304845.48747  18521476.1974   18521480.2514
       795.6794        620.0104
  18961938.0554  -35267480.97949 -27110913.28847  18961936.2874   18961941.0644
      -427.9774       -333.4884
  22116486.1624  -22988783.84548 -17886031.03146  22116484.3364   22116490.4834
     -2348.7844      -1830.2174
  21435897.1114  -21432000.18548 -16365284.29746  21435896.0634   21435900.0544
     -2327.7234      -1813.8104
  19826421.3384  -27683657.77048 -21265099.14447  19826420.0714   19826423.2004
      3283.7364       2558.7544
  21249886.9024  -11843488.83447  -8917410.37845  21249885.2234   21249890.8714
      3918.3444       3053.2564
 00  1  6  2 50 59.9940000  0  7G 6G 5G24G 9G 4G30G10
  21369293.0094  -19847604.56648 -15193381.79946  21369291.8294   21369297.2654
      3083.0064       2402.3444
  18517001.9444  -40232041.75049 -31323174.48347  18517000.2474   18517004.2894
       774.0144        603.1284
  18964437.1294  -35254346.01849 -27100678.24547  18964435.9104   18964440.1654
      -446.0534       -347.5744
  22129919.4534  -22918193.42448 -17831025.53146  22129917.6454   22129922.9024
     -2355.4524      -1835.4174
  21449216.6354  -21362006.77648 -16310743.97246  21449215.1544   21449219.3494
     -2336.8864      -1820.9524
  19807722.6564  -27781918.60048 -21341665.98647  19807721.3484   19807724.9774
      3268.4504       2546.8444
  21227557.0494  -11960835.53247  -9008849.30045  21227554.7254   21227560.1034
      3906.4464       3043.9814
 00  1  6  2 51 29.9940000  0  7G 6G 5G24G 9G 4G30G10
  21351688.8074  -19940114.54148 -15265467.44946  21351687.6094   21351692.4964
      3082.3834       2401.8564
  18512622.2804  -40255058.77449 -31341109.82047  18512620.2624   18512624.0964
       758.4314        590.9854
  18967009.7194  -35240828.54049 -27090145.12947  18967008.0514   18967012.3184
      -457.2544       -356.3024
  22143359.2614  -22847566.02748 -17775991.21346  22143358.4044   22143363.3424
     -2355.0754      -1835.1254
  21462558.4474  -21291895.05548 -16256111.46746  21462557.2104   21462561.2674
     -2339.4094      -1822.9174
  19789084.3994  -27879862.64448 -21417985.98447  19789083.2454   19789086.8504
      3259.1734       2539.6134
  21205265.3474  -12077979.54747  -9100130.28645  21205263.1444   21205268.0534
      3901.2444       3039.9304
 00  1  6  2 51 59.9940000  0  7G 6G 5G24G 9G 4G30G10
  21334093.8314  -20032578.23548 -15337517.02846  21334092.3844   21334097.3544
      3080.2844       2400.2194
  18508336.5024  -40277578.89249 -31358657.95447  18508334.6584   18508338.6214
       741.4314        577.7384
  18969651.9694  -35226941.07749 -27079323.71447  18969650.5524   18969654.9774
      -470.1074       -366.3174
  22156803.7954  -22776915.59748 -17720938.93046  22156802.4604   22156807.4954
     -2356.4934      -1836.2344
  21475921.4524  -21221674.24648 -16201393.95246  21475920.1824   21475924.0094
     -2343.6824      -1826.2464
  19770504.7194  -27977495.93248 -21494063.83247  19770503.8284   19770507.8234
      3248.2804       2531.1254
  21183008.4664  -12194935.72047  -9191264.89645  21183006.6794   21183012.2334
      3894.2524       3034.4804
 00  1  6  2 52 29.9940000  0  7G 6G 5G24G 9G 4G30G10
  21316509.7024  -20124986.82048 -15409523.65446  21316508.3564   21316512.4394
      3075.9874       2396.8724
  18504146.6724  -40299596.48649 -31375814.51847  18504144.8814   18504148.9204
       722.2004        562.7534
  18972365.4424  -35212682.48749 -27068213.11247  18972364.0414   18972368.4734
      -484.9464       -377.8804
  22170252.1204  -22706242.44447 -17665868.95246  22170251.1374   22170254.9624
     -2359.3634      -1838.4644
  21489307.0304  -21151329.74048 -16146580.04446  21489305.8954   21489309.4274
     -2350.5174      -1831.5734
  19751986.3564  -28074813.50348 -21569895.67147  19751985.1244   19751988.8364
      3235.1114       2520.8644
  21160790.8424  -12311690.35347  -9282242.47745  21160789.1274   21160794.7804
      3884.9064       3027.1934
 00  1  6  2 52 59.9940000  0  7G 6G 5G24G 9G 4G30G10
  21298946.6234  -20217280.55448 -15481440.78646  21298945.0734   21298950.0974
      3078.6194       2398.9214
  18500062.4964  -40321059.59449 -31392539.01447  18500060.7724   18500064.7494
       710.5124        553.6464
  18975161.8764  -35197987.59249 -27056762.53747  18975160.3424   18975164.7164
      -493.0804       -384.2194
  22183715.6024  -22635494.86947 -17610740.98146  22183713.9854   22183718.4614
     -2355.4174      -1835.3884
  21502730.7734  -21080787.14448 -16091611.77546  21502730.0334   21502733.4324
     -2350.5104      -1831.5674
  19733541.3894  -28171742.48848 -21645424.71447  19733540.2834   19733543.9404
      3228.5684       2515.7664
  21138628.7104  -12428156.35547  -9372995.14545  21138626.6544   21138631.6744
      3881.2104       3024.3174
 00  1  6  2 53 29.9940000  0  7G 6G 5G24G 9G 4G30G10
  21281373.1734  -20309626.73148 -15553398.78946  21281372.0354   21281377.1534
      3077.3144       2397.9054
  18496045.0864  -40342171.29149 -31408989.67947  18496043.2934   18496047.1504
       696.3854        542.6374
  18978008.7924  -35183024.83949 -27045103.24047  18978007.5934   18978012.1294
      -505.1244       -393.6044
  22197160.1784  -22564844.17347 -17555688.51646  22197158.3064   22197162.7204
     -2355.3334      -1835.3254
  21516156.8344  -21010235.52848 -16036636.47646  21516155.4024   21516158.9234
     -2353.6764      -1834.0344
  19715134.7874  -28268470.02848 -21720796.79147  19715133.6464   19715137.1914
      3219.3694       2508.5974
  21116489.6474  -12544498.96447  -9463651.67845  21116487.1444   21116492.9594
      3874.4724       3019.0644
 00  1  6  2 53 59.9940000  0  7G 6G 5G24G 9G 4G30G10
  21263844.4784  -20401739.14948 -15625174.64146  21263843.1574   21263848.5774
      3062.6934       2386.5124
  18492145.2624  -40362665.68749 -31424959.33047  18492143.5214   18492147.0834
       669.0764        521.3574
  18980963.1784  -35167503.61249 -27033008.76947  18980961.4764   18980965.9004
      -530.5284       -413.3994
  22210642.4964  -22493995.48747 -17500481.78046  22210640.4144   22210645.8864
     -2368.6154      -1845.6744
  21529637.9504  -20939387.20648 -15981429.98046  21529637.2704   21529641.4734
     -2370.5064      -1847.1484
  19696818.3574  -28364721.08748 -21795797.58447  19696817.4534   19696821.2974
      3196.4674       2490.7534
  21094425.0034  -12660441.62947  -9553996.56545  21094423.9264   21094429.4624
      3854.0984       3003.1914
 00  1  6  2 54 29.9940000  0  7G 6G 5G24G 9G 4G30G10
  21246326.8034  -20493799.97248 -15696910.28646  21246325.0924   21246330.4014
      3064.4304       2387.8674
  18488328.5274  -40382721.89349 -31440587.53247  18488326.6854   18488330.4734
       657.6514        512.4544
  18983989.4364  -35151599.30849 -27020615.79647  18983988.0474   18983992.3594
      -540.3514       -421.0534
  22224125.0834  -22423139.64747 -17445269.46046  22224123.8924   22224128.9564
     -2365.5554      -1843.2904
  21543141.8954  -20868422.76548 -15926132.99946  21543141.4084   21543145.1934
     -2370.7614      -1847.3444
  19678560.5504  -28460668.93648 -21870562.11147  19678559.3654   19678562.8214
      3189.6274       2485.4234
  21072406.6354  -12776153.94047  -9644161.95845  21072404.2774   21072409.6724
      3849.6214       2999.7034
 00  1  6  2 54 59.9940000  0  7G 6G 5G24G 9G 4G30G10
  21228835.5874  -20585715.13048 -15768532.43246  21228834.0634   21228839.5334
      3068.7954       2391.2684
  18484615.3224  -40402235.07649 -31455792.60147  18484613.4704   18484617.2894
       648.5684        505.3784
  18987111.0484  -35135194.85349 -27007833.09347  18987109.5054   18987113.7924
      -547.5714       -426.6804
  22237630.3244  -22352169.94847 -17389968.41545  22237628.6314   22237633.8174
     -2360.1644      -1839.0894
  21556683.7364  -20797261.06148 -15870682.32446  21556682.6134   21556687.3264
     -2367.7414      -1844.9954
  19660379.2134  -28556213.22148 -21945012.17547  19660377.7134   19660381.1864
      3185.6234       2482.3014
  21050451.1214  -12891532.05847  -9734066.93945  21050449.3854   21050453.8254
      3847.9484       2998.4004
 00  1  6  2 55 29.9940000  0  7G 6G 5G24G 9G 4G30G10
  21211342.7144  -20677640.02248 -15840162.17846  21211341.0674   21211346.5384
      3062.1644       2386.1024
  18480979.7724  -40421339.55249 -31470679.19747  18480977.9144   18480981.7384
       627.4724        488.9394
  18990295.9674  -35118458.10249 -26994791.46047  18990294.5504   18990298.4004
      -565.5564       -440.6944
  22251127.8034  -22281238.57247 -17334697.22945  22251126.3434   22251131.9774
     -2366.0584      -1843.6834
  21570231.0134  -20726068.46648 -15815207.57246  21570229.9694   21570234.8314
     -2375.9074      -1851.3574
  19642243.1854  -28651517.55149 -22019275.25747  19642242.0154   19642245.7624
      3170.3354       2470.3914
  21028525.9134  -13006751.23647  -9823848.06446  21028523.8164   21028528.3914
      3835.7784       2988.9184
 00  1  6  2 55 59.9940000  0  7G 6G 5G24G 9G 4G30G10
  21193866.1284  -20769480.99448 -15911726.50646  21193864.3774   21193869.6824
      3060.5004       2384.8014
  18477445.3664  -40439913.57649 -31485152.45847  18477443.3794   18477447.3794
       610.8144        475.9594
  18993561.1474  -35101299.75249 -26981421.30447  18993559.6564   18993563.5174
      -578.4194       -450.7154
  22264637.5714  -22210247.37647 -17279379.42845  22264636.3324   22264641.3294
     -2366.5894      -1844.0984
  21583802.6364  -20654746.81548 -15759632.26546  21583801.6094   21583806.2834
     -2378.8374      -1853.6374
  19624177.2254  -28746455.40349 -22093252.78247  19624176.1364   19624179.2004
      3158.8554       2461.4454
  21006651.8394  -13121700.41047  -9913418.79346  21006649.3594   21006654.4244
      3827.3674       2982.3564
 00  1  6  2 56 29.9940000  0  7G 6G 5G24G 9G 4G30G10
  21176413.2554  -20861194.45148 -15983191.47746  21176411.5944   21176416.5674
      3057.0804       2382.1374
  18474020.3674  -40457910.34049 -31499175.90047  18474018.6454   18474022.6944
       592.4094        461.6164
  18996914.5734  -35083676.40849 -26967688.81747  18996913.1074   18996917.2934
      -593.0254       -462.0974
  22278164.7334  -22139162.05747 -17223988.29445  22278163.2394   22278168.7134
     -2369.1164      -1846.0624
  21597405.0074  -20583266.75748 -15703933.51746  21597404.3464   21597408.7614
     -2383.1584      -1857.0064
  19606189.8904  -28840975.24648 -22166904.58647  19606189.0274   19606192.8244
      3145.7824       2451.2574
  20984840.6574  -13236317.54347 -10002730.79346  20984838.6514   20984843.3444
      3817.2704       2974.4914
 00  1  6  2 56 59.9940000  0  7G 6G 5G24G 9G 4G30G10
  21158976.8434  -20952821.42848 -16054589.06546  21158975.5434   21158980.6764
      3053.5474       2379.3854
  18470697.0744  -40475378.01049 -31512787.06047  18470695.2534   18470698.8574
       574.3324        447.5324
  19000344.6794  -35065648.70849 -26953641.24947  19000343.5304   19000347.9464
      -606.4934       -472.5924
  22291701.6494  -22068021.63547 -17168554.21645  22291700.2464   22291706.8544
     -2371.3314      -1847.7924
  21611027.4764  -20511681.38348 -15648152.69946  21611026.5204   21611030.6714
     -2387.1824      -1860.1404
  19588277.4144  -28935109.69849 -22240256.08147  19588276.1924   19588279.6224
      3132.0454       2440.5534
  20963082.6994  -13350654.73348 -10091824.65646  20963080.6414   20963085.7014
      3807.4764       2966.8634
