     2.00           OBSERVATION DATA    G (GPS)             RINEX VERSION / TYPE
teqc  1999Jul19     CORS/NGS/NOAA       20000107 02:49:08UTCPGM / RUN BY / DATE
HP-UX 10.20|PA-RISC|cc A.10.32.03|=+|=|                     COMMENT
BIT 2 OF LLI FLAGS DATA COLLECTED UNDER A/S CONDITION       COMMENT
van1                                                        MARKER NAME
xxx                                                         MARKER NUMBER
CORS/NGS/NOAA       U.S. Coast Guard                        OBSERVER / AGENCY
05399               ASHTECH   Z-XII3    RD00                REC # / TYPE / VERS
10913               ASH700829.3                             ANT # / TYPE
 -2665274.3948 -4513294.0773  3622149.8540                  APPROX POSITION XYZ
        0.0000        0.0000        0.0000                  ANTENNA: DELTA H/E/N
     1     1                                                WAVELENGTH FACT L1/2
     7    C1    L1    L2    P1    P2    D1    D2            # / TYPES OF OBSERV
    30.0000                                                 INTERVAL
 SNR is mapped to RINEX snr flag value [1-9]                COMMENT
  L1: 1 -> 1;  90 -> 5; 210 -> 9                            COMMENT
  L2: 1 -> 1; 150 -> 5; 250 -> 9                            COMMENT
teqc windowed: delta = 86400.000 sec                        COMMENT
  2000     1     6     0     1   30.0000000     GPS         TIME OF FIRST OBS
                                                            END OF HEADER
 00  1  6  0  1 30.0000000  0  8G 8G26G 9G 5G 2G 4G24G 7
  20708728.7044  -18051679.89049 -14054063.60847  20708726.7304   20708731.3664
     -2455.7614      -1913.5804
  24369975.6204   -1093820.70848   -618109.17546  24369974.6934   24369981.8434
     -2944.1334      -2294.1314
  21658346.7504  -15342686.87749 -11727022.67447  21658345.3954   21658350.6874
      1366.5434       1064.8364
  24093517.1594   -5628142.27847  -4038552.90445  24093515.1774   24093522.6884
      2338.8184       1822.4534
  22578878.8224   -8774973.44948  -6823579.72746  22578877.0434   22578882.9314
     -1979.3084      -1542.3174
  21256730.9884  -15454784.53748 -11810448.79047  21256730.2504   21256735.8084
      1583.0584       1233.5494
  23310503.1054   -8487803.55547  -6348316.68145  23310501.2684   23310508.3154
      3115.8194       2427.9034
  21689830.4124  -11589563.36549  -9012756.72247  21689828.5274   21689833.1884
     -2260.0504      -1761.0784
 00  1  6  0  2  0.0000000  0  8G 8G26G 9G 5G 2G 4G24G 7
  20722791.8464  -17977776.33449 -13996476.42847  20722789.9334   20722794.7564
     -2472.1014      -1926.3124
  24386787.4024   -1005474.93748   -549268.38646  24386785.7724   24386793.9304
     -2946.6944      -2296.1224
  21650587.2044  -15383463.60549 -11758796.70547  21650585.7084   21650591.4754
      1350.9314       1052.6734
  24080162.1074   -5698322.81847  -4093238.91545  24080160.4264   24080168.0024
      2339.0714       1822.6424
  22590193.1504   -8715517.80748  -6777250.67046  22590191.1484   22590196.8274
     -1985.6044      -1547.2234
  21247739.4544  -15502040.14548 -11847271.27747  21247738.0064   21247743.2414
      1566.3614       1220.5404
  23292724.7854   -8581229.43247  -6421115.94145  23292723.3584   23292730.9724
      3111.3894       2424.4594
  21702744.1444  -11521701.20549  -8959877.12047  21702742.2194   21702747.1284
     -2265.0334      -1764.9614
 00  1  6  0  2 30.0000000  0  8G 8G26G 9G 5G 2G 4G24G 7
  20736962.7154  -17903307.72249 -13938448.94047  20736960.7734   20736965.5854
     -2490.8944      -1940.9564
  24403627.4774    -916974.21847   -480306.85746  24403626.6304   24403634.3634
     -2951.9654      -2300.2304
  21642931.6574  -15423692.43649 -11790143.79847  21642930.2534   21642935.8454
      1332.6404       1038.4204
  24066821.2044   -5768431.40147  -4147868.79045  24066818.8934   24066827.7554
      2336.3874       1820.5544
  22601560.0554   -8655780.46748  -6730702.10246  22601558.5144   22601564.7984
     -1995.3684      -1554.8314
  21238856.0374  -15548722.11648 -11883646.77447  21238854.7124   21238859.6744
      1547.3404       1205.7194
  23274989.2444   -8674428.41147  -6493738.37346  23274987.7624   23274995.5944
      3103.3394       2418.1834
  21715699.4224  -11453620.94149  -8906827.56047  21715697.4124   21715702.5834
     -2272.2944      -1770.6174
 00  1  6  0  3  0.0000000  0  8G 8G26G 9G 5G 2G 4G24G 7
  20751222.6924  -17828372.05149 -13880057.51047  20751220.6514   20751225.6284
     -2502.1034      -1949.6924
  24420481.3464    -828409.17647   -411295.21945  24420479.4854   24420487.2404
     -2949.6214      -2298.4054
  21635364.0684  -15463461.29649 -11821132.47847  21635362.5784   21635368.2754
      1321.4344       1029.6884
  24053476.2144   -5838557.57947  -4202512.41145  24053474.0684   24053483.0064
      2341.6344       1824.6434
  22612967.2004   -8595837.01048  -6683992.92646  22612965.3784   22612971.5084
     -1998.0924      -1556.9524
  21230060.1134  -15594943.32948 -11919663.24647  21230059.0834   21230063.9644
      1536.6434       1197.3814
  23257283.2554   -8767472.58147  -6566240.20145  23257281.4464   23257289.3444
      3102.4384       2417.4824
  21728677.4674  -11385418.86949  -8853683.09447  21728675.5884   21728680.8834
     -2271.9214      -1770.3284
 00  1  6  0  3 30.0000000  0  8G 8G26G 9G 5G 2G 4G24G 7
  20765551.6704  -17753071.26049 -13821381.57247  20765549.9004   20765554.7534
     -2519.0524      -1962.8974
  24437325.3874    -739894.79647   -342323.01845  24437323.9024   24437330.2734
     -2952.3724      -2300.5454
  21627863.8014  -15502875.67649 -11851844.93647  21627862.3844   21627867.5884
      1305.2484       1017.0754
  24040105.9414   -5908821.29247  -4257263.19345  24040103.3814   24040112.1824
      2341.6894       1824.6864
  22624396.5144   -8535777.61148  -6637193.40546  22624394.5634   22624400.7544
     -2006.9734      -1563.8744
  21221332.5204  -15640807.50048 -11955401.49947  21221331.2664   21221336.2784
      1519.6834       1184.1674
  23239587.9934   -8860461.53847  -6638699.02445  23239586.3324   23239593.6084
      3095.9474       2412.4194
  21741658.9704  -11317200.37349  -8800525.82547  21741657.0984   21741661.9974
     -2277.3874      -1774.5884
 00  1  6  0  4  0.0000000  0  8G 8G26G 9G 5G 2G 4G24G 7
  20779991.2504  -17677193.18649 -13762255.80447  20779989.2624   20779993.8814
     -2538.0534      -1977.7044
  24454198.4854    -651231.18147   -273234.52245  24454196.6474   24454202.9294
     -2957.1654      -2304.2824
  21620468.6314  -15541738.54449 -11882127.64947  21620467.1054   21620472.3364
      1287.0694       1002.9094
  24026745.2114   -5979030.99147  -4311971.92445  24026743.4674   24026750.9034
      2340.3874       1823.6774
  22635891.0464   -8475371.99148  -6590124.10446  22635889.4064   22635895.7514
     -2018.4774      -1572.8394
  21212716.6324  -15686083.59748 -11990681.51847  21212715.4254   21212720.2644
      1500.1044       1168.9124
  23221943.3424   -8953186.64547  -6710952.26945  23221941.9324   23221948.9804
      3087.3224       2405.7014
  21754685.6764  -11248745.48449  -8747184.35447  21754683.7594   21754688.5904
     -2285.0794      -1780.5824
 00  1  6  0  4 30.0000000  0  8G 8G26G 9G 5G 2G 4G24G 7
  20794527.9814  -17600801.01249 -13702729.43747  20794526.0964   20794530.8204
     -2552.2624      -1988.7754
  24471086.0574    -562482.89648   -204080.06846  24471084.7894   24471092.4484
     -2956.9304      -2304.0984
  21613167.7294  -15580105.70149 -11912024.09147  21613166.1704   21613171.1814
      1273.3044        992.1834
  24013382.8244   -6049248.42947  -4366686.65945  24013380.5584   24013388.2474
      2343.3264       1825.9614
  22647440.6864   -8414682.44248  -6542833.55446  22647438.3344   22647444.1544
     -2024.7694      -1577.7434
  21204201.7804  -15730827.95548 -12025547.19247  21204200.7504   21204205.7864
      1485.2964       1157.3734
  23204334.9214   -9045715.89947  -6783052.90845  23204333.5874   23204341.5234
      3083.9014       2403.0384
  21767749.1924  -11180096.80649  -8693691.87647  21767747.3094   21767751.7314
     -2289.2154      -1783.8044
 00  1  6  0  5  0.0000000  0  8G 8G26G 9G 5G 2G 4G24G 7
  20809146.5534  -17523979.47949 -13642868.51147  20809144.7494   20809149.3004
     -2568.8674      -2001.7144
  24487972.7794    -473740.10947   -134929.92946  24487971.6934   24487979.6564
     -2958.8944      -2305.6294
  21605945.7464  -15618057.69449 -11941597.03147  21605944.0954   21605949.0224
      1257.4214        979.8074
  24000004.0924   -6119551.36447  -4421468.02745  24000002.0354   24000009.2014
      2344.0494       1826.5274
  22659023.5484   -8353811.47848  -6495401.64346  22659021.6794   22659027.5744
     -2032.6744      -1583.9024
  21195773.6614  -15775118.21348 -12060059.02547  21195772.6494   21195777.5594
      1467.6764       1143.6434
  23186746.1814   -9138146.08147  -6855076.33646  23186744.9314   23186752.7114
      3078.5774       2398.8894
  21780837.6174  -11111317.55849  -8640097.65247  21780835.6674   21780839.8844
     -2295.8474      -1788.9724
 00  1  6  0  5 30.0000000  0  8G 8G26G 9G 5G 2G 4G24G 7
  20823856.8964  -17446675.50249 -13582631.65047  20823854.9554   20823859.6754
     -2584.3084      -2013.7464
  24504866.1984    -384960.43247    -65751.07145  24504865.3914   24504873.7814
     -2959.4944      -2306.0924
  21598807.9394  -15655564.52049 -11970823.08847  21598806.6484   21598811.5344
      1243.3594        968.8504
  23986618.5044   -6189893.88047  -4476280.25445  23986617.0554   23986623.9714
      2345.7244       1827.8324
  22670646.3204   -8292731.92048  -6447807.19046  22670644.4444   22670650.5424
     -2038.7534      -1588.6394
  21187443.8974  -15818894.04748 -12094170.01347  21187442.6554   21187447.2864
      1451.1024       1130.7274
  23169183.8184   -9230435.79047  -6926990.31046  23169182.7504   23169189.9344
      3074.3994       2395.6304
  21793961.8254  -11042348.13249  -8586355.24247  21793959.8244   21793964.8484
     -2301.8364      -1793.6394
 00  1  6  0  6  0.0000000  0  8G 8G26G 9G 5G 2G 4G24G 7
  20838667.5954  -17368845.13649 -13521984.61347  20838665.8784   20838670.4944
     -2601.0834      -2026.8184
  24521779.0824    -296088.11747      3499.99345  24521777.5654   24521785.1274
     -2962.2874      -2308.2684
  21591765.9514  -15692571.56649 -11999659.70447  21591764.5254   21591769.0604
      1227.0484        956.1414
  23973237.8194   -6260211.45947  -4531073.00445  23973235.6594   23973243.1834
      2345.1824       1827.4064
  22682314.9054   -8231414.27148  -6400027.21346  22682313.0474   22682318.6844
     -2045.7434      -1594.0834
  21179218.8664  -15862115.61548 -12127849.10047  21179217.7204   21179222.7234
      1433.5064       1117.0174
  23151660.1404   -9322524.82047  -6998747.92045  23151658.5514   23151666.0984
      3068.0264       2390.6644
  21807131.0104  -10973142.86549  -8532429.06547  21807129.2844   21807134.4964
     -2308.5494      -1798.8704
 00  1  6  0  6 30.0000000  0  8G 8G26G 9G 5G 2G 4G24G 7
  20853568.6874  -17290538.98649 -13460966.83747  20853566.9134   20853571.7034
     -2618.7614      -2040.5934
  24538701.9394    -207158.30447     72795.89145  24538700.3864   24538707.1414
     -2966.1124      -2311.2564
  21584811.6814  -15729117.32949 -12028136.88047  21584810.1294   21584814.6534
      1209.8584        942.7474
  23959857.9454   -6330519.65047  -4585858.46845  23959856.4264   23959864.2104
      2342.6044       1825.4054
  22694017.7464   -8169916.43048  -6352106.82746  22694015.7344   22694021.4984
     -2053.6484      -1600.2444
  21171089.9324  -15904832.98748 -12161135.31847  21171088.8874   21171093.6094
      1414.7634       1102.4114
  23134166.9054   -9414454.15647  -7070381.10846  23134165.6014   23134171.7914
      3061.1774       2385.3314
  21820331.7904  -10903772.46149  -8478374.21447  21820329.9454   21820335.3494
     -2315.7114      -1804.4504
 00  1  6  0  7  0.0000000  0  8G 8G26G 9G 5G 2G 4G24G 7
  20868559.3914  -17211762.83049 -13399582.82247  20868557.5534   20868562.5284
     -2633.4954      -2052.0734
  24555637.6814    -118161.60347    142143.92545  24555635.9904   24555643.0194
     -2967.5444      -2312.3764
  21577944.6414  -15765201.98549 -12056254.75247  21577943.3954   21577948.0034
      1195.4044        931.4834
  23946481.0324   -6400811.11147  -4640630.89045  23946479.5514   23946488.0524
      2342.9704       1825.6894
  22705756.2164   -8108227.68148  -6304037.68746  22705754.5724   22705760.6924
     -2059.4634      -1604.7774
  21163058.1664  -15947040.27648 -12194024.06847  21163056.9074   21163061.7914
      1398.4114       1089.6704
  23116701.2994   -9506232.76447  -7141896.84645  23116699.7604   23116706.8664
      3056.8984       2381.9944
  21833561.4584  -10834249.65349  -8424200.60947  21833559.6334   21833565.0724
     -2319.7794      -1807.6194
 00  1  6  0  7 30.0000000  0  8G 8G26G 9G 5G 2G 4G24G 7
  20883642.3744  -17132499.33949 -13337819.06847  20883640.7514   20883645.8364
     -2648.7274      -2063.9434
  24572589.3614     -29078.97747    211558.93345  24572588.3794   24572594.6864
     -2969.3794      -2313.8024
  21571169.8074  -15800803.68749 -12083996.29347  21571168.3864   21571173.2724
      1179.9214        919.4174
  23933112.6754   -6471061.35047  -4695371.20645  23933110.7814   23933118.6984
      2342.3694       1825.2174
  22717539.2964   -8046308.97448  -6255789.36046  22717537.5174   22717543.4264
     -2066.5854      -1610.3264
  21155128.5954  -15988707.74348 -12226492.17747  21155127.5794   21155132.4104
      1381.3074       1076.3404
  23099269.6354   -9597837.05447  -7213276.73046  23099267.8374   23099276.0864
      3051.9524       2378.1414
  21846823.4114  -10764560.43849  -8369897.33547  21846821.3924   21846826.0884
     -2324.1594      -1811.0334
 00  1  6  0  8  0.0000000  0  8G 8G26G 9G 5G 2G 4G24G 7
  20898818.6234  -17052748.17949 -13275675.31147  20898816.7524   20898822.0444
     -2665.4294      -2076.9574
  24589557.0964      60094.69147    281044.82945  24589556.3914   24589565.2254
     -2972.7734      -2316.4434
  21564491.7214  -15835896.25649 -12111341.10747  21564490.1334   21564495.2244
      1162.4144        905.7774
  23919756.4864   -6541251.37047  -4750064.58645  23919754.8974   23919762.6524
      2339.9364       1823.3204
  22729372.8834   -7984122.32948  -6207332.24746  22729371.2204   22729377.1754
     -2076.4234      -1617.9894
  21147305.5664  -16029817.84648 -12258525.97647  21147304.4804   21147309.3794
      1361.9604       1061.2664
  23081873.4264   -9689256.09148  -7284512.23646  23081871.9114   23081879.6424
      3045.5414       2373.1464
  21860113.5304  -10694718.43749  -8315474.99747  21860111.7054   21860116.2494
     -2329.5374      -1815.2234
 00  1  6  0  8 30.0000000  0  8G 8G26G 9G 5G 2G 4G24G 7
  20914070.3184  -16972600.41949 -13213222.51747  20914068.5714   20914073.7374
     -2678.2184      -2086.9234
  24606524.5744     149254.70547    350520.04945  24606523.2154   24606531.9274
     -2971.8084      -2315.6874
  21557891.5974  -15870577.79749 -12138365.64247  21557890.3264   21557895.3634
      1149.1444        895.4374
  23906391.6144   -6611481.79047  -4804789.43745  23906390.2644   23906397.4014
      2341.8534       1824.8194
  22741244.0864   -7921739.19648  -6158722.02446  22741242.3774   22741248.1774
     -2082.7604      -1622.9314
  21139574.1334  -16070447.37248 -12290185.30547  21139573.1574   21139577.8024
      1346.3024       1049.0654
  23064491.4914   -9780596.97948  -7355686.86446  23064489.8794   23064497.3794
      3043.2114       2371.3284
  21873416.6384  -10624808.59549  -8260999.79647  21873415.0304   21873419.8024
     -2331.9184      -1817.0794
 00  1  6  0  9  0.0000000  0  8G 8G26G 9G 5G 2G 4G24G 7
  20929411.7264  -16891979.90849 -13150401.35247  20929409.9734   20929414.9194
     -2695.8974      -2100.6984
  24623502.3434     238471.82047    420039.77946  24623501.2854   24623509.8874
     -2975.2074      -2318.3394
  21551386.2664  -15904762.97049 -12165003.39847  21551384.9854   21551390.4154
      1130.6304        881.0084
  23893031.2394   -6681693.87847  -4859500.03445  23893029.7844   23893036.2274
      2339.7254       1823.1624
  22753168.2024   -7859076.97048  -6109894.32846  22753166.2704   22753172.6784
     -2093.7514      -1631.4954
  21131948.0734  -16110523.47048 -12321413.39347  21131947.0864   21131951.6144
      1326.1014       1033.3234
  23047143.3754   -9871757.94547  -7426721.30045  23047141.9744   23047149.2894
      3034.7334       2364.7234
  21886751.9714  -10554730.75649  -8206393.68947  21886750.1824   21886755.2124
     -2339.3344      -1822.8584
 00  1  6  0  9 30.0000000  0  8G 8G26G 9G 5G 2G 4G24G 7
  20944857.3044  -16810813.66749 -13087154.94047  20944855.6274   20944860.3354
     -2713.6254      -2114.5144
  24640499.6604     327791.56747    489639.50545  24640498.6104   24640505.2644
     -2978.1794      -2320.6554
  21544989.2104  -15938378.44049 -12191197.22547  21544988.0764   21544993.8944
      1111.9404        866.4464
  23879685.3244   -6751828.56547  -4914150.32845  23879683.5874   23879690.1844
      2337.4774       1821.4074
  22765155.0934   -7796083.48648  -6060808.51846  22765153.5354   22765159.9754
     -2104.0974      -1639.5534
  21124437.7704  -16149988.64348 -12352165.43447  21124436.8014   21124441.4614
      1306.5314       1018.0744
  23029847.7014   -9962648.44447  -7497544.96946  23029846.5314   23029853.7154
      3026.1174       2358.0114
  21900132.3194  -10484416.57549  -8151603.42347  21900130.5914   21900135.8434
     -2346.8584      -1828.7204
 00  1  6  0 10  0.0000000  0  8G 8G26G 9G 5G 2G 4G24G 7
  20960399.8954  -16729137.60949 -13023511.26547  20960397.9684   20960402.4054
     -2730.3204      -2127.5224
  24657510.1264     417180.63847    559293.26945  24657509.2184   24657515.5124
     -2980.0204      -2322.0924
  21538695.5554  -15971452.58849 -12216969.24247  21538694.3994   21538699.7644
      1094.2044        852.6264
  23866348.4374   -6821914.83847  -4968762.88845  23866346.9434   23866353.8854
      2336.2024       1820.4144
  22777194.9234   -7732815.49748  -6011508.80746  22777193.0164   22777199.3424
     -2112.2514      -1645.9074
  21117034.1884  -16188897.26848 -12382483.80047  21117032.9514   21117037.5574
      1288.5774       1004.0834
  23012597.3894  -10053302.10848  -7568184.08746  23012596.0054   23012603.4364
      3018.6654       2352.2034
  21913552.4344  -10413893.49549  -8096650.37947  21913550.8424   21913556.0764
     -2353.6954      -1834.0484
 00  1  6  0 10 30.0000000  0  8G 8G26G 9G 5G 2G 4G24G 7
  20976031.6444  -16646991.12749 -12959501.03047  20976029.8434   20976034.3364
     -2746.1794      -2139.8794
  24674523.7704     506591.92547    628964.35845  24674522.6424   24674529.6674
     -2980.8654      -2322.7474
  21532498.9514  -16004017.89249 -12242344.76347  21532497.5494   21532502.9204
      1076.8184        839.0784
  23853012.6814   -6891994.82747  -5023370.54746  23853010.7494   23853018.0354
      2335.7434       1820.0574
  22789272.3764   -7669349.67748  -5962054.94046  22789270.6354   22789276.6904
     -2118.7474      -1650.9724
  21109724.9964  -16227304.44848 -12412411.43247  21109724.0514   21109728.8394
      1271.7494        990.9734
  22995384.3394  -10143753.11248  -7638665.27246  22995383.0014   22995390.8024
      3011.2244       2346.4044
  21927006.2744  -10343195.14549  -8041560.76447  21927004.3274   21927009.7714
     -2359.6424      -1838.6814
 00  1  6  0 11  0.0000000  0  8G 8G26G 9G 5G 2G 4G24G 7
  20991756.5834  -16564355.62749 -12895109.73547  20991754.8444   20991759.2534
     -2762.9624      -2152.9584
  24691546.9904     596050.46647    698672.20645  24691545.7554   24691553.9824
     -2982.9544      -2324.3814
  21526405.7304  -16036038.18849 -12267295.60447  21526404.3934   21526409.4744
      1058.0354        824.4434
  23839681.5944   -6962042.82247  -5077953.22745  23839679.7954   23839688.2874
      2334.1224       1818.7884
  22801389.3984   -7605674.27048  -5912437.75446  22801387.3444   22801393.5304
     -2126.2254      -1656.8004
  21102516.7104  -16265184.19048 -12441928.06847  21102515.5954   21102520.3854
      1253.3344        976.6234
  22978218.0834  -10233963.30948  -7708958.82146  22978216.3124   22978224.1054
      3002.8994       2339.9154
  21940495.9824  -10272306.97549  -7986323.23447  21940494.2524   21940499.1134
     -2366.3394      -1843.9004
 00  1  6  0 11 30.0000000  0  8G 8G26G 9G 5G 2G 4G24G 7
  21007578.4414  -16481209.89049 -12830320.85847  21007576.7964   21007581.8064
     -2780.4114      -2166.5544
  24708585.1494     685583.71047    768438.28345  24708584.6224   24708592.2254
     -2986.3764      -2327.0414
  21520420.4974  -16067492.18649 -12291805.18147  21520419.1204   21520424.0664
      1038.6594        809.3434
  23826365.0074   -7032021.62247  -5132481.98745  23826363.7464   23826371.6334
      2330.9374       1816.3034
  22813551.2454   -7541761.05848  -5862635.27346  22813549.6804   22813556.0794
     -2135.0524      -1663.6754
  21095417.2254  -16302490.52048 -12470997.89447  21095416.5394   21095421.1924
      1233.3664        961.0624
  22961099.6254  -10323919.93648  -7779054.80446  22961097.8664   22961105.2234
      2993.8804       2332.8914
  21954024.8804  -10201210.49849  -7930923.38347  21954023.1824   21954027.8354
     -2373.8244      -1849.7334
 00  1  6  0 12  0.0000000  0  8G 8G26G 9G 5G 2G 4G24G 7
  21023493.6604  -16397576.41049 -12765151.92447  21023491.9914   21023496.9214
     -2794.4804      -2177.5174
  24725637.6954     775189.80247    838261.12845  24725636.3264   24725644.4444
     -2986.6234      -2327.2374
  21514538.9334  -16098399.26149 -12315888.58247  21514537.6554   21514542.3564
      1022.5734        796.8094
  23813059.2654   -7101944.05247  -5186966.82345  23813057.8354   23813064.7654
      2331.3724       1816.6444
  22825760.2644   -7477602.40448  -5812641.53746  22825758.3914   22825764.5374
     -2141.6094      -1668.7864
  21088428.3374  -16339217.17148 -12499616.01647  21088427.5094   21088432.2084
      1215.5194        947.1564
  22944027.0934  -10413636.42948  -7848963.66946  22944026.0424   22944033.1034
      2987.8504       2328.1904
  21967589.7844  -10129926.14149  -7875377.13047  21967588.2304   21967592.9394
     -2377.9004      -1852.9104
 00  1  6  0 12 30.0000000  0  8G 8G26G 9G 5G 2G 4G24G 7
  21039494.4874  -16313489.13849 -12699629.38947  21039493.0164   21039498.3394
     -2809.8004      -2189.4544
  24742696.0904     864835.71247    908114.99845  24742695.0354   24742703.4944
     -2988.3484      -2328.5794
  21508756.3014  -16128788.71249 -12339568.64347  21508754.9794   21508759.7274
      1005.2184        783.2864
  23799756.4714   -7171852.81947  -5241441.03145  23799754.7264   23799761.4084
      2330.8144       1816.2174
  22838016.7374   -7413195.10948  -5762454.05046  22838014.6914   22838020.9824
     -2150.6784      -1675.8544
  21081550.4024  -16375363.85148 -12527782.22147  21081549.2484   21081553.9384
      1195.6604        931.6814
  22926997.9584  -10503125.52848  -7918695.32846  22926996.8844   22927004.3654
      2979.8094       2321.9264
  21981184.3064  -10058485.84749  -7819709.37047  21981182.5394   21981187.2724
     -2383.4544      -1857.2374
 00  1  6  0 13  0.0000000  0  8G 8G26G 9G 5G 2G 4G24G 7
  21055581.8444  -16228951.65349 -12633756.03947  21055580.2464   21055585.3854
     -2825.2354      -2201.4804
  24759763.9694     954532.01047    978008.11745  24759763.1094   24759771.7984
     -2990.4154      -2330.1894
  21503069.7104  -16158672.92949 -12362855.01547  21503068.1654   21503072.6044
       988.0864        769.9384
  23786454.9794   -7241749.42347  -5295905.72445  23786454.0824   23786459.9564
      2329.7934       1815.4114
  22850323.3894   -7348521.31848  -5712058.90746  22850321.5754   22850328.0104
     -2159.9074      -1683.0424
  21074785.1204  -16410913.26348 -12555483.01847  21074784.2614   21074789.1764
      1175.2634        915.7894
  22910011.5294  -10592388.23248  -7988250.57246  22910010.5094   22910018.3014
      2971.9024       2315.7614
  21994810.1534   -9986881.91949  -7763914.09547  21994808.4174   21994813.0034
     -2389.3394      -1861.8224
 00  1  6  0 13 30.0000000  0  8G 8G26G 9G 5G 2G 4G24G 7
  21071736.6524  -16144057.62549 -12567604.86547  21071735.0904   21071740.1664
     -2836.9784      -2210.6324
  24776820.5944    1044166.93647   1047853.41145  24776820.4744   24776828.3324
     -2987.8684      -2328.2104
  21497457.6094  -16188161.51749 -12385833.11147  21497456.3844   21497460.9864
       975.2104        759.9024
  23773139.9944   -7311719.33047  -5350427.53445  23773138.3624   23773145.1864
      2332.4644       1817.4994
  22862661.3204   -7283686.89848  -5661538.60146  22862659.8354   22862665.8204
     -2164.8594      -1686.9014
  21068113.6554  -16445972.03648 -12582801.49747  21068112.5784   21068117.7034
      1159.4924        903.4994
  22893049.0084  -10681527.72648  -8057709.81146  22893047.9454   22893054.6824
      2968.3094       2312.9594
  22008446.9894   -9915220.04549  -7708073.67247  22008445.3564   22008450.4674
     -2390.8414      -1862.9934
 00  1  6  0 14  0.0000000  0  8G 8G26G 9G 5G 2G 4G24G 7
  21087978.1014  -16058709.58049 -12501099.91147  21087976.2574   21087981.1544
     -2853.3404      -2223.3824
  24793880.0034    1133811.54147   1117706.25645  24793879.8204   24793886.0504
     -2989.1684      -2329.2204
  21491940.4744  -16217155.14649 -12408425.52147  21491939.1664   21491943.5644
       957.1924        745.8634
  23759826.7854   -7381676.87847  -5404939.70645  23759824.7034   23759832.5634
      2330.8034       1816.2024
  22875043.7224   -7218615.53148  -5610833.65446  22875042.2564   22875048.5344
     -2173.6654      -1693.7614
  21061549.0584  -16480466.76448 -12609680.45447  21061548.1534   21061553.7664
      1139.6374        888.0274
  22876122.8744  -10770474.17048  -8127018.64846  22876121.7034   22876128.2854
      2960.9564       2307.2324
  22022111.6614   -9843414.11149  -7652120.99647  22022109.8984   22022114.8994
     -2396.8914      -1867.7064
 00  1  6  0 14 30.0000000  0  8G 8G26G 9G 5G 2G 4G24G 7
  21104316.8884  -15972849.48249 -12434195.94947  21104315.0784   21104319.8084
     -2870.3534      -2236.6394
  24810951.6804    1223517.89247   1187607.25745  24810951.0054   24810957.4994
     -2990.9154      -2330.5854
  21486529.0724  -16245589.65249 -12430582.25047  21486527.8164   21486532.4874
       938.9424        731.6424
  23746530.3814   -7451550.91647  -5459386.78845  23746528.8024   23746536.9804
      2327.9754       1813.9984
  22887478.3944   -7153272.52148  -5559917.03846  22887476.5384   22887482.9504
     -2181.9584      -1700.2264
  21055101.1814  -16514350.16448 -12636083.05147  21055100.3574   21055106.0464
      1119.6674        872.4654
  22859242.5424  -10859178.00748  -8196138.43846  22859241.6074   22859248.4164
      2953.0854       2301.1044
  22035813.4384   -9771407.87549  -7596012.23947  22035811.9884   22035817.2044
     -2403.3004      -1872.7014
 00  1  6  0 15  0.0000000  0  8G 8G26G 9G 5G 2G 4G24G 7
  21120741.4184  -15886533.99348 -12366937.13947  21120740.1674   21120745.2644
     -2884.7564      -2247.8624
  24828020.0254    1313214.83247   1257500.88245  24828018.8034   24828026.5194
     -2989.5334      -2329.5034
  21481211.8824  -16273529.72249 -12452353.70247  21481210.7864   21481215.8434
       923.1534        719.3384
  23733240.0194   -7521392.35847  -5513808.49746  23733238.5874   23733245.7004
      2327.6254       1813.7274
  22899947.0874   -7087747.12448  -5508858.31546  22899945.5004   22899952.4714
     -2187.2884      -1704.3794
  21048756.4694  -16547692.26548 -12662063.86047  21048755.6104   21048761.2804
      1102.5834        859.1524
  22842396.9244  -10947703.03848  -8265118.87846  22842395.9164   22842402.8924
      2947.6424       2296.8564
  22049540.7934   -9699271.10649  -7539801.77247  22049539.1134   22049544.1174
     -2406.6404      -1875.3044
 00  1  6  0 15 30.0000000  0  8G 8G26G 9G 5G 2G 4G24G 7
  21137261.7294  -15799720.30448 -12299290.12547  21137260.0884   21137265.6324
     -2901.4154      -2260.8434
  24845090.6494    1402925.66147   1327405.30945  24845090.4554   24845098.0634
     -2990.2184      -2330.0414
  21475997.6574  -16300931.41949 -12473705.64647  21475996.2774   21476001.1104
       904.8274        705.0594
  23719961.6354   -7591172.78548  -5568182.67146  23719960.1194   23719966.5934
      2325.8284       1812.3244
  22912462.0434   -7021982.03548  -5457612.83046  22912460.3494   22912467.1074
     -2195.9694      -1711.1444
  21042519.3104  -16580468.16648 -12687603.47847  21042518.5414   21042523.9304
      1083.6514        844.4014
  22825595.5284  -11035993.11648  -8333916.25046  22825594.8574   22825601.8054
      2939.5644       2290.5684
  22063298.2844   -9626972.80249  -7483465.43247  22063296.4754   22063301.7344
     -2412.1314      -1879.5824
 00  1  6  0 16  0.0000000  0  8G 8G26G 9G 5G 2G 4G24G 7
  21153877.6264  -15712404.79548 -12231252.08247  21153875.8664   21153881.3214
     -2917.9844      -2273.7524
  24862170.9164    1492684.93347   1397347.47545  24862170.7614   24862179.2154
     -2992.3364      -2331.6824
  21470890.0224  -16327768.12249 -12494617.33347  21470889.0284   21470894.3954
       886.0344        690.4144
  23706694.2864   -7660892.53247  -5622509.57945  23706692.6404   23706698.6294
      2323.6644       1810.6464
  22925030.7064   -6955933.40048  -5406146.39046  22925029.1654   22925035.5664
     -2205.8474      -1718.8414
  21036394.5234  -16612656.92848 -12712685.58447  21036393.5904   21036398.5714
      1063.7134        828.8654
  22808846.9974  -11124011.62748  -8402501.99646  22808846.1234   22808852.7114
      2929.6214       2282.8184
  22077089.2344   -9554499.18249  -7426992.48247  22077087.6614   22077092.6734
     -2418.0824      -1884.2204
 00  1  6  0 16 30.0000000  0  8G 8G26G 9G 5G 2G 4G24G 7
  21170572.1034  -15624672.68048 -12162889.41547  21170570.6584   21170575.7944
     -2933.5674      -2285.8964
  24879249.1114    1582431.00547   1467279.35045  24879248.5824   24879256.4834
     -2993.2604      -2332.4094
  21465873.9254  -16354129.20149 -12515158.39747  21465872.8734   21465877.9974
       868.7184        676.9224
  23693422.5154   -7730628.86547  -5676849.42845  23693421.1794   23693427.7424
      2322.9434       1810.0754
  22937642.5234   -6889658.19148  -5354503.40046  22937640.9774   22937647.5264
     -2215.1084      -1726.0594
  21030369.0254  -16644319.77048 -12737357.89147  21030368.5364   21030373.0764
      1044.5104        813.9024
  22792141.4114  -11211796.63348  -8470905.78946  22792140.4654   22792147.1484
      2920.1104       2275.4094
  22090899.2584   -9481927.68849  -7370443.26947  22090897.7394   22090902.6284
     -2422.8764      -1887.9554
 00  1  6  0 17  0.0000000  0  8G 8G26G 9G 5G 2G 4G24G 7
  21187362.2984  -15536440.79848 -12094137.31347  21187360.7324   21187365.7374
     -2946.5074      -2295.9784
  24896339.2654    1672236.14847   1537257.29145  24896338.6624   24896345.6234
     -2991.9064      -2331.3514
  21460963.9654  -16379932.32949 -12535264.70047  21460962.7694   21460967.8744
       853.4034        664.9884
  23680160.3554   -7800320.85847  -5731154.69845  23680159.2164   23680166.4364
      2325.1654       1811.8144
  22950315.4404   -6823064.03348  -5302611.88146  22950313.6474   22950319.9454
     -2222.7074      -1731.9784
  21024459.1794  -16675377.74448 -12761558.87247  21024458.3254   21024462.7814
      1027.9784        801.0224
  22775496.2294  -11299268.14948  -8539065.31246  22775495.4074   22775501.9984
      2913.2754       2270.0814
  22104742.5614   -9409181.68649  -7313758.07147  22104741.1404   22104745.6574
     -2425.0334      -1889.6354
 00  1  6  0 17 30.0000000  0  8G 8G26G 9G 5G 2G 4G24G 7
  21204216.0784  -15447873.58248 -12025123.90947  21204214.4914   21204219.4174
     -2959.3414      -2305.9804
  24913412.0824    1761953.58847   1607166.91445  24913411.7904   24913419.0974
     -2990.8834      -2330.5534
  21456133.0254  -16405320.77749 -12555047.86847  21456131.8564   21456136.7684
       837.6494        652.7124
  23666878.0534   -7870127.65148  -5785549.44746  23666876.2234   23666883.1644
      2326.8984       1813.1614
  22963023.2274   -6756283.10848  -5250574.81446  22963021.7034   22963027.4614
     -2230.4514      -1738.0164
  21018634.2104  -16705986.53948 -12785409.84347  21018633.3224   21018637.6814
      1010.9064        787.7184
  22758879.0784  -11386590.34248  -8607108.45146  22758877.7114   22758885.0024
      2906.9494       2265.1514
  22118589.3874   -9336418.22749  -7257059.26747  22118587.7364   22118592.6364
     -2427.4714      -1891.5354
 00  1  6  0 18  0.0000000  0  8G 8G26G 9G 5G 2G 4G24G 7
  21221141.6574  -15358929.20548 -11955816.61647  21221140.1514   21221144.8174
     -2971.5234      -2315.4724
  24930479.5844    1851642.18147   1677054.03445  24930478.4844   24930486.3204
     -2989.3294      -2329.3364
  21451391.2284  -16430241.14449 -12574466.30747  21451389.9724   21451394.3834
       822.6964        641.0614
  23653587.1554   -7939970.17848  -5839972.05946  23653585.9444   23653592.4984
      2328.1384       1814.1284
  22975770.7134   -6689291.79048  -5198373.82646  22975768.8264   22975775.6534
     -2236.4874      -1742.7154
  21012908.9854  -16736068.90548 -12808850.60847  21012908.3014   21012913.2044
       993.4594        774.1224
  22742296.1734  -11473733.59448  -8675012.15546  22742295.2844   22742302.5524
      2901.6174       2260.9974
  22132450.2364   -9263578.80649  -7200301.27647  22132448.6534   22132453.7734
     -2429.8594      -1893.3974
 00  1  6  0 18 30.0000000  0  8G 8G26G 9G 5G 2G 4G24G 7
  21238142.5214  -15269589.98248 -11886201.65247  21238140.7254   21238145.6564
     -2985.7384      -2326.5494
  24947539.2124    1941291.83247   1746910.81245  24947538.4674   24947547.2424
     -2988.4884      -2328.6964
  21446739.9694  -16454681.88649 -12593511.01347  21446739.0864   21446743.5694
       805.4154        627.5954
  23640293.7804   -8009824.61948  -5894403.94246  23640292.0004   23640299.5654
      2327.5904       1813.7004
  22988555.5964   -6622106.90848  -5146022.01546  22988554.0544   22988560.3454
     -2243.6014      -1748.2614
  21007287.1254  -16765611.97248 -12831871.14447  21007286.6384   21007291.5954
       974.8084        759.5904
  22725746.4034  -11560705.30448  -8742782.18346  22725744.9544   22725751.9384
      2895.2404       2256.0274
  22146329.5964   -9190640.78849  -7143466.46047  22146328.0474   22146333.6754
     -2434.0574      -1896.6684
 00  1  6  0 19  0.0000000  0  8G 8G26G 9G 5G 2G 4G24G 7
  21255223.4304  -15179826.76648 -11816256.30447  21255221.8334   21255227.0974
     -2999.3944      -2337.1894
  24964595.6614    2030922.13647   1816752.44745  24964594.0054   24964603.3444
     -2987.9814      -2328.2934
  21442189.1604  -16478598.59849 -12612147.37947  21442187.8804   21442192.5664
       788.0814        614.0884
  23627006.3654   -8079648.16647  -5948811.75846  23627004.9184   23627011.6784
      2326.3194       1812.7124
  23001381.7164   -6554705.16648  -5093501.21646  23001380.1714   23001386.5484
     -2250.8654      -1753.9194
  21001772.8684  -16794592.51148 -12854453.34347  21001771.8794   21001776.8434
       956.1044        745.0154
  22709233.8964  -11647480.84448  -8810399.34046  22709232.5434   22709238.4614
      2888.5504       2250.8144
  22160234.3524   -9117569.18549  -7086527.56447  22160232.8364   22160238.6484
     -2438.6034      -1900.2094
 00  1  6  0 19 30.0000000  0  8G 8G26G 9G 5G 2G 4G24G 7
  21272390.7954  -15089612.37448 -11745959.38547  21272389.2424   21272394.4114
     -3014.1934      -2348.7214
  24981656.2544    2120575.90247   1886612.37445  24981655.3974   24981663.8564
     -2988.1554      -2328.4344
  21437744.8164  -16501953.61149 -12630346.05647  21437743.5604   21437748.1744
       769.8884        599.9114
  23613736.7624   -8149379.15147  -6003147.44245  23613735.5914   23613741.4214
      2323.1864       1810.2704
  23014256.6304   -6487049.04048  -5040782.19246  23014255.0964   23014261.1994
     -2258.5144      -1759.8824
  20996374.4824  -16822960.34948 -12876558.11447  20996373.6884   20996378.8224
       935.8854        729.2594
  22692769.5524  -11733997.60848  -8877814.86746  22692768.7924   22692774.5114
      2879.9854       2244.1384
  22174176.2344   -9044305.89049  -7029439.29347  22174174.6474   22174179.7434
     -2444.9524      -1905.1584
 00  1  6  0 20  0.0000000  0  8G 8G26G 9G 5G 2G 4G24G 7
  21289629.8584  -14999020.78948 -11675368.55547  21289628.3274   21289633.6024
     -3026.1454      -2358.0354
  24998703.7354    2210161.82347   1956419.44645  24998703.5464   24998711.0194
     -2985.1124      -2326.0564
  21433390.5544  -16524834.57949 -12648175.35447  21433389.3954   21433394.3424
       754.7544        588.1194
  23600473.1264   -8219084.48547  -6057463.16846  23600471.2174   23600476.8534
      2323.4364       1810.4614
  23027161.6324   -6419231.91148  -4987937.71346  23027160.0344   23027166.2334
     -2263.6024      -1763.8454
  20991076.4044  -16850801.60948 -12898252.56647  20991075.6684   20991080.7644
       919.3904        716.4064
  22676344.0504  -11820312.66948  -8945073.21746  22676342.9554   22676349.4874
      2873.4404       2239.0424
  22188140.4444   -8970923.45048  -6972258.17747  22188138.9434   22188143.9574
     -2448.0864      -1907.5994
 00  1  6  0 20 30.0000000  0  8G 8G26G 9G 5G 2G 4G24G 7
  21306934.6214  -14908083.62948 -11604508.44647  21306933.1754   21306938.1254
     -3038.3914      -2367.5764
  25015732.4854    2299644.82247   2026146.35745  25015730.8354   25015739.0554
     -2982.4194      -2323.9674
  21429121.3154  -16547267.75649 -12665655.72447  21429120.1324   21429125.1334
       738.9444        575.8014
  23587201.2624   -8288828.04848  -6111808.68446  23587199.9614   23587205.5714
      2324.2034       1811.0664
  23040094.0884   -6351268.05648  -4934978.89946  23040092.8564   23040099.2714
     -2269.3624      -1768.3324
  20985867.9664  -16878172.67749 -12919580.63447  20985867.1404   20985872.3594
       903.1544        703.7554
  22659954.2214  -11906436.41948  -9012182.48946  22659953.4484   22659960.6794
      2866.0424       2233.2764
  22202119.4704   -8897466.26448  -6915018.81847  22202117.7184   22202122.3254
     -2451.1334      -1909.9754
 00  1  6  0 21  0.0000000  0  8G 8G26G 9G 5G 2G 4G24G 7
  21324331.6664  -14816662.37448 -11533271.11547  21324329.8864   21324335.1714
     -3054.8174      -2380.3764
  25032768.6084    2389172.46947   2095908.06645  25032768.4564   25032775.7904
     -2984.5734      -2325.6314
  21424964.2364  -16569112.75949 -12682677.77447  21424963.1414   21424968.1744
       718.8614        560.1504
  23573947.5354   -8358475.70448  -6166079.44446  23573945.8024   23573952.7524
      2320.6744       1808.3124
  23053085.0584   -6283002.74948  -4881785.19046  23053083.5904   23053090.1714
     -2280.1314      -1776.7234
  20980776.7154  -16904929.31149 -12940429.92347  20980775.8104   20980780.7384
       881.9624        687.2424
  22643631.3424  -11992215.82348  -9079023.43746  22643630.1064   22643637.6654
      2854.1094       2223.9764
  22216138.0174   -8823797.16748  -6857614.33347  22216136.4184   22216140.8994
     -2458.7224      -1915.8874
 00  1  6  0 21 30.0000000  0  8G 8G26G 9G 5G 2G 4G24G 7
  21341815.2704  -14724784.26848 -11461677.80247  21341813.9244   21341818.8284
     -3070.2104      -2392.3694
  25049806.5024    2478706.58247   2165674.76245  25049805.1964   25049814.4254
     -2984.1714      -2325.3204
  21420914.3094  -16590394.56049 -12699260.97047  21420913.3534   21420918.3374
       700.3114        545.6964
  23560702.9124   -8428072.19748  -6220310.33146  23560701.5934   23560709.1224
      2319.5024       1807.4004
  23066128.2194   -6214462.54548  -4828377.27146  23066126.5894   23066132.9784
     -2288.8454      -1783.5144
  20975798.0944  -16931091.59749 -12960816.08347  20975797.2374   20975802.2944
       862.5044        672.0784
  22627366.9574  -12077687.65748  -9145624.73746  22627365.7904   22627372.7664
      2844.6074       2216.5744
  22230189.7694   -8749954.73148  -6800074.77547  22230188.0904   22230192.8274
     -2463.7264      -1919.7874
 00  1  6  0 22  0.0000000  0  8G 8G26G 9G 5G 2G 4G24G 7
  21359383.2834  -14632465.65348 -11389741.23247  21359381.5404   21359386.4424
     -3085.1254      -2403.9924
  25066837.8074    2568207.55347   2235415.62645  25066836.4044   25066845.6314
     -2983.4104      -2324.7364
  21416966.5494  -16611142.16149 -12715427.90247  21416965.3594   21416970.1754
       682.1174        531.5204
  23547457.5294   -8497672.47648  -6274544.13646  23547455.8684   23547464.2564
      2319.8134       1807.6424
  23079216.9224   -6145679.30348  -4774779.97646  23079215.6484   23079222.5674
     -2297.4434      -1790.2144
  20970926.3404  -16956692.27549 -12980764.63047  20970925.4504   20970930.4164
       843.2024        657.0404
  22611149.6954  -12162908.71848  -9212030.63146  22611148.6754   22611155.4514
      2836.1244       2209.9644
  22244261.4314   -8676004.98148  -6742451.60247  22244259.8774   22244265.4544
     -2467.2224      -1922.5094
 00  1  6  0 22 30.0000000  0  8G 8G26G 9G 5G 2G 4G24G 7
  21377033.8854  -14539709.79048 -11317463.95147  21377032.4884   21377037.4004
     -3099.4074      -2415.1234
  25083861.7704    2657668.56147   2305125.36245  25083860.9314   25083870.2234
     -2981.5144      -2323.2494
  21413120.0984  -16631353.60449 -12731177.05947  21413119.0164   21413124.0284
       664.5684        517.8444
  23534211.0614   -8567288.10048  -6328789.91946  23534209.4874   23534216.1314
      2320.0614       1807.8344
  23092352.7904   -6076649.68948  -4720990.71346  23092351.1184   23092358.2034
     -2305.3594      -1796.3824
  20966165.4084  -16981711.40249 -13000260.02547  20966164.6504   20966169.2724
       823.6574        641.8104
  22594977.4684  -12247895.82748  -9278254.23046  22594976.2904   22594982.9354
      2828.7164       2204.1924
  22258351.6354   -8601959.30748  -6684753.69747  22258350.1884   22258355.7514
     -2470.2934      -1924.9044
 00  1  6  0 23  0.0000000  0  8G 8G26G 9G 5G 2G 4G24G 7
  21394769.8984  -14446507.43748 -11244838.75147  21394768.3954   21394773.5354
     -3114.7664      -2427.0904
  25100878.0624    2747091.31647   2374805.24445  25100877.5294   25100886.8404
     -2980.9054      -2322.7784
  21409376.9424  -16651022.89049 -12746503.75047  21409375.8164   21409380.8884
       645.9994        503.3754
  23520969.4164   -8636875.63248  -6383013.83946  23520968.0844   23520973.1344
      2318.3804       1806.5244
  23105538.8614   -6007358.32948  -4666997.47346  23105537.3234   23105543.3964
     -2314.7014      -1803.6614
  20961521.8234  -17006112.31949 -13019273.69447  20961521.0474   20961525.8264
       802.2594        625.1364
  22578851.4254  -12332637.42948  -9344286.53246  22578850.3694   22578856.4844
      2819.9234       2197.3394
  22272462.9954   -8527806.43448  -6626972.25047  22272461.3784   22272466.8154
     -2474.1354      -1927.8974
 00  1  6  0 23 30.0000000  0  8G 8G26G 9G 5G 2G 4G24G 7
  21412601.3274  -14352800.90048 -11171820.68647  21412599.8934   21412605.2394
     -3130.8454      -2439.6204
  25117900.3634    2836538.82547   2444504.43345  25117899.1804   25117907.7034
     -2980.9914      -2322.8434
  21405747.3014  -16670096.56849 -12761366.33347  21405746.2364   21405751.1824
       627.1414        488.6804
  23507745.2334   -8706368.38548  -6437163.91946  23507743.7954   23507748.8314
      2315.8264       1804.5394
  23118784.5204   -5937752.68848  -4612759.34346  23118782.7894   23118789.7394
     -2324.0624      -1810.9574
  20957008.0924  -17029832.38349 -13037756.82747  20957007.3014   20957011.9064
       780.5924        608.2534
  22562783.9954  -12417071.12648  -9410078.91346  22562782.7624   22562789.9104
      2810.3374       2189.8684
  22286602.9644   -8453499.21948  -6569070.53947  22286601.4724   22286606.9894
     -2478.3754      -1931.2004
 00  1  6  0 24  0.0010000  0  8G 8G26G 9G 5G 2G 4G24G 7
  21430505.8174  -14258713.31048 -11098505.69747  21430504.3564   21430509.6644
     -3142.4614      -2448.6704
  25134907.0424    2925911.23647   2514145.13645  25134906.5744   25134914.7514
     -2978.0134      -2320.5244
  21402207.1894  -16688700.95549 -12775863.23647  21402206.0384   21402210.7344
       611.9244        476.8244
  23494519.3624   -8775867.36448  -6491318.85146  23494518.1334   23494523.5294
      2316.1704       1804.8084
  23132066.4264   -5867958.48048  -4558374.26646  23132064.5694   23132070.4004
     -2329.8614      -1815.4744
  20952600.6364  -17052994.34049 -13055805.07447  20952599.6864   20952604.1794
       762.3334        594.0264
  22546755.3494  -12501301.14348  -9475712.58546  22546754.4784   22546761.7304
      2803.4604       2184.5144
  22300751.7714   -8379147.68948  -6511134.28747  22300750.2664   22300755.1404
     -2479.6694      -1932.2094
 00  1  6  0 24 30.0010000  0  8G 8G26G 9G 5G 2G 4G24G 7
  21448484.6334  -14164233.71948 -11024885.25147  21448483.2484   21448488.4524
     -3156.8934      -2459.9174
  25151907.3094    3015248.26647   2583758.27745  25151906.8494   25151913.9824
     -2978.6194      -2320.9964
  21398765.8404  -16706785.68149 -12789955.20947  21398764.6224   21398769.3394
       592.9334        462.0254
  23481304.2104   -8845312.40148  -6545431.72046  23481302.8904   23481310.0844
      2312.7504       1802.1384
  23145390.5354   -5797934.44248  -4503810.10046  23145388.9934   23145395.6534
     -2339.1264      -1822.6964
  20948308.0154  -17075551.65949 -13073382.17247  20948307.2404   20948311.7204
       740.7624        577.2174
  22530779.8874  -12585253.71148  -9541130.07246  22530778.5674   22530785.5514
      2792.4824       2175.9574
  22314920.2004   -8304691.44848  -6453116.43947  22314918.6184   22314923.5314
     -2484.8694      -1936.2614
 00  1  6  0 25  0.0010000  0  8G 8G26G 9G 5G 2G 4G24G 7
  21466548.5484  -14069307.24748 -10950916.58147  21466546.9674   21466552.1874
     -3171.1614      -2471.0354
  25168916.4544    3104625.46547   2653402.69545  25168914.0534   25168922.3394
     -2979.2884      -2321.5214
  21395436.5214  -16724280.18449 -12803587.26947  21395435.4214   21395440.1274
       573.7234        447.0564
  23468111.3614   -8914641.91348  -6599454.58146  23468109.8044   23468116.9204
      2309.8574       1799.8844
  23158771.2204   -5727622.90548  -4449021.91846  23158769.4484   23158775.7724
     -2347.7784      -1829.4344
  20944140.8644  -17097450.82249 -13090446.42747  20944139.9714   20944144.5314
       719.7144        560.8144
  22514870.9264  -12668854.73748  -9606273.64546  22514870.2024   22514876.3914
      2781.4464       2167.3584
  22329120.0764   -8230070.73648  -6394970.42747  22329118.5034   22329123.2124
     -2489.5444      -1939.9064
 00  1  6  0 25 30.0010000  0  8G 8G26G 9G 5G 2G 4G24G 7
  21484684.4874  -13974001.18348 -10876652.12947  21484683.0754   21484688.2104
     -3184.0524      -2481.0794
  25185916.8214    3193965.31747   2723018.00345  25185916.2054   25185923.7734
     -2978.0584      -2320.5614
  21392210.1474  -16741235.64949 -12816799.29947  21392208.9884   21392213.3794
       555.1734        432.6034
  23454923.3564   -8983941.42748  -6653454.09246  23454922.0634   23454929.2034
      2308.6254       1798.9274
  23172188.9564   -5657107.27648  -4394074.70446  23172187.6204   23172194.2464
     -2354.8264      -1834.9284
  20940082.8884  -17118775.16649 -13107062.77347  20940082.0984   20940086.6134
       700.4324        545.7914
  22499016.2054  -12752173.90648  -9671197.60146  22499014.8724   22499021.4864
      2771.6854       2159.7514
  22343338.5304   -8155352.04548  -6336748.06647  22343336.8994   22343342.2044
     -2493.3004      -1942.8314
 00  1  6  0 26  0.0010000  0  8G 8G26G 9G 5G 2G 4G24G 7
  21502892.0904  -13878318.41948 -10802094.14447  21502890.6724   21502896.2894
     -3194.4804      -2489.2044
  25202908.4634    3283255.40447   2792594.52645  25202907.6564   25202916.0524
     -2974.2584      -2317.5964
  21389090.4524  -16757630.74749 -12829574.68147  21389089.2994   21389093.9564
       538.2364        419.4044
  23441742.7594   -9053209.98748  -6707429.49446  23441741.0244   23441747.3314
      2309.7494       1799.8034
  23185649.8284   -5586374.92348  -4338958.60746  23185648.0114   23185654.2604
     -2360.3404      -1839.2254
  20936135.7024  -17139518.69049 -13123226.52647  20936134.9124   20936139.4074
       682.7824        532.0364
  22483216.2644  -12835200.66348  -9735893.70746  22483215.0504   22483221.8084
      2763.9314       2153.7114
  22357576.8704   -8080529.38048  -6278444.69847  22357575.2234   22357581.0024
     -2494.7814      -1943.9864
 00  1  6  0 26 30.0010000  0  8G 8G26G 9G 5G 2G 4G24G 7
  21521173.0014  -13782255.45348 -10727239.90147  21521171.2974   21521176.5004
     -3209.9244      -2501.2394
  25219888.6264    3372486.38247   2862124.98245  25219888.0954   25219896.9484
     -2974.7834      -2318.0054
  21386079.8494  -16773452.99149 -12841903.67847  21386078.5644   21386082.9094
       516.6944        402.6174
  23428565.5004   -9122454.10648  -6761385.86346  23428563.8064   23428570.5034
      2306.3434       1797.1494
  23199152.0614   -5515417.32148  -4283666.98646  23199150.5854   23199156.9374
     -2370.2224      -1846.9244
  20932299.9434  -17159674.24149 -13138932.11647  20932299.2074   20932303.7394
       660.7944        514.9034
  22467471.9204  -12917938.11248  -9800364.37546  22467470.5654   22467477.1804
      2751.8364       2144.2874
  22371834.9094   -8005603.23948  -6220060.70647  22371833.3814   22371839.2054
     -2500.4444      -1948.3984
 00  1  6  0 27  0.0010000  0  8G 8G26G 9G 5G 2G 4G24G 7
  21539530.6154  -13685785.07748 -10652068.19247  21539529.0864   21539534.2184
     -3222.9934      -2511.4234
  25236858.8954    3461663.27047   2931613.28545  25236857.2744   25236866.4214
     -2971.9204      -2315.7764
  21383179.3054  -16788694.22549 -12853779.94147  21383178.0344   21383182.7764
       498.0884        388.1184
  23415396.7124   -9191654.50148  -6815308.17146  23415395.4694   23415401.7374
      2305.4744       1796.4674
  23212699.9434   -5444224.39748  -4228191.99746  23212697.9284   23212704.8784
     -2377.4744      -1852.5804
  20928576.5744  -17179239.95349 -13154178.08747  20928575.7684   20928580.6794
       642.0004        500.2584
  22451783.0924  -13000380.70448  -9864605.29146  22451782.2194   22451788.6404
      2742.7064       2137.1714
  22386113.9244   -7930567.05348  -6161590.95347  22386112.1644   22386117.3264
     -2503.7194      -1950.9514
 00  1  6  0 27 30.0010000  0  8G 8G26G 9G 5G 2G 4G24G 7
  21557972.3884  -13588872.56948 -10576551.97047  21557970.7914   21557976.0664
     -3234.9524      -2520.7404
  25253821.6194    3550814.04947   3001081.19945  25253821.4554   25253830.9324
     -2968.7014      -2313.2594
  21380394.3984  -16803329.64549 -12865184.14047  21380393.1534   21380397.7244
       480.7144        374.5814
  23402245.4024   -9260769.43348  -6869163.90246  23402243.4824   23402249.5764
      2305.0614       1796.1504
  23226301.3704   -5372747.85348  -4172496.01146  23226299.8674   23226306.2924
     -2384.6254      -1858.1484
  20924970.8614  -17198189.93549 -13168944.27647  20924970.1214   20924974.5654
       624.1084        486.3164
  22436158.6624  -13082490.71748  -9928587.06346  22436157.3234   22436163.7924
      2734.1564       2130.5104
  22400422.7514   -7855373.26848  -6102998.39247  22400421.1394   22400426.3164
     -2506.4664      -1953.0884
 00  1  6  0 28  0.0010000  0  8G 8G26G 9G 5G 2G 4G24G 7
  21576484.4294  -13491590.66348 -10500747.90747  21576483.0104   21576488.0354
     -3249.7694      -2532.2854
  25270771.8394    3639885.29647   3070487.16245  25270771.1744   25270780.8024
     -2968.7294      -2313.2914
  21377708.8664  -16817440.55349 -12876179.62947  21377707.8904   21377712.6734
       461.0084        359.2264
  23389097.6174   -9329857.96448  -6922999.08746  23389096.3924   23389102.1824
      2301.8164       1793.6234
  23239946.7304   -5301041.40248  -4116620.87246  23239945.0734   23239951.3524
     -2394.8214      -1866.0914
  20921470.4354  -17216583.43149 -13183276.83847  20921469.6254   20921474.3054
       602.9494        469.8294
  22420584.9564  -13164330.98248  -9992358.63646  22420583.6634   22420590.1724
      2722.7394       2121.6134
  22414749.7624   -7780085.23848  -6044332.39247  22414748.1704   22414752.8474
     -2512.1684      -1957.5334
 00  1  6  0 28 30.0010000  0  8G 8G26G 9G 5G 2G 4G24G 7
  21595071.2824  -13393916.84148 -10424638.44547  21595069.6644   21595074.6654
     -3263.3694      -2542.8834
  25287713.8874    3728910.11047   3139856.97445  25287713.0264   25287722.7074
     -2967.9064      -2312.6484
  21375124.3534  -16831023.79549 -12886763.94747  21375123.2604   21375127.8344
       442.9604        345.1634
  23375959.5304   -9398898.16948  -6976796.58746  23375958.2644   23375964.9814
      2299.3654       1791.7104
  23253639.2704   -5229081.51448  -4060548.25246  23253638.0264   23253645.1934
     -2404.0274      -1873.2644
  20918079.7414  -17234400.36649 -13197160.12647  20918079.0664   20918083.9704
       583.0894        454.3544
  22405066.4134  -13245883.39248 -10055905.90746  22405064.8934   22405071.4144
      2712.4264       2113.5754
  22429100.3924   -7704672.12848  -5985568.92747  22429098.5984   22429103.5594
     -2516.9584      -1961.2664
 00  1  6  0 29  0.0010000  0  7G 8G 9G 5G 2G 4G24G 7
  21613732.9854  -13295847.32148 -10348220.65447  21613731.4384   21613736.9314
     -3274.0314      -2551.1924
  21372641.9274  -16844068.83349 -12896928.88547  21372640.6874   21372645.6794
       427.3524        333.0014
  23362833.6774   -9467878.03248  -7030547.08346  23362832.3804   23362838.0314
      2299.9404       1792.1604
  23267386.1594   -5156845.07748  -4004260.14546  23267384.6604   23267391.0164
     -2411.0154      -1878.7114
  20914802.6914  -17251621.00749 -13210578.77647  20914802.0794   20914806.8834
       565.4854        440.6374
  22389605.4494  -13327125.11048 -10119211.08246  22389604.6964   22389611.0324
      2704.3054       2107.2484
  22443477.2714   -7629120.83148  -5926697.78647  22443475.6984   22443480.5574
     -2519.3584      -1963.1384
 00  1  6  0 29 30.0010000  0  7G 8G 9G 5G 2G 4G24G 7
  21632448.4214  -13197498.82548 -10271585.48347  21632446.8494   21632451.8894
     -3285.4034      -2560.0554
  21370240.2894  -16856688.26549 -12906762.17847  21370239.2314   21370244.2984
       411.1364        320.3654
  23349695.5484   -9536918.61948  -7084344.90146  23349694.0784   23349700.2214
      2300.2724       1792.4204
  23281162.5804   -5084448.17348  -3947846.98946  23281161.0284   23281167.6364
     -2417.8674      -1884.0544
  20911620.0614  -17268347.43549 -13223612.32347  20911619.2534   20911623.7704
       546.9134        426.1634
  22374185.2004  -13408162.91048 -10182357.35546  22374184.0194   22374190.2774
      2695.6314       2100.4914
  22457859.4884   -7553541.84748  -5867805.06647  22457858.0254   22457862.9604
     -2522.0494      -1965.2354
 00  1  6  0 30  0.0010000  0  7G 8G 9G 5G 2G 4G24G 7
  21651250.8614  -13098691.00148 -10194592.38847  21651249.2684   21651254.5624
     -3300.4704      -2571.7934
  21367954.9004  -16868698.62849 -12916120.87147  21367953.7104   21367958.6054
       390.9134        304.6074
  23336576.4184   -9605860.86948  -7138066.08046  23336574.9874   23336580.7264
      2297.2514       1790.0634
  23294999.7634   -5011736.74448  -3891188.76246  23294997.9574   23295004.2634
     -2428.1294      -1892.0514
  20908565.4634  -17284399.19449 -13236120.15747  20908564.6024   20908569.1644
       524.5764        408.7594
  22358834.4554  -13488828.17448 -10245213.35346  22358833.4844   22358840.0434
      2683.3494       2090.9214
  22472277.9124   -7477771.89848  -5808763.55047  22472276.1984   22472281.5504
     -2528.0844      -1969.9354
 00  1  6  0 30 30.0010000  0  7G 8G 9G 5G 2G 4G24G 7
  21670129.8494  -12999479.76948 -10117284.95547  21670128.5444   21670133.7534
     -3312.5904      -2581.2394
  21365777.9814  -16880137.21049 -12925034.01947  21365776.7714   21365781.9074
       372.5564        290.3024
  23323465.9394   -9674756.74648  -7191751.13446  23323464.4634   23323469.6514
      2296.7804       1789.6984
  23308886.0874   -4938764.64848  -3834327.39246  23308884.0644   23308890.3864
     -2435.6684      -1897.9224
  20905628.8874  -17299828.86149 -13248143.24347  20905628.2884   20905633.0134
       505.1504        393.6224
  22343545.6034  -13569171.53148 -10307818.50346  22343544.4684   22343551.0034
      2673.6924       2083.3934
  22486722.2514   -7401863.48248  -5749614.15147  22486720.8414   22486726.8384
     -2531.4054      -1972.5224
 00  1  6  0 31  0.0010000  0  7G 8G 9G 5G 2G 4G24G 7
  21689073.2044  -12899934.36748 -10039717.12847  21689071.5724   21689076.1774
     -3323.9934      -2590.1224
  21363702.2414  -16891044.36549 -12933533.07147  21363701.1994   21363706.2594
       354.6264        276.3314
  23310351.0674   -9743674.06348  -7245452.86746  23310349.5994   23310355.1514
      2297.3344       1790.1304
  23322808.4394   -4865601.45448  -3777317.12246  23322807.0614   23322812.9004
     -2441.9134      -1902.7914
  20902796.5124  -17314713.56749 -13259741.68347  20902795.7444   20902800.5064
       487.0514        379.5184
  22328306.3484  -13649253.59748 -10370220.05046  22328305.2914   22328311.7214
      2664.8674       2076.5184
  22501179.6274   -7325894.23948  -5690417.35347  22501177.7764   22501182.9684
     -2533.6084      -1974.2404
 00  1  6  0 31 30.0010000  0  7G 8G 9G 5G 2G 4G24G 7
  21708088.7004  -12800007.44248  -9961852.00547  21708086.9384   21708091.8334
     -3337.8384      -2600.9104
  21361734.0944  -16901383.63349 -12941589.60947  21361733.3354   21361738.6444
       334.4454        260.6054
  23297241.9384   -9812561.78548  -7299131.52546  23297240.5944   23297246.6814
      2295.0074       1788.3144
  23336771.6414   -4792223.41848  -3720139.44546  23336770.2134   23336776.5384
     -2450.1744      -1909.2274
  20900074.6934  -17329018.32749 -13270888.22147  20900073.8194   20900078.4684
       466.3114        363.3594
  22313124.1454  -13729038.46248 -10432390.00346  22313122.9464   22313129.3694
      2653.8064       2067.9014
  22515653.1034   -7249832.13348  -5631148.17847  22515651.8944   22515656.6444
     -2537.5274      -1977.2944
 00  1  6  0 32  0.0010000  0  7G 8G 9G 5G 2G 4G24G 7
  21727188.6954  -12699633.33448  -9883638.43447  21727187.5024   21727192.4714
     -3351.5954      -2611.6324
  21359891.6334  -16911068.27149 -12949136.04447  21359890.7134   21359895.6234
       313.4724        244.2634
  23284157.2584   -9881320.92148  -7352709.98346  23284156.0694   23284162.0994
      2290.9984       1785.1904
  23350792.7144   -4718540.01248  -3662723.82546  23350791.1574   23350798.2364
     -2460.0514      -1916.9234
  20897480.8914  -17342646.96349 -13281507.91047  20897480.2554   20897484.8104
       444.3464        346.2434
  22298014.9474  -13808436.48648 -10494258.52546  22298014.0324   22298020.3504
      2641.4204       2058.2464
  22530158.9464   -7173604.19848  -5571749.78647  22530157.5644   22530162.3774
     -2542.2964      -1981.0114
 00  1  6  0 32 30.0010000  0  7G 8G 9G 5G 2G 4G24G 7
  21746349.2194  -12598947.30448  -9805181.81047  21746347.6184   21746352.9014
     -3362.5684      -2620.1804
  21358149.7874  -16920222.91649 -12956269.50647  21358148.5484   21358153.5124
       295.3184        230.1174
  23271077.9834   -9950053.66348  -7406267.85446  23271076.4304   23271083.0534
      2289.4464       1783.9814
  23364852.7234   -4644655.72148  -3605151.67946  23364851.0294   23364857.5374
     -2467.1014      -1922.4134
  20894993.6104  -17355718.31849 -13291693.35747  20894993.0864   20894997.4764
       425.3434        331.4354
  22282959.2334  -13887556.04348 -10555910.06446  22282958.1794   22282964.4444
      2631.5244       2050.5344
  22544672.4054   -7097334.53848  -5512318.88947  22544671.0064   22544676.4334
     -2544.1104      -1982.4234
 00  1  6  0 33  0.0010000  0  7G 8G 9G 5G 2G 4G24G 7
  21765580.6564  -12497883.75648  -9726431.01147  21765579.3224   21765584.4234
     -3375.6514      -2630.3764
  21356516.7954  -16928802.89549 -12962955.17047  21356515.7934   21356520.8824
       276.3284        215.3194
  23258017.4134  -10018688.93148  -7459749.74346  23258016.0864   23258021.8404
      2285.5024       1780.9054
  23378958.8604   -4570523.44048  -3547386.29346  23378958.0284   23378964.3404
     -2475.6214      -1929.0534
  20892623.4784  -17368172.87149 -13301398.18047  20892622.7264   20892627.1764
       404.1614        314.9304
  22267969.3234  -13966326.74548 -10617289.76746  22267968.2404   22267974.6084
      2619.2874       2041.0004
  22559203.2214   -7020975.19948  -5452818.11547  22559201.8004   22559207.1784
     -2547.4634      -1985.0374
 00  1  6  0 33 30.0010000  0  7G 8G 9G 5G 2G 4G24G 7
  21784887.2514  -12396424.78748  -9647372.09946  21784885.9974   21784891.3114
     -3389.1404      -2640.8864
  21354992.3754  -16936815.35649 -12969198.61447  21354991.3424   21354996.0354
       256.8904        200.1734
  23244981.3474  -10087191.52748  -7513128.25146  23244979.9704   23244986.2584
      2280.6544       1777.1294
  23393117.5614   -4496125.70248  -3489414.05446  23393115.7824   23393121.7494
     -2485.1494      -1936.4834
  20890376.9684  -17379978.51049 -13310597.35247  20890376.2014   20890380.8144
       382.0574        297.7054
  22253050.1604  -14044726.96548 -10678380.77746  22253048.9914   22253055.7634
      2606.4724       2031.0154
  22573755.0384   -6944507.21648  -5393232.67647  22573753.4714   22573758.3684
     -2551.4184      -1988.1194
 00  1  6  0 34  0.0010000  0  7G 8G 9G 5G 2G 4G24G 7
  21804265.5154  -12294593.48848  -9568023.05646  21804263.8744   21804269.4544
     -3400.2844      -2649.5704
  21353572.3384  -16944277.38649 -12975013.14747  21353571.2154   21353576.0464
       240.1934        187.1614
  23231965.9344  -10155585.56548  -7566422.15546  23231964.4104   23231971.3064
      2278.6524       1775.5674
  23407324.9364   -4421462.74748  -3431235.14246  23407323.6224   23407329.8154
     -2492.8064      -1942.4454
  20888249.0944  -17391160.09449 -13319310.25047  20888248.5214   20888253.0424
       363.0744        282.9134
  22238198.3824  -14122773.73548 -10739196.37446  22238197.4694   22238203.7434
      2596.2614       2023.0584
  22588324.1074   -6867943.98348  -5333573.01247  22588322.7164   22588327.7444
     -2553.4254      -1989.6834
 00  1  6  0 34 30.0010000  0  7G 8G 9G 5G 2G 4G24G 7
  21823714.1394  -12192388.95748  -9488383.18146  21823713.0064   21823717.9924
     -3414.2124      -2660.4264
  21352252.6474  -16951212.13449 -12980416.81647  21352251.5724   21352256.2664
       221.3204        172.4574
  23218966.5734  -10223898.52348  -7619652.88146  23218965.3374   23218970.6314
      2274.8024       1772.5714
  23421581.3304   -4346547.05248  -3372859.30146  23421579.7514   23421585.8804
     -2502.3174      -1949.8594
  20886233.2144  -17401755.85949 -13327566.66847  20886232.3654   20886236.6064
       342.2514        266.6874
  22223409.9364  -14200488.31948 -10799753.12546  22223409.0444   22223415.0294
      2583.9054       2013.4304
  22602911.4244   -6791288.50848  -5273841.47647  22602909.9494   22602915.0194
     -2557.9984      -1993.2444
 00  1  6  0 35  0.0010000  0  7G 8G 9G 5G 2G 4G24G 7
  21843233.5114  -12089814.29248  -9408454.88546  21843232.0204   21843237.2214
     -3422.3594      -2666.7734
  21351030.9794  -16957630.63149 -12985418.21247  21351029.9284   21351034.8124
       208.2234        162.2514
  23205979.9224  -10292148.35348  -7672834.43146  23205978.1974   23205983.0634
      2276.9314       1774.2264
  23435883.4244   -4271385.76448  -3314292.09546  23435882.2004   23435888.6254
     -2506.8814      -1953.4134
  20884328.5054  -17411764.51149 -13335365.59547  20884327.7874   20884332.1414
       326.4524        254.3764
  22208681.6864  -14277882.70348 -10860060.36846  22208680.9484   22208687.2034
      2577.3364       2008.3104
  22617515.7254   -6714541.83048  -5214038.87147  22617514.0284   22617519.2534
     -2557.1274      -1992.5654
 00  1  6  0 35 30.0010000  0  7G 8G 9G 5G 2G 4G24G 7
  21862798.8394  -11986997.43548  -9328337.87446  21862797.3594   21862802.9814
     -3432.9534      -2675.0284
  21349886.0504  -16963648.33949 -12990107.30347  21349884.8694   21349889.5254
       191.9564        149.5764
  23192976.6164  -10360474.52648  -7726075.46446  23192975.3004   23192981.1634
      2277.4634       1774.6434
  23450214.4414   -4196076.93848  -3255609.93146  23450213.0634   23450219.7234
     -2514.4624      -1959.3224
  20882515.1584  -17421293.47849 -13342790.74747  20882514.4224   20882518.8434
       307.8774        239.9044
  22193989.6814  -14355089.80948 -10920221.67546  22193989.0564   22193995.5144
      2568.7554       2001.6254
  22632116.5424   -6637814.37448  -5154251.24847  22632114.9154   22632120.0654
     -2559.0274      -1994.0474
 00  1  6  0 36  0.0010000  0  7G 8G 9G 5G 2G 4G24G 7
  21882427.4624  -11883849.84148  -9247963.14846  21882425.7574   21882431.1804
     -3447.3464      -2686.2434
  21348837.4934  -16969157.95049 -12994400.47547  21348836.5294   21348841.1194
       171.7474        133.8284
  23179971.9644  -10428815.90348  -7779328.33446  23179970.5064   23179976.2934
      2275.0134       1772.7294
  23464591.1064   -4120532.30648  -3196744.02446  23464589.0994   23464595.2174
     -2525.2644      -1967.7364
  20880810.3274  -17430252.04149 -13349771.42647  20880809.4284   20880814.0304
       285.6654        222.5974
  22179350.1684  -14432021.05748 -10980168.03146  22179349.1334   22179355.7874
      2556.3604       1991.9664
  22646731.3464   -6561012.31848  -5094405.48447  22646729.7814   22646734.4914
     -2564.9034      -1998.6264
 00  1  6  0 36 30.0010000  0  7G 8G 9G 5G 2G 4G24G 7
  21902138.4404  -11780266.22448  -9167248.66646  21902137.1404   21902142.6464
     -3457.3264      -2694.0194
  21347907.5594  -16974045.04849 -12998208.57947  21347906.5444   21347910.9354
       154.9054        120.7034
  23166981.6674  -10497079.01048  -7832520.23446  23166979.9974   23166986.4734
      2276.6544       1774.0074
  23479026.2084   -4044672.19348  -3137632.28346  23479024.5274   23479030.7434
     -2531.1474      -1972.3204
  20879234.6734  -17438531.19349 -13356222.70247  20879233.9114   20879238.3774
       266.9764        208.0314
  22164783.1604  -14508572.59048 -11039818.51446  22164782.0054   22164788.2514
      2547.8274       1985.3184
  22661379.6354   -6484035.06848  -5034423.21247  22661378.0974   22661383.4754
     -2566.0854      -1999.5484
 00  1  6  0 37  0.0010000  0  7G 8G 9G 5G 2G 4G24G 7
  21921904.9544  -11676394.14448  -9086309.40046  21921903.4664   21921908.9804
     -3468.6014      -2702.8044
  21347074.5444  -16978423.57949 -13001620.39047  21347073.3774   21347077.7684
       135.9214        105.9114
  23153980.9594  -10565396.25448  -7885754.30446  23153979.6434   23153986.2634
      2276.6204       1773.9824
  23493494.7814   -3968637.22448  -3078384.27746  23493493.3404   23493499.4434
     -2538.8094      -1978.2924
  20877766.5714  -17446246.90949 -13362234.92847  20877765.8144   20877770.2044
       246.3924        191.9944
  22150264.2044  -14584871.28148 -11099271.97646  22150262.9954   22150269.0464
      2537.5394       1977.3024
  22676031.7084   -6407040.44748  -4974427.39947  22676030.2114   22676034.9564
     -2568.2404      -2001.2274
 00  1  6  0 37 30.0010000  0  7G 8G 9G 5G 2G 4G24G 7
  21941748.7164  -11572116.19748  -9005053.87546  21941747.0144   21941752.2784
     -3482.6994      -2713.7914
  21346363.1874  -16982159.39749 -13004531.38747  21346362.0814   21346366.5024
       113.6374         88.5484
  23140994.8874  -10633639.40348  -7938930.66246  23140993.3414   23140999.3054
      2273.3824       1771.4634
  23508018.1864   -3892316.35047  -3018913.50246  23508016.6534   23508023.4694
     -2548.5694      -1985.8954
  20876425.4734  -17453293.36149 -13367725.65147  20876424.7124   20876429.4124
       223.9544        174.5094
  22135815.8894  -14660794.74148 -11158433.05046  22135814.9274   22135821.2304
      2524.2894       1966.9764
  22690707.0744   -6329919.41848  -4914333.09447  22690705.4894   22690711.0584
     -2572.8394      -2004.8094
 00  1  6  0 38  0.0010000  0  7G 8G 9G 5G 2G 4G24G 7
  21961663.6144  -11467460.62948  -8923504.10346  21961662.2114   21961667.8034
     -3495.8214      -2724.0174
  21345771.5214  -16985268.44049 -13006953.99147  21345770.3854   21345774.5634
        92.2874         71.9104
  23128021.6084  -10701814.32448  -7992053.87446  23128020.0624   23128025.4914
      2269.9814       1768.8124
  23522587.4394   -3815758.75648  -2959258.27646  23522585.8104   23522591.5064
     -2556.7924      -1992.3054
  20875202.5154  -17459720.31849 -13372733.64647  20875201.6374   20875206.3034
       202.9124        158.1114
  22121437.6614  -14736352.39648 -11217309.07246  22121436.8454   22121442.7344
      2511.3854       1956.9184
  22705401.1424   -6252700.94348  -4854162.85747  22705399.3504   22705404.9044
     -2576.6154      -2007.7534
 00  1  6  0 38 30.0010000  0  7G 8G 9G 5G 2G 4G24G 7
  21981660.2134  -11362378.33948  -8841621.82346  21981658.7214   21981664.3034
     -3509.3904      -2734.5894
  21345309.6064  -16987696.94249 -13008846.30247  21345308.4154   21345312.6764
        69.9144         54.4774
  23115078.5224  -10769830.13948  -8045053.11846  23115077.0664   23115082.5704
      2264.4404       1764.4984
  23537212.6964   -3738901.48148  -2899369.53346  23537211.0064   23537217.2784
     -2566.9944      -2000.2564
  20874108.9294  -17465467.59449 -13377212.02647  20874108.0544   20874112.3814
       180.2204        140.4304
  22107142.4284  -14811475.82248 -11275846.74146  22107141.1454   22107147.2294
      2496.9594       1945.6804
  22720122.5804   -6175337.89648  -4793879.97147  22720121.2254   22720126.1304
     -2580.9604      -2011.1374
 00  1  6  0 39  0.0010000  0  7G 8G 9G 5G 2G 4G24G 7
  22001716.4284  -11256982.45948  -8759495.18346  22001714.9654   22001720.3564
     -3518.3944      -2741.6044
  21344954.8884  -16989561.95749 -13010299.53147  21344953.7874   21344957.7994
        53.3144         41.5424
  23102149.9304  -10837770.67748  -8097993.70846  23102148.5564   23102154.2534
      2263.6434       1763.8734
  23551879.4884   -3661828.13148  -2839312.41346  23551877.9514   23551884.2824
     -2572.3844      -2004.4564
  20873126.5714  -17470629.68549 -13381234.41047  20873125.6484   20873130.2284
       162.7054        126.7824
  22092911.3614  -14886260.26548 -11334120.26346  22092910.2584   22092916.1084
      2487.3614       1938.2014
  22734852.5414   -6097933.55348  -4733564.90047  22734850.9654   22734856.0094
     -2581.0474      -2011.2044
 00  1  6  0 39 30.0010000  0  7G 8G 9G 5G 2G 4G24G 7
  22021834.1294  -11151262.25648  -8677115.83146  22021832.6904   22021838.3554
     -3530.4154      -2750.9714
  21344703.9924  -16990879.55949 -13011326.21147  21344702.9094   21344707.1064
        33.8394         26.3674
  23089236.8574  -10905628.39848  -8150869.76846  23089235.6784   23089241.7424
      2259.6494       1760.7624
  23566585.8684   -3584543.34848  -2779090.53846  23566584.4814   23566590.5024
     -2580.6694      -2010.9044
  20872254.0814  -17475214.64449 -13384807.08147  20872253.3344   20872257.8044
       141.9894        110.6414
  22078746.4714  -14960694.67348 -11392121.03646  22078745.5854   22078751.4304
      2474.1164       1927.8804
  22749596.4424   -6020456.52648  -4673193.19147  22749594.5594   22749599.7154
     -2584.9374      -2014.2394
 00  1  6  0 40  0.0010000  0  7G 8G 9G 5G 2G 4G24G 7
  22042006.3014  -11045256.38948  -8594513.87946  22042005.1744   22042010.4084
     -3537.7514      -2756.6894
  21344550.1964  -16991687.56249 -13011955.79847  21344549.0974   21344553.3214
        18.9674         14.7794
  23076332.2484  -10973442.86548  -8203712.11346  23076331.0124   23076336.7814
      2260.3184       1761.2844
  23581327.8274   -3507076.10048  -2718726.47746  23581326.2054   23581332.6044
     -2585.0054      -2014.2864
  20871489.6614  -17479231.68449 -13387937.21547  20871488.8984   20871493.2084
       124.5124         97.0214
  22064645.5604  -15034798.13748 -11449863.93146  22064644.4254   22064650.4964
      2465.0554       1920.8204
  22764347.6334   -5942934.67748  -4612786.56947  22764346.1604   22764351.4924
     -2584.3134      -2013.7514
 00  1  6  0 40 30.0010000  0  7G 8G 9G 5G 2G 4G24G 7
  22062232.1694  -10938970.86848  -8511694.01546  22062230.3934   22062236.0294
     -3548.0644      -2764.7254
  21344493.8754  -16991982.68349 -13012185.74047  21344492.8904   21344497.0924
          .7084           .5514
  23063434.5704  -11041217.14948  -8256523.17046  23063433.4874   23063439.4924
      2258.1094       1759.5634
  23596107.2214   -3429401.79048  -2658201.08846  23596106.1874   23596113.2264
     -2593.0524      -2020.5574
  20870838.5634  -17482651.68449 -13390602.12147  20870837.8754   20870842.3594
       103.4454         80.6044
  22050608.1944  -15108563.81248 -11507343.61346  22050607.2934   22050613.4974
      2452.7054       1911.1974
  22779107.9524   -5865371.54948  -4552347.77746  22779106.1054   22779111.1374
     -2586.8594      -2015.7354
 00  1  6  0 41  0.0010000  0  7G 8G 9G 5G 2G 4G24G 7
  22082519.4744  -10832358.28848  -8428619.30146  22082518.0334   22082523.8244
     -3558.0394      -2772.4964
  21344545.8234  -16991712.22349 -13011974.97047  21344544.6244   21344548.6304
       -17.1964        -13.3994
  23050551.2374  -11108918.84748  -8309277.67046  23050550.1564   23050555.9834
      2256.9504       1758.6634
  23610934.4964   -3351489.06147  -2597489.91046  23610933.3264   23610939.6384
     -2599.7614      -2025.7884
  20870310.4184  -17485428.30149 -13392765.68747  20870309.6244   20870313.9484
        83.1384         64.7834
  22036645.2914  -15181940.33448 -11564520.05646  22036644.0734   22036650.2704
      2440.5284       1901.7094
  22793885.8494   -5787710.26048  -4491832.49746  22793884.4054   22793889.5134
     -2589.2174      -2017.5714
 00  1  6  0 41 30.0010000  0  7G 8G 9G 5G 2G 4G24G 7
  22102855.7624  -10725491.29548  -8345346.35146  22102854.1744   22102859.9104
     -3568.4654      -2780.6214
  21344693.0574  -16990938.20449 -13011371.81947  21344691.9144   21344696.0414
       -36.4294        -28.3874
  23037668.1584  -11176622.89448  -8362034.00246  23037666.8284   23037672.2074
      2254.7524       1756.9494
  23625793.8714   -3273404.75847  -2536645.02446  23625791.9864   23625798.2094
     -2608.0034      -2032.2074
  20869891.7154  -17487629.29949 -13394480.71347  20869890.9394   20869895.1684
        61.5354         47.9484
  22022743.6194  -15254992.01548 -11621443.38346  22022742.6544   22022748.5994
      2427.6194       1891.6494
  22808668.2994   -5710029.11948  -4431301.74346  22808666.7144   22808671.8754
     -2591.5874      -2019.4174
 00  1  6  0 42  0.0010000  0  7G 8G 9G 5G 2G 4G24G 7
  22123260.4024  -10618264.07448  -8261792.69946  22123258.8104   22123264.5894
     -3577.4514      -2787.6244
  21344960.1184  -16989534.28249 -13010277.83047  21344958.9284   21344963.2234
       -54.5484        -42.5064
  23024806.7214  -11244208.86248  -8414698.32346  23024805.2054   23024811.4524
      2253.4804       1755.9574
  23640710.7404   -3195015.78148  -2475562.73546  23640709.3804   23640715.7654
     -2615.2214      -2037.8384
  20869605.1174  -17489134.63149 -13395653.66247  20869604.3774   20869608.9174
        41.4974         32.3354
  22008924.2944  -15327615.11848 -11678032.74946  22008923.2154   22008928.7674
      2416.5984       1883.0604
  22823472.9294   -5632230.03048  -4370679.09047  22823471.3264   22823476.6464
     -2592.6604      -2020.2554
 00  1  6  0 42 30.0010000  0  7G 8G 9G 5G 2G 4G24G 7
  22143714.2244  -10510780.84748  -8178039.56346  22143712.6224   22143718.2324
     -3588.6694      -2796.3644
  21345326.2114  -16987608.68649 -13008777.34747  21345325.1544   21345329.3564
       -74.3094        -57.9044
  23011951.9724  -11311763.19748  -8467338.00146  23011950.3854   23011955.8784
      2249.8424       1753.1234
  23655665.3314   -3116429.22448  -2414326.47946  23655663.4954   23655670.1574
     -2624.1554      -2044.7934
  20869427.1554  -17490068.02249 -13396380.94747  20869426.5044   20869431.0704
        20.2214         15.7544
  21995162.0494  -15399932.10148 -11734383.58946  21995161.2944   21995167.0344
      2403.9694       1873.2184
  22838280.4414   -5554416.55848  -4310045.23147  22838278.8464   22838284.1264
     -2595.6284      -2022.5664
 00  1  6  0 43  0.0010000  0  7G 8G 9G 5G 2G 4G24G 7
  22164233.6414  -10402948.95948  -8094014.74146  22164232.3124   22164237.7384
     -3598.1834      -2803.7784
  21345808.3084  -16985074.73149 -13006802.81747  21345807.1844   21345811.3684
       -92.5064        -72.0844
  22999118.9114  -11379197.55148  -8519884.18746  22999117.8124   22999123.3134
      2247.6314       1751.3984
  23670672.8014   -3037561.62147  -2352871.23446  23670671.5354   23670678.7644
     -2631.8564      -2050.7944
  20869373.0194  -17490353.48849 -13396603.34947  20869372.3714   20869376.8084
          .7514           .5854
  21981475.4714  -15471857.91148 -11790429.61846  21981474.2054   21981479.7934
      2392.9314       1864.6204
  22853107.7894   -5476496.10748  -4249328.00446  22853106.3994   22853111.4144
     -2597.1614      -2023.7624
 00  1  6  0 43 30.0010000  0  7G 8G 9G 5G 2G 4G24G 7
  22184811.2234  -10294814.02448  -8009753.78446  22184809.6334   22184815.3524
     -3609.7734      -2812.8104
  21346396.5214  -16981986.07249 -13004396.05647  21346395.2074   21346399.2554
      -112.3804        -87.5694
  22986303.5694  -11446544.35948  -8572362.15946  22986301.9164   22986307.7884
      2243.2184       1747.9594
  23685729.2734   -2958440.09147  -2291218.12946  23685728.0604   23685734.4354
     -2641.5804      -2058.3724
  20869431.9924  -17490044.78449 -13396362.76947  20869431.1164   20869435.3994
       -20.3654        -15.8694
  21967852.6044  -15543446.42248 -11846212.82046  21967851.5594   21967857.3254
      2380.5434       1854.9674
  22867945.9514   -5398522.51248  -4188569.35546  22867944.3034   22867949.5854
     -2600.3034      -2026.2124
 00  1  6  0 44  0.0010000  0  7G 8G 9G 5G 2G 4G24G 7
  22205450.4604  -10186357.28548  -7925242.07546  22205448.6604   22205454.0154
     -3620.8934      -2821.4754
  21347092.8344  -16978324.22849 -13001542.65647  21347091.7774   21347096.0914
      -131.8984       -102.7784
  22973508.9874  -11513783.93248  -8624756.55746  22973507.3344   22973512.8964
      2239.2554       1744.8724
  23700834.3954   -2879066.98047  -2229368.97146  23700832.2014   23700838.8814
     -2650.0694      -2064.9874
  20869605.7324  -17489129.67849 -13395649.66647  20869604.9654   20869609.3874
       -41.0464        -31.9864
  21954296.8884  -15614682.04548 -11901721.04246  21954295.7234   21954301.8034
      2368.1514       1845.3094
  22882799.1824   -5320469.17948  -4127748.58346  22882797.6144   22882803.2864
     -2603.5544      -2028.7444
 00  1  6  0 44 30.0010000  0  7G 8G 9G 5G 2G 4G24G 7
  22226153.8244  -10077559.70548  -7840464.77546  22226152.1624   22226157.3964
     -3631.6384      -2829.8464
  21347902.0034  -16974073.01149 -12998230.00647  21347900.9404   21347905.1904
      -150.8984       -117.5844
  22960736.0904  -11580902.63148  -8677056.78546  22960734.6374   22960740.1014
      2236.1634       1742.4654
  23715988.6424   -2799426.91147  -2167311.79246  23715987.0474   23715993.6944
     -2658.5714      -2071.6154
  20869899.8294  -17487583.56349 -13394444.86747  20869899.1174   20869903.7884
       -61.4774        -47.9054
  21940816.2124  -15685524.58848 -11956922.97446  21940815.2044   21940820.9534
      2355.1264       1835.1634
  22897670.5544   -5242318.09948  -4066851.65146  22897668.9474   22897674.6864
     -2606.1424      -2030.7594
 00  1  6  0 45  0.0010000  0  7G 8G 9G 5G 2G 4G24G 7
  22246921.5554   -9968422.75048  -7755423.02346  22246920.1664   22246925.6814
     -3642.6594      -2838.4344
  21348822.9594  -16969234.61149 -12994459.81147  21348821.8274   21348825.9854
      -169.8584       -132.3574
  22947983.8904  -11647916.05248  -8729274.96846  22947982.5534   22947987.7454
      2232.9734       1739.9774
  23731195.3024   -2719516.61247  -2105044.03946  23731193.7304   23731199.8974
     -2667.0834      -2078.2514
  20870315.0104  -17485403.24449 -13392745.88647  20870314.2394   20870318.6614
       -82.3684        -64.1834
  21927413.9114  -15755950.89148 -12011800.55546  21927413.1054   21927419.1694
      2341.5724       1824.6004
  22912561.6434   -5164064.99548  -4005875.21046  22912560.1084   22912565.2564
     -2609.2194      -2033.1594
 00  1  6  0 45 30.0010000  0  7G 8G 9G 5G 2G 4G24G 7
  22267741.5064   -9859011.14448  -7670167.25546  22267740.0634   22267745.6494
     -3652.7554      -2846.3044
  21349838.7234  -16963894.32149 -12990298.53247  21349837.7694   21349842.2414
      -187.6454       -146.2174
  22935236.4964  -11714903.70748  -8781473.07646  22935235.0004   22935240.5204
      2231.5004       1738.8294
  23746437.2204   -2639418.56047  -2042629.98845  23746435.6194   23746442.1184
     -2674.0254      -2083.6544
  20870838.0974  -17482654.37049 -13390603.87847  20870837.2424   20870841.7244
      -102.3714        -79.7714
  21914077.6154  -15826033.82548 -12066410.58046  21914076.5704   21914082.5214
      2329.2134       1814.9694
  22927457.6634   -5085784.18548  -3944877.18046  22927456.2044   22927461.8804
     -2611.1334      -2034.6494
 00  1  6  0 46  0.0010000  0  7G 8G 9G 5G 2G 4G24G 7
  22288620.3104   -9749293.21548  -7584672.79446  22288618.6864   22288624.4444
     -3662.0644      -2853.5554
  21350959.9364  -16958002.95749 -12985707.84447  21350958.8934   21350963.3484
      -205.3344       -160.0024
  22922498.1554  -11781842.54648  -8833633.14546  22922496.8854   22922502.5074
      2230.7264       1738.2254
  23761720.0334   -2559104.54747  -1980047.66745  23761718.6044   23761726.0934
     -2680.6974      -2088.8534
  20871477.8774  -17479292.50749 -13387984.21847  20871477.1704   20871481.4764
      -122.1474        -95.1814
  21900814.5334  -15895731.54748 -12120720.44346  21900813.7024   21900819.5054
      2316.9874       1805.4434
  22942367.6444   -5007430.74248  -3883822.55046  22942366.4134   22942371.8804
     -2612.8494      -2035.9854
 00  1  6  0 46 30.0010000  0  7G 8G 9G 5G 2G 4G24G 7
  22309556.0114   -9639276.83948  -7498945.78246  22309554.3884   22309560.1174
     -3674.2964      -2863.0874
  21352185.6544  -16951562.17149 -12980689.03747  21352184.5824   21352189.0934
      -225.9384       -176.0564
  22909769.1834  -11848732.23448  -8885754.92346  22909768.2204   22909773.4084
      2226.7254       1735.1074
  23777048.2444   -2478557.35547  -1917283.64445  23777046.5804   23777053.2254
     -2690.7804      -2096.7124
  20872233.0804  -17475323.30149 -13384891.30747  20872232.3224   20872236.7454
      -144.3804       -112.5044
  21887625.7304  -15965040.63748 -12174727.47846  21887624.6824   21887630.3584
      2301.7174       1793.5444
  22957291.7164   -4929005.93548  -3822712.31746  22957290.0744   22957295.6754
     -2617.6334      -2039.7154
 00  1  6  0 47  0.0010000  0  7G 8G 9G 5G 2G 4G24G 7
  22330564.4104   -9528874.47848  -7412917.99646  22330563.1674   22330568.9624
     -3684.4244      -2870.9784
  21353533.9674  -16944478.26349 -12975169.09347  21353532.7384   21353537.1904
      -244.9684       -190.8844
  22897068.2334  -11915478.31148  -8937764.79646  22897066.8484   22897071.8774
      2224.4234       1733.3164
  23792434.6224   -2397701.37147  -1854278.99445  23792433.0074   23792439.3594
     -2698.1014      -2102.4174
  20873118.7994  -17470668.82349 -13381264.42047  20873117.9934   20873122.3304
      -164.5434       -128.2164
  21874525.3774  -16033882.49248 -12228370.42647  21874524.4674   21874530.2044
      2289.1544       1783.7554
  22972246.7194   -4850417.15448  -3761474.30346  22972245.2764   22972250.4214
     -2620.1714      -2041.6934
 00  1  6  0 47 30.0010000  0  7G 8G 9G 5G 2G 4G24G 7
  22351635.2254   -9418147.30748  -7326637.12046  22351633.9684   22351639.7594
     -3693.0894      -2877.7314
  21354998.6384  -16936779.88049 -12969170.33847  21354997.5624   21355001.8594
      -264.1474       -205.8304
  22884386.2124  -11982119.97048  -8989693.29346  22884385.0084   22884390.5914
      2222.4424       1731.7724
  23807869.3174   -2316589.13147  -1791074.65045  23807868.0434   23807874.4544
     -2705.0724      -2107.8524
  20874124.5154  -17465383.85949 -13377146.24747  20874123.8474   20874127.9974
      -183.5424       -143.0214
  21861502.2184  -16102320.27848 -12281698.52047  21861501.0994   21861507.0184
      2277.5554       1774.7174
  22987220.1664   -4771732.05248  -3700161.23546  22987218.6764   22987223.8404
     -2621.5254      -2042.7444
 00  1  6  0 48  0.0010000  0  7G 8G 9G 5G 2G 4G24G 7
  22372740.9704   -9307237.01848  -7240213.55946  22372739.7614   22372745.0364
     -3701.9504      -2884.6354
  21356561.4814  -16928567.37349 -12962770.96447  21356560.4034   21356564.6594
      -284.1754       -221.4354
  22871705.1374  -12048758.24548  -9041619.14246  22871703.7764   22871710.0354
      2219.1674       1729.2194
  23823333.5134   -2235327.97247  -1727754.27245  23823331.9464   23823338.3114
     -2713.3314      -2114.2844
  20875224.9904  -17459599.70349 -13372639.09247  20875224.3764   20875228.4414
      -203.1274       -158.2824
  21848533.3734  -16170471.21348 -12334803.08947  21848532.3234   21848538.0414
      2264.7404       1764.7294
  23002188.6454   -4693071.44648  -3638867.26046  23002187.0394   23002192.4314
     -2623.6024      -2044.3674
 00  1  6  0 48 30.0010000  0  7G 8G 9G 5G 2G 4G24G 7
  22393902.6234   -9196033.33948  -7153561.37046  22393900.9734   22393906.8384
     -3713.7864      -2893.8574
  21358242.7684  -16919731.38149 -12955885.75747  21358241.7764   21358246.1564
      -306.8854       -239.1324
  22859048.7354  -12115273.16648  -9093448.86646  22859046.8944   22859052.3964
      2213.2974       1724.6454
  23838847.5174   -2153799.78247  -1664225.81545  23838845.9954   23838853.1144
     -2723.8054      -2122.4414
  20876440.9774  -17453210.13149 -13367660.18247  20876440.2314   20876444.1824
      -225.0364       -175.3534
  21835642.3584  -16238213.58548 -12387589.29147  21835641.2084   21835647.2084
      2249.3504       1752.7384
  23017172.0944   -4614336.78948  -3577515.58346  23017170.3754   23017175.6454
     -2627.6254      -2047.4994
 00  1  6  0 49  0.0010000  0  7G 8G 9G 5G 2G 4G24G 7
  22415124.5624   -9084510.86348  -7066660.77946  22415123.2604   22415128.2544
     -3719.9084      -2898.6294
  21360047.4124  -16910247.66349 -12948495.83447  21360046.3204   21360050.7034
      -323.9994       -252.4674
  22846417.4704  -12181649.26948  -9145170.44446  22846415.9274   22846420.8604
      2212.9964       1724.4104
  23854413.0684   -2072000.79147  -1600486.34945  23854411.9034   23854418.5794
     -2728.3804      -2126.0094
  20877776.6464  -17446191.33649 -13362190.97647  20877775.8674   20877779.8804
      -241.8324       -188.4424
  21822832.1114  -16305529.79248 -12440043.42647  21822831.2354   21822837.2164
      2239.4614       1745.0334
  23032170.6684   -4535518.96048  -3516099.10246  23032168.7824   23032173.9854
     -2625.8384      -2046.1084
 00  1  6  0 49 30.0010000  0  7G 8G 9G 5G 2G 4G24G 7
  22436381.1894   -8972805.99848  -6979618.06046  22436379.8014   22436385.2064
     -3727.0684      -2904.2074
  21361947.5224  -16900261.74749 -12940714.58147  21361946.5754   21361951.0024
      -341.3854       -266.0154
  22833787.4084  -12248016.69548  -9196885.25546  22833786.3434   22833791.5224
      2211.6484       1723.3614
  23870008.7174   -1990049.04147  -1536627.84245  23870007.3034   23870013.0914
     -2734.8384      -2131.0464
  20879208.5284  -17438665.61949 -13356326.76347  20879207.9534   20879211.9404
      -259.9124       -202.5294
  21810080.3574  -16372542.04948 -12492260.71147  21810079.4104   21810085.3574
      2228.0134       1736.1124
  23047158.2674   -4456753.06048  -3454723.07946  23047157.0864   23047162.5294
     -2625.4674      -2045.8174
 00  1  6  0 50  0.0010000  0  7G 8G 9G 5G 2G 4G24G 7
  22457682.3284   -8860867.01948  -6892392.91746  22457680.6844   22457686.4104
     -3735.6204      -2910.8704
  21363947.3024  -16889753.59649 -12932526.39447  21363946.2874   21363950.5344
      -358.9264       -279.6844
  22821167.0694  -12314338.87348  -9248564.79946  22821165.5094   22821170.8024
      2209.9914       1722.0674
  23885642.1474   -1907892.56547  -1472609.80645  23885640.7664   23885647.6084
     -2742.0704      -2136.6754
  20880748.3024  -17430575.75449 -13350022.95847  20880747.4484   20880751.5154
      -279.4774       -217.7744
  21797398.6454  -16439184.99748 -12544190.22047  21797397.6974   21797403.2394
      2214.7254       1725.7574
  23062149.2054   -4377976.64048  -3393338.86346  23062147.8564   23062153.1454
     -2626.2984      -2046.4664
 00  1  6  0 50 30.0010000  0  7G 8G 9G 5G 2G 4G24G 7
  22479036.7374   -8748650.71148  -6804951.68146  22479035.0274   22479040.7004
     -3746.1294      -2919.0604
  21366048.1904  -16878714.42449 -12923924.42647  21366047.1394   21366051.3124
      -377.7084       -294.3194
  22808557.7814  -12380601.02148  -9300197.56746  22808556.5284   22808561.8854
      2206.7494       1719.5414
  23901318.2304   -1825514.99147  -1408419.50045  23901316.5764   23901323.1674
     -2750.4594      -2143.2134
  20882401.6594  -17421886.34949 -13343251.97847  20882400.8804   20882405.0034
      -300.6574       -234.2794
  21784794.2584  -16505421.56248 -12595803.06847  21784793.3124   21784798.8744
      2200.1324       1714.3874
  23077145.8224   -4299169.25348  -3331930.51546  23077144.5294   23077149.9164
     -2628.5234      -2048.2004
 00  1  6  0 51  0.0010000  0  7G 8G 9G 5G 2G 4G24G 7
  22500450.2824   -8636119.02748  -6717264.69146  22500448.9824   22500455.0404
     -3757.7724      -2928.1334
  21368256.8204  -16867108.25349 -12914880.63747  21368255.6634   21368259.8014
      -397.8214       -309.9914
  22795970.0674  -12446746.98648  -9351739.79246  22795968.6784   22795974.6284
      2201.2464       1715.2524
  23917044.7874   -1742872.29447  -1344022.59545  23917043.1764   23917049.8854
     -2760.9224      -2151.3684
  20884178.8844  -17412545.21349 -13335973.15247  20884178.4004   20884182.6884
      -323.9094       -252.3984
  21772276.7914  -16571199.70048 -12647058.69247  21772276.0194   21772281.3504
      2183.3394       1701.3004
  23092158.6034   -4220276.47548  -3270455.63146  23092157.0894   23092162.8374
     -2632.8584      -2051.5804
 00  1  6  0 51 30.0010000  0  7G 8G 9G 5G 2G 4G24G 7
  22521932.8034   -8523229.89348  -6629299.16646  22521931.4634   22521936.9074
     -3766.0154      -2934.5574
  21370582.9354  -16854883.22149 -12905354.62047  21370582.0384   21370586.1884
      -415.0034       -323.3794
  22783416.0244  -12512718.98948  -9403146.48246  22783415.0284   22783420.4314
      2199.1214       1713.5984
  23932834.6134   -1659893.68347  -1279363.93745  23932832.8544   23932839.8424
     -2768.6084      -2157.3574
  20886091.4724  -17402493.65349 -13328140.75047  20886090.9364   20886095.1604
      -344.0594       -268.0994
  21759857.8384  -16636463.29848 -12697913.38247  21759856.7114   21759862.0284
      2169.7124       1690.6834
  23107197.8604   -4141241.68548  -3208870.09346  23107196.7344   23107202.5284
     -2634.0144      -2052.4804
 00  1  6  0 52  0.0010000  0  7G 8G 9G 5G 2G 4G24G 7
  22543458.9354   -8410109.62648  -6541153.53946  22543457.3634   22543463.5924
     -3776.2944      -2942.5674
  21373006.8464  -16842146.77449 -12895430.09747  21373005.7284   21373009.7154
      -435.0804       -339.0234
  22770870.3444  -12578646.15948  -9454518.22746  22770869.0304   22770875.1054
      2194.8634       1710.2834
  23948663.4524   -1576713.99147  -1214548.60245  23948661.8764   23948668.5594
     -2777.6464      -2164.4004
  20888116.0074  -17391857.00449 -13319852.43147  20888115.2674   20888119.4234
      -366.0894       -285.2654
  21747513.7654  -16701331.38348 -12748459.87547  21747512.4774   21747517.9074
      2153.9414       1678.3944
  23122240.1324   -4062197.17548  -3147276.97546  23122238.4264   23122243.8844
     -2636.7334      -2054.5964
 00  1  6  0 52 30.0010000  0  7G 8G 9G 5G 2G 4G24G 7
  22565047.7514   -8296660.68548  -6452751.82046  22565045.8714   22565052.5104
     -3785.7404      -2949.9254
  21375551.4694  -16828771.52149 -12885007.80747  21375550.6684   21375554.5884
      -455.5434       -354.9694
  22758357.7404  -12644403.03748  -9505757.28146  22758356.2614   22758362.0594
      2190.1704       1706.6244
  23964549.1414   -1493235.94147  -1149500.78945  23964547.5334   23964553.5754
     -2786.2514      -2171.1074
  20890271.9244  -17380527.29049 -13311024.06147  20890271.2244   20890275.4534
      -388.1264       -302.4384
  21735263.0364  -16765707.87448 -12798623.30347  21735261.8514   21735267.5794
      2138.9704       1666.7274
  23137303.4344   -3983041.31848  -3085597.09546  23137301.9454   23137306.7694
     -2639.3884      -2056.6674
 00  1  6  0 53  0.0010000  0  7G 8G 9G 5G 2G 4G24G 7
  22586688.0914   -8182940.76148  -6364138.92846  22586686.4014   22586692.1284
     -3796.1654      -2958.0484
  21378215.1814  -16814776.09249 -12874102.26147  21378214.0354   21378217.9954
      -477.9014       -372.3924
  22745869.0104  -12710031.99548  -9556896.66846  22745867.5914   22745872.8384
      2184.7914       1702.4344
  23980482.8384   -1409500.08247  -1084252.07745  23980481.9974   23980487.5994
     -2796.4024      -2179.0164
  20892552.4554  -17368541.80349 -13301684.69947  20892551.8554   20892556.2494
      -411.3544       -320.5364
  21723097.6274  -16829637.41148 -12848438.45547  21723096.5464   21723102.0134
      2122.7224       1654.0674
  23152381.9154   -3903800.77548  -3023851.21046  23152380.5484   23152385.7524
     -2643.8114      -2060.1134
 00  1  6  0 53 30.0010000  0  7G 8G 9G 5G 2G 4G24G 7
  22608387.6204   -8068905.63648  -6275280.41546  22608386.4144   22608392.1494
     -3806.0484      -2965.7514
  21381006.0644  -16800107.58849 -12862672.24147  21381005.2594   21381009.3084
      -499.5884       -389.2904
  22733409.9454  -12775505.27748  -9607914.75446  22733408.3724   22733414.0504
      2180.1964       1698.8514
  23996474.4994   -1325465.23247  -1018770.39245  23996473.1284   23996479.6944
     -2805.5144      -2186.1164
  20894964.5334  -17355868.35949 -13291809.26747  20894963.7204   20894967.8324
      -433.2354       -337.5874
  21711023.5884  -16893087.21348 -12897879.78947  21711022.6634   21711028.3004
      2107.4824       1642.1924
  23167485.5474   -3824430.94348  -2962004.59446  23167484.0754   23167489.6454
     -2647.4664      -2062.9624
 00  1  6  0 54  0.0010000  0  7G 8G 9G 5G 2G 4G24G 7
  22630146.6594   -7954563.10948  -6186182.37846  22630145.3124   22630151.0024
     -3815.9224      -2973.4434
  21383922.1334  -16784783.98149 -12850731.75347  21383921.1714   21383925.2854
      -520.9474       -405.9334
  22720980.4834  -12840820.62048  -9658809.75746  22720978.9904   22720984.5554
      2174.9934       1694.7984
  24012518.7884   -1241150.35247   -953070.49245  24012517.6304   24012523.7474
     -2814.5794      -2193.1834
  20897501.6034  -17342532.29349 -13281417.50447  20897501.1184   20897505.5054
      -454.9674       -354.5214
  21699037.0894  -16956076.04448 -12946961.91947  21699036.2034   21699041.5414
      2092.7054       1630.6774
  23182612.3464   -3744939.51248  -2900063.22646  23182611.0064   23182616.4314
     -2651.3614      -2065.9974
 00  1  6  0 54 30.0010000  0  7G 8G 9G 5G 2G 4G24G 7
  22651939.5224   -7840037.57648  -6096941.74246  22651938.3784   22651944.0614
     -3820.4114      -2976.9394
  21386937.3544  -16768940.40349 -12838386.09747  21386936.3844   21386940.4574
      -536.3704       -417.9514
  22708560.0204  -12906089.45248  -9709668.54046  22708558.4324   22708563.9244
      2175.2974       1695.0334
  24028594.4814   -1156672.82747   -887243.88145  24028593.1774   24028599.5624
     -2818.4694      -2196.2074
  20900142.2314  -17328656.80549 -13270605.41347  20900141.5774   20900146.1584
      -471.2724       -367.2244
  21687113.1074  -17018737.47648 -12995788.93847  21687112.0544   21687117.6054
      2083.4384       1623.4554
  23197741.6764   -3665435.69248  -2838112.18946  23197740.2164   23197745.4294
     -2650.1404      -2065.0464
 00  1  6  0 55  0.0010000  0  7G 8G 9G 5G 2G 4G24G 7
  22673783.8874   -7725247.12548  -6007494.67346  22673782.3504   22673788.4834
     -3832.7294      -2986.5394
  21390061.6614  -16752520.96249 -12825591.71847  21390060.7234   21390064.7774
      -558.4934       -435.1904
  22696161.3494  -12971242.96348  -9760437.44546  22696160.3024   22696166.0924
      2167.8284       1689.2174
  24044716.7964   -1071948.14547   -821224.66145  24044716.2284   24044721.8284
     -2830.3304      -2205.4514
  20902898.1454  -17314177.06249 -13259322.47647  20902897.3314   20902901.1544
      -494.5474       -385.3614
  21675266.1134  -17080993.27748 -13044299.87447  21675265.3204   21675270.4324
      2066.5254       1610.2784
  23212884.6574   -3585855.27548  -2776101.46746  23212883.3064   23212888.7834
     -2655.7724      -2069.4334
 00  1  6  0 55 30.0010000  0  7G 8G 9G 5G 2G 4G24G 7
  22695682.3144   -7610169.77648  -5917824.05546  22695680.8504   22695686.4554
     -3839.2324      -2991.6094
  21393295.0914  -16735529.92149 -12812351.94047  21393294.1204   21393298.3024
      -574.3144       -447.5174
  22683793.3904  -13036240.10148  -9811084.51746  22683791.9184   22683797.2304
      2165.2254       1687.1864
  24060891.7574    -986954.35547   -754995.75145  24060889.6224   24060896.6624
     -2835.9804      -2209.8574
  20905770.8234  -17299077.28049 -13247556.38447  20905770.4444   20905774.9184
      -512.4424       -399.3074
  21663500.5144  -17142821.24948 -13092477.44447  21663499.5324   21663504.7054
      2055.0274       1601.3194
  23228043.4274   -3506194.68948  -2714028.27646  23228042.2984   23228047.7884
     -2655.1274      -2068.9304
 00  1  6  0 56  0.0010000  0  7G 8G 9G 5G 2G 4G24G 7
  22717629.9144   -7494838.03448  -5827955.19946  22717628.4444   22717633.2894
     -3849.7844      -2999.8314
  21396630.2334  -16718004.49449 -12798695.75147  21396629.0524   21396633.3704
      -594.3224       -463.1074
  22671450.1244  -13101104.74448  -9861628.34746  22671448.5784   22671453.4424
      2159.0414       1682.3684
  24077109.0314    -901726.17947   -688584.21845  24077107.5434   24077113.6214
     -2845.9394      -2217.6164
  20908761.8874  -17283362.95449 -13235311.42347  20908761.0834   20908764.9154
      -535.5724       -417.3304
  21651813.6214  -17204232.80948 -13140330.53347  21651812.7924   21651818.2404
      2038.6584       1588.5634
  23243210.9284   -3426491.98548  -2651922.26746  23243209.2784   23243214.6504
     -2658.7004      -2071.7164
 00  1  6  0 56 30.0010000  0  7G 8G 9G 5G 2G 4G24G 7
  22739622.1274   -7379264.32848  -5737897.80946  22739620.6514   22739626.4304
     -3855.2344      -3004.0774
  21400066.9174  -16699942.96149 -12784621.82847  21400066.0654   21400070.0554
      -609.7444       -475.1254
  22659127.4804  -13165858.47548  -9912085.75546  22659126.3284   22659131.5684
      2157.9954       1681.5524
  24093370.1534    -816273.46047   -621997.69745  24093368.7354   24093375.5784
     -2850.9364      -2221.5064
  20911871.9574  -17267016.17449 -13222573.64847  20911871.4754   20911875.4284
      -554.2184       -431.8594
  21640211.2794  -17265208.33148 -13187843.85547  21640210.2334   21640215.1004
      2026.3364       1578.9604
  23258383.8914   -3346757.50748  -2589791.49446  23258382.3864   23258388.1064
     -2656.9864      -2070.3784
 00  1  6  0 57  0.0010000  0  7G 8G 9G 5G 2G 4G24G 7
  22761644.8984   -7263533.94048  -5647718.32746  22761643.4034   22761649.3054
     -3862.3204      -3009.6014
  21403592.0194  -16681418.12249 -12770186.89247  21403590.9544   21403595.0294
      -627.4414       -488.9154
  22646810.4064  -13230584.61948  -9962521.66246  22646809.2364   22646814.6104
      2154.9994       1679.2174
  24109660.2504    -730674.46047   -555297.19445  24109658.4024   24109664.2444
     -2857.9054      -2226.9414
  20915087.6324  -17250118.40849 -13209406.53447  20915087.0324   20915091.1284
      -574.4684       -447.6394
  21628677.2514  -17325818.76648 -13235072.69847  21628676.3404   21628681.5374
      2012.0704       1567.8454
  23273544.7164   -3267084.62348  -2527708.72946  23273543.2364   23273549.1794
     -2657.0704      -2070.4444
 00  1  6  0 57 30.0010000  0  7G 8G 9G 5G 2G 4G24G 7
  22783716.2184   -7147553.98148  -5557344.36246  22783714.4834   22783719.6654
     -3872.1924      -3017.2914
  21407225.8424  -16662321.06849 -12755306.06447  21407224.9404   21407229.2004
      -648.2314       -505.1144
  22634516.3724  -13295187.55848 -10012861.56146  22634514.8584   22634520.9904
      2149.5334       1674.9604
  24125995.1074    -644831.85647   -488406.87745  24125993.5534   24125999.0064
     -2867.3764      -2234.3214
  20918426.3474  -17232573.37549 -13195735.05447  20918425.6304   20918429.6134
      -597.6014       -465.6644
  21617233.7994  -17385953.45848 -13281930.84147  21617232.7934   21617238.0874
      1994.5084       1554.1604
  23288717.2814   -3187352.85448  -2465580.06646  23288715.7944   23288720.9944
     -2660.8334      -2073.3784
 00  1  6  0 58  0.0010000  0  7G 8G 9G 5G 2G 4G24G 7
  22805851.1124   -7031232.34748  -5466704.16346  22805849.5844   22805855.2824
     -3880.3634      -3023.6594
  21410989.1344  -16642548.16249 -12739898.60747  21410988.1004   21410992.1854
      -667.7424       -520.3194
  22622262.9614  -13359585.12048 -10063041.42946  22622261.5324   22622266.8994
      2145.7854       1672.0394
  24142393.9764    -558653.62547   -421255.03545  24142392.4384   24142399.4174
     -2875.6564      -2240.7744
  20921904.4074  -17214295.71749 -13181492.70247  20921903.7194   20921907.5154
      -618.4914       -481.9424
  21605897.6614  -17445523.08648 -13328348.67247  21605896.7194   21605902.2774
      1979.1044       1542.1574
  23303920.1954   -3107462.21848  -2403327.62146  23303918.4994   23303923.8294
     -2663.2294      -2075.2454
 00  1  6  0 58 30.0010000  0  7G 8G 9G 5G 2G 4G24G 7
  22828025.1734   -6914703.79748  -5375902.74546  22828024.1334   22828030.2054
     -3890.3404      -3031.4334
  21414854.6994  -16622232.86349 -12724068.50547  21414853.7154   21414857.9644
      -688.7054       -536.6544
  22610023.7494  -13423903.65248 -10113159.72046  22610022.1424   22610027.0064
      2139.9784       1667.5134
  24158832.2514    -472273.00847   -353945.50345  24158830.0244   24158836.6884
     -2885.4604      -2248.4114
  20925489.3184  -17195456.44349 -13166812.72047  20925488.6074   20925492.8714
      -639.5824       -498.3774
  21594639.5634  -17504684.34048 -13374448.29247  21594638.8864   21594643.9814
      1962.8384       1529.4834
  23319128.0274   -3027546.29148  -2341055.44846  23319126.3614   23319131.3014
     -2666.7814      -2078.0124
 00  1  6  0 59  0.0010000  0  7G 8G 9G 5G 2G 4G24G 7
  22850253.4514   -6797895.97848  -5284883.69746  22850251.6124   22850257.3904
     -3896.2864      -3036.0674
  21418837.8284  -16601302.44049 -12707759.08647  21418836.9044   21418840.8754
      -705.9864       -550.1184
  22597815.3334  -13488056.29948 -10163148.75746  22597814.1414   22597818.8764
      2137.6314       1665.6864
  24175323.4594    -385605.87847   -286412.69945  24175322.3784   24175328.4494
     -2891.5794      -2253.1824
  20929190.8204  -17176006.31049 -13151656.75147  20929190.1354   20929193.9094
      -656.5574       -511.6034
  21583472.6734  -17563368.14248 -13420175.87247  21583471.6274   21583476.9614
      1950.0074       1519.4844
  23334354.8584   -2947528.12948  -2278703.62346  23334353.3224   23334358.8644
     -2667.1764      -2078.3204
 00  1  6  0 59 30.0010000  0  7G 8G 9G 5G 2G 4G24G 7
  22872512.9174   -6680918.93848  -5193732.78946  22872511.7514   22872517.6194
     -3903.9754      -3042.0564
  21422916.5994  -16579867.74849 -12691056.73347  21422915.5674   21422919.1844
      -724.8724       -564.8364
  22585618.3464  -13552152.62948 -10213093.91146  22585616.7954   22585621.4274
      2133.6344       1662.5714
  24191849.0434    -298767.15147   -218746.20945  24191847.3274   24191854.1434
     -2899.2624      -2259.1624
  20932987.5204  -17156052.53649 -13136108.33447  20932986.9314   20932991.2404
      -675.7104       -526.5284
  21572376.9674  -17621675.74148 -13465610.31347  21572376.2284   21572381.3074
      1935.3864       1508.0914
  23349579.9174   -2867518.66248  -2216358.57546  23349578.1634   23349584.3794
     -2668.5064      -2079.3554
 00  1  6  1  0  0.0010000  0  7G 8G 9G 5G 2G 4G24G 7
  22894829.8464   -6563644.44048  -5102350.10046  22894828.5654   22894834.0764
     -3913.6604      -3049.6054
  21427118.1214  -16557787.69149 -12673851.49847  21427117.2184   21427121.4824
      -746.3984       -581.6104
  22573457.3024  -13616053.52648 -10262886.77446  22573455.9544   22573461.9024
      2127.0494       1657.4374
  24208431.5154    -211627.08647   -150844.88045  24208429.6044   24208435.8334
     -2909.3804      -2267.0454
  20936908.8714  -17135445.52249 -13120050.90247  20936908.2664   20936912.5294
      -697.5424       -543.5414
  21561377.4374  -17679478.80748 -13510651.61047  21561376.4404   21561381.9804
      1918.6024       1495.0134
  23364822.6814   -2787415.06048  -2153940.18646  23364821.6754   23364826.6204
     -2671.2664      -2081.5054
 00  1  6  1  0 30.0010000  0  7G 8G 9G 5G 2G 4G24G 7
  22917190.9424   -6446138.98648  -5010787.43546  22917189.0304   22917195.3114
     -3920.2774      -3054.7584
  21431433.2534  -16535111.58849 -12656181.81547  21431432.3994   21431436.4984
      -765.5744       -596.5504
  22561324.4484  -13679814.31248 -10312570.45746  22561323.0604   22561328.5754
      2123.4664       1654.6474
  24225060.4554    -124240.45947    -82751.43445  24225058.9004   24225065.5794
     -2916.6324      -2272.7014
  20940946.5534  -17114228.54449 -13103518.17747  20940945.8844   20940949.9754
      -717.3524       -558.9774
  21550465.8544  -17736819.60148 -13555332.70047  21550464.9084   21550470.3244
      1903.7924       1483.4734
  23380071.0044   -2707286.13948  -2091502.05946  23380069.7374   23380075.4394
     -2671.2034      -2081.4574
 00  1  6  1  1  0.0010000  0  7G 8G 9G 5G 2G 4G24G 7
  22939591.8584   -6328418.60148  -4919057.29846  22939590.8154   22939596.3684
     -3926.8244      -3059.8614
  21435862.1194  -16511836.09849 -12638045.07147  21435861.2984   21435865.4004
      -784.9324       -611.6354
  22549215.0904  -13743449.85748 -10362156.55846  22549213.7794   22549218.9664
      2119.9984       1651.9454
  24241733.8014     -36620.92847    -14476.49945  24241732.6594   24241738.5964
     -2923.4274      -2277.9954
  20945102.8744  -17092386.44749 -13086498.34347  20945102.2704   20945106.4094
      -737.8344       -574.9364
  21539643.0364  -17793692.88148 -13599649.49247  21539642.2304   21539647.7544
      1888.8774       1471.8514
  23395323.8914   -2627131.54848  -2029043.93346  23395322.1674   23395327.7144
     -2671.5824      -2081.7524
 00  1  6  1  1 30.0010000  0  7G 8G 9G 5G 2G 4G24G 7
  22962024.3884   -6210535.19548  -4827200.12246  22962023.2914   22962029.3184
     -3931.8904      -3063.8104
  21440394.5644  -16488019.01849 -12619486.31347  21440393.6344   21440397.6644
      -802.8104       -625.5664
  22537118.8604  -13807019.09148 -10411690.99447  22537117.4604   22537122.0864
      2117.9214       1650.3264
  24258439.7004      51168.95647     53931.17945  24258437.9974   24258444.8944
     -2929.1304      -2282.4354
  20949370.5974  -17069959.93649 -13069023.12547  20949370.1164   20949373.9724
      -757.2314       -590.0504
  21528897.6284  -17850160.08448 -13643649.85747  21528896.8124   21528902.4334
      1875.7414       1461.6154
  23410571.8464   -2547002.74448  -1966605.89646  23410570.8034   23410575.4964
     -2670.5604      -2080.9564
 00  1  6  1  2  0.0010000  0  7G 8G 9G 5G 2G 4G24G 7
  22984502.3434   -6092414.27948  -4735157.87246  22984500.7484   22984506.8424
     -3941.2374      -3071.0944
  21445046.2614  -16463576.29149 -12600440.03547  21445045.2074   21445049.2994
      -824.9864       -642.8464
  22525050.9824  -13870434.51348 -10461105.56447  22525049.6254   22525055.0704
      2111.4534       1645.2844
  24275195.8474     139225.06047    122546.31545  24275194.0344   24275201.4714
     -2939.6834      -2290.6594
  20953765.0294  -17046866.88949 -13051028.52447  20953764.3634   20953768.4564
      -780.6634       -608.3114
  21518242.6864  -17906150.87448 -13687278.99147  21518242.0134   21518247.2604
      1858.4544       1448.1434
  23425833.8624   -2466801.15448  -1904111.13446  23425832.4704   23425837.6484
     -2674.9284      -2084.3604
 00  1  6  1  2 30.0010000  0  7G 8G 9G 5G 2G 4G24G 7
  23007019.9094   -5974082.56748  -4642951.36646  23007018.7884   23007025.0824
     -3946.9124      -3075.5164
  21449808.7364  -16438547.14149 -12580936.81047  21449807.9364   21449812.2584
      -842.8484       -656.7654
  22513005.6604  -13933732.68948 -10510428.77947  22513004.1604   22513009.7634
      2109.0784       1643.4344
  24291996.9754     227518.75747    191346.58745  24291996.2354   24292002.4754
     -2945.9114      -2295.5144
  20958278.0964  -17023148.85749 -13032546.93247  20958277.6274   20958282.0524
      -799.8114       -623.2304
  21507673.1804  -17961694.98248 -13730560.07747  21507672.4304   21507677.4364
      1845.1894       1437.8084
  23441108.3474   -2386529.98748  -1841562.16546  23441106.9774   23441112.7564
     -2675.9654      -2085.1704
 00  1  6  1  3  0.0010000  0  7G 8G 9G 5G 2G 4G24G 7
  23029578.9524   -5855531.90048  -4550574.25846  23029577.6574   23029584.1364
     -3956.4434      -3082.9424
  21454680.6754  -16412945.84849 -12560987.74847  21454679.6264   21454683.8324
      -863.6544       -672.9774
  22500983.2864  -13996906.07548 -10559654.75146  22500982.1964   22500987.6614
      2102.5844       1638.3754
  24308845.4014     316052.98547    260334.28045  24308844.1564   24308850.1494
     -2956.3494      -2303.6454
  20962909.2574  -16998814.21649 -13013584.85947  20962908.5984   20962912.5964
      -822.5094       -640.9174
  21497187.6034  -18016795.89848 -13773495.81147  21497186.9704   21497192.3944
      1828.1904       1424.5624
  23456398.3044   -2306182.11148  -1778953.42746  23456396.8304   23456402.0574
     -2680.4574      -2088.6684
 00  1  6  1  3 30.0010000  0  7G 8G 9G 5G 2G 4G24G 7
  23052186.8664   -5736726.88148  -4457998.95546  23052185.5064   23052191.8044
     -3962.2294      -3087.4514
  21459665.4134  -16386750.41849 -12540575.72747  21459664.4734   21459668.7314
      -881.1754       -686.6294
  22488995.0644  -14059906.79548 -10608746.18546  22488993.8174   22488998.7784
      2098.9844       1635.5724
  24325749.9014     404886.52547    329555.21545  24325748.4404   24325755.8324
     -2964.1684      -2309.7404
  20967663.5244  -16973826.77149 -12994114.11047  20967663.1024   20967667.3564
      -841.6804       -655.8554
  21486795.9854  -18071406.73349 -13816049.66247  21486795.0564   21486800.0284
      1814.0934       1413.5784
  23471706.0884   -2225739.33848  -1716270.73746  23471704.7004   23471710.7604
     -2680.8524      -2088.9764
 00  1  6  1  4  0.0010000  0  7G 8G 9G 5G 2G 4G24G 7
  23074821.0474   -5617785.40448  -4365317.30246  23074819.8474   23074825.4654
     -3969.0964      -3092.8004
  21464743.9364  -16360061.19449 -12519778.92747  21464743.1454   21464747.4794
      -899.7354       -701.0914
  22477020.8904  -14122830.62248 -10657777.69147  22477019.8694   22477025.1824
      2094.1874       1631.8324
  24342689.3644     493907.09447    398921.84545  24342688.3994   24342694.7944
     -2972.1424      -2315.9534
  20972520.0754  -16948307.03649 -12974228.58747  20972519.6524   20972523.7234
      -861.5504       -671.3384
  21476478.6574  -18125623.79949 -13858296.67747  21476477.9654   21476483.2504
      1798.5584       1401.4734
  23487009.5274   -2145320.27348  -1653606.51946  23487007.9744   23487013.5224
     -2682.2304      -2090.0494
 00  1  6  1  4 30.0010000  0  7G 8G 9G 5G 2G 4G24G 7
  23097493.7874   -5498634.74148  -4272472.64946  23097492.4484   23097499.0964
     -3972.3184      -3095.3114
  21469927.0354  -16332822.52149 -12498553.98447  21469926.4204   21469930.8464
      -914.3414       -712.4724
  22465076.3664  -14185603.15848 -10706691.31247  22465075.0974   22465079.9804
      2092.4834       1630.5064
  24359673.2754     583155.18047    468465.79045  24359672.0734   24359678.9834
     -2975.8954      -2318.8794
  20977489.1764  -16922193.63549 -12953880.47047  20977488.7384   20977493.1714
      -877.5744       -683.8234
  21466251.2444  -18179367.74949 -13900175.03147  21466250.5404   21466256.1624
      1786.1294       1391.7874
  23502318.4144   -2064869.12548  -1590917.30746  23502317.3784   23502322.9364
     -2679.4254      -2087.8614
 00  1  6  1  5  0.0010000  0  7G 8G 9G 5G 2G 4G24G 7
  23120195.9734   -5379338.16948  -4179514.31946  23120194.7214   23120200.9234
     -3981.0614      -3102.1234
  21475205.5174  -16305085.36049 -12476940.60547  21475204.6894   21475208.9594
      -935.0674       -728.6254
  22453151.4394  -14248267.21348 -10755520.40847  22453150.5814   22453155.6754
      2085.0244       1624.6914
  24376689.7084     672576.44247    538144.68645  24376688.3454   24376694.5264
     -2985.7794      -2326.5814
  20982560.6104  -16895542.14849 -12933113.06247  20982560.2394   20982564.5774
      -899.6184       -701.0024
  21456106.7094  -18232678.09949 -13941715.52047  21456105.9924   21456111.4604
      1767.6714       1377.4044
  23517621.9104   -1984448.44748  -1528251.83746  23517620.6654   23517627.0044
     -2682.4574      -2090.2254
 00  1  6  1  5 30.0010000  0  7G 8G 9G 5G 2G 4G24G 7
  23142949.4764   -5259765.86048  -4086341.11946  23142948.3324   23142954.4214
     -3990.4624      -3109.4494
  21480605.4674  -16276708.11949 -12454828.46047  21480604.7604   21480609.0174
      -956.6584       -745.4484
  22441270.5424  -14310697.36548 -10804167.23047  22441269.4664   22441275.3804
      2077.2034       1618.5994
  24393763.6584     762300.47647    608059.52145  24393761.8974   24393768.5414
     -2995.4794      -2334.1364
  20987760.3534  -16868219.36649 -12911822.57047  20987759.7844   20987763.9174
      -921.7574       -718.2524
  21446069.9444  -18285420.86049 -13982813.73047  21446069.2234   21446074.6854
      1748.7054       1362.6264
  23532946.3804   -1903918.83148  -1465501.47546  23532945.3474   23532950.5624
     -2686.2944      -2093.2154
 00  1  6  1  6  0.0010000  0  7G 8G 9G 5G 2G 4G24G 7
  23165742.2734   -5139993.40548  -3993011.94746  23165740.4894   23165746.3254
     -3993.5374      -3111.8464
  21486111.2664  -16247776.85049 -12432284.60247  21486110.2074   21486114.3124
      -970.9884       -756.6144
  22429416.7724  -14372989.43848 -10852706.45747  22429415.7654   22429421.3884
      2076.6424       1618.1614
  24410872.8824     852215.67447    678123.31845  24410872.2744   24410879.4414
     -2997.9944      -2336.0954
  20993070.0804  -16840317.18249 -12890080.59147  20993069.5754   20993073.5114
      -937.5214       -730.5374
  21436124.1444  -18337687.75849 -14023541.14047  21436123.1904   21436128.5024
      1736.7704       1353.3254
  23548276.9394   -1823359.57448  -1402728.01146  23548275.5594   23548280.3344
     -2683.5574      -2091.0824
 00  1  6  1  6 30.0010000  0  7G 8G 9G 5G 2G 4G24G 7
  23188561.2374   -5020075.21648  -3899569.22046  23188559.4984   23188566.0864
     -3999.6414      -3116.6034
  21491708.2104  -16218362.91649 -12409364.64247  21491707.3524   21491711.4954
      -988.8264       -770.5154
  22417576.2944  -14435209.60648 -10901189.66047  22417575.3754   22417581.0374
      2072.6334       1615.0374
  24428012.1154     942275.90547    748300.11445  24428010.4634   24428016.9374
     -3004.9844      -2341.5484
  20998480.0314  -16811887.18749 -12867927.33447  20998479.4824   20998483.5134
      -956.7114       -745.4904
  21426256.4804  -18389542.21649 -14063947.17047  21426255.7294   21426260.5764
      1721.3764       1341.3294
  23563599.4744   -1742833.69248  -1339980.56246  23563598.1834   23563603.9944
     -2683.7914      -2091.2664
 00  1  6  1  7  0.0010000  0  7G 8G 9G 5G 2G 4G24G 7
  23211414.1944   -4899980.69148  -3805989.10046  23211412.9564   23211419.6224
     -4005.7934      -3121.3964
  21497407.6954  -16188412.83349 -12386026.90147  21497406.8034   21497411.3224
     -1006.7104       -784.4514
  22405756.7094  -14497324.72648 -10949590.99447  22405755.7524   22405760.8874
      2069.3774       1612.4994
  24445191.4774    1032556.51947    818648.63845  24445189.7844   24445196.8234
     -3012.6814      -2347.5414
  21004000.0824  -16782879.75549 -12845324.12647  21003999.5274   21004003.3544
      -976.1944       -760.6714
  21416474.5014  -18440944.60949 -14104000.94247  21416473.8434   21416478.9994
      1706.5474       1329.7774
  23578923.6494   -1662307.08948  -1277232.54446  23578922.4164   23578927.4374
     -2683.7744      -2091.2544
 00  1  6  1  7 30.0010000  0  7G 8G 9G 5G 2G 4G24G 7
  23234301.2264   -4779711.94348  -3712273.22946  23234299.7324   23234305.8054
     -4012.1634      -3126.3624
  21503207.9544  -16157932.19149 -12362275.74347  21503207.0874   21503211.5774
     -1025.3044       -798.9384
  22393957.2554  -14559331.84048 -10997908.19247  22393956.2944   22393960.9564
      2064.5244       1608.7194
  24462413.1054    1123059.57647    889170.48345  24462411.6764   24462419.2214
     -3020.6424      -2353.7484
  21009630.1264  -16753292.43349 -12822269.05247  21009629.7464   21009633.3564
      -996.2274       -776.2814
  21406777.4174  -18491902.83449 -14143708.61747  21406776.7124   21406781.9054
      1690.6494       1317.3884
  23594245.9304   -1581787.49148  -1214489.98446  23594244.6914   23594250.1564
     -2684.2674      -2091.6394
 00  1  6  1  8  0.0010000  0  7G 8G 9G 5G 2G 4G24G 7
  23257215.6654   -4659293.67348  -3618440.82046  23257214.3314   23257220.8324
     -4014.1704      -3127.9294
  21509108.7934  -16126921.54949 -12338111.59447  21509108.1864   21509112.7604
     -1040.4554       -810.7454
  22382180.0124  -14621224.28348 -11046136.02047  22382178.3854   22382183.6204
      2063.1994       1607.6864
  24479675.1874    1213771.53947    959855.11945  24479673.8884   24479680.4324
     -3025.3444      -2357.4124
  21015368.5034  -16723137.71249 -12798771.84847  21015367.9764   21015371.9014
     -1012.5594       -789.0084
  21397164.5164  -18542418.08449 -14183071.11147  21397163.8864   21397169.2024
      1678.4504       1307.8824
  23609565.6454   -1501282.06048  -1151758.47146  23609564.4604   23609570.4244
     -2681.5084      -2089.4884
 00  1  6  1  8 30.0010000  0  7G 8G 9G 5G 2G 4G24G 7
  23280148.5924   -4538778.02048  -3524532.55246  23280147.7834   23280154.3794
     -4021.4634      -3133.6064
  21515105.9684  -16095405.05749 -12313553.27647  21515105.3474   21515109.9414
     -1061.9124       -827.4634
  22370419.2124  -14683025.47848 -11094292.75247  22370418.0384   22370423.1554
      2055.6404       1601.7974
  24496972.7154    1304672.41247   1030686.96245  24496972.6064   24496978.1454
     -3035.8074      -2365.5594
  21021207.8264  -16692449.46649 -12774858.90747  21021207.6864   21021211.6134
     -1034.6314       -806.2074
  21387631.8164  -18592512.40149 -14222105.60447  21387631.3154   21387636.7174
      1659.8514       1293.3904
  23624879.2924   -1420807.35348  -1089050.89546  23624878.2734   23624884.1454
     -2685.0464      -2092.2454
 00  1  6  1  9  0.0010000  0  7G 8G 9G 5G 2G 4G24G 7
  23303114.5894   -4418090.05248  -3430490.02246  23303113.7194   23303120.6414
     -4026.2594      -3137.3474
  21521217.2254  -16063290.67049 -12288529.07047  21521216.7094   21521221.2844
     -1080.6304       -842.0504
  22358691.1304  -14744654.02348 -11142314.94747  22358689.9864   22358695.9104
      2051.1144       1598.2694
  24514318.0264    1395820.76147   1101711.66845  24514316.5024   24514322.3184
     -3042.2884      -2370.6134
  21027164.0994  -16661149.15149 -12750469.03247  21027163.8374   21027167.8424
     -1053.6704       -821.0444
  21378195.9854  -18642098.71649 -14260744.25647  21378195.4884   21378200.7104
      1644.1404       1281.1464
  23640204.9314   -1340267.33148  -1026292.44046  23640204.1214   23640209.5654
     -2686.2194      -2093.1564
 00  1  6  1  9 30.0010000  0  7G 8G 9G 5G 2G 4G24G 7
  23326094.0254   -4297334.49147  -3336394.79546  23326093.2704   23326099.6374
     -4026.5164      -3137.5424
  21527421.3394  -16030687.12349 -12263123.69447  21527420.8474   21527425.6264
     -1095.2274       -853.4254
  22346976.4244  -14806215.05148 -11190284.53047  22346975.3944   22346980.9794
      2050.8254       1598.0444
  24531681.4714    1487070.08047   1172815.01545  24531680.3534   24531687.9444
     -3043.3384      -2371.4244
  21033212.3454  -16629364.33849 -12725701.62347  21033212.0274   21033216.2874
     -1067.5774       -831.8794
  21368836.6814  -18691282.33249 -14299069.10847  21368835.9354   21368841.3884
      1632.5424       1272.1094
  23655525.8144   -1259758.98148   -963558.62746  23655524.5884   23655529.5004
     -2683.3874      -2090.9544
 00  1  6  1 10  0.0010000  0  7G 8G 9G 5G 2G 4G24G 7
  23349094.3664   -4176464.97147  -3242210.76146  23349093.3724   23349100.3234
     -4031.2874      -3141.2614
  21533727.6044  -15997547.11049 -12237300.29247  21533727.1004   21533731.9634
     -1113.6034       -867.7434
  22335280.4734  -14867676.66548 -11238176.65147  22335279.8414   22335285.1514
      2046.8534       1594.9504
  24549073.2654    1578461.99147   1244029.47545  24549073.0484   24549079.3314
     -3049.1934      -2376.0004
  21039358.3814  -16597064.84849 -12700533.17147  21039358.1664   21039362.5654
     -1085.5524       -845.8854
  21359560.3904  -18740026.30449 -14337051.38247  21359560.1494   21359565.7974
      1617.3464       1260.2684
  23670848.9544   -1179233.96748   -900811.84046  23670848.0194   23670852.7794
     -2684.6574      -2091.9424
 00  1  6  1 10 30.0010000  0  7G 8G 9G 5G 2G 4G24G 7
  23372124.7774   -4055442.07448  -3147907.23746  23372123.6674   23372130.7024
     -4038.7154      -3147.0504
  21540138.6354  -15963855.93549 -12211047.41747  21540138.0874   21540143.1154
     -1134.2854       -883.8594
  22323609.0484  -14929010.54048 -11285969.24047  22323607.9594   22323613.4634
      2040.2764       1589.8224
  24566498.6154    1670031.34447   1315382.21345  24566497.5234   24566504.0554
     -3057.3724      -2382.3724
  21045609.4034  -16564215.21449 -12674936.03647  21045609.2774   21045613.6974
     -1106.3304       -862.0754
  21350371.9084  -18788313.12049 -14374677.43847  21350371.4294   21350376.8424
      1600.0274       1246.7744
  23686178.0424   -1098677.88748   -838040.84746  23686176.8184   23686182.6324
     -2687.6444      -2094.2694
 00  1  6  1 11  0.0010000  0  7G 8G 9G 5G 2G 4G24G 7
  23395205.9384   -3934148.90347  -3053393.10646  23395204.7404   23395211.4044
     -4047.5404      -3153.9244
  21546674.8614  -15929508.62849 -12184283.26947  21546674.3544   21546679.2634
     -1155.6504       -900.5064
  22311982.2294  -14990111.15148 -11333580.06147  22311981.1774   22311986.7364
      2032.8904       1584.0694
  24583980.1364    1761897.76847   1386966.45445  24583978.6314   24583984.6264
     -3067.3054      -2390.1054
  21051986.5394  -16530703.67249 -12648823.12547  21051986.3884   21051990.6344
     -1127.9204       -878.8994
  21341289.0874  -18836044.57649 -14411870.74547  21341288.3684   21341293.7914
      1581.9214       1232.6664
  23701531.2884   -1017995.23248   -775171.22046  23701530.3624   23701536.8764
     -2691.3484      -2097.1534
 00  1  6  1 11 30.0010000  0  7G 8G 9G 5G 2G 4G24G 7
  23418325.2674   -3812654.49047  -2958722.16145  23418324.3404   23418331.3974
     -4051.1044      -3156.7034
  21553322.5694  -15894576.49749 -12157063.41547  21553321.9824   21553326.7954
     -1172.0624       -913.2964
  22300389.4234  -15051030.54048 -11381049.67647  22300388.5754   22300394.2704
      2029.4684       1581.4024
  24601510.9074    1854021.40247   1458751.14645  24601509.2544   24601515.5364
     -3073.3384      -2394.8064
  21058477.6434  -16496592.83949 -12622243.23547  21058477.4044   21058481.8434
     -1145.2594       -892.4114
  21332300.1734  -18883282.69549 -14448679.63447  21332299.6004   21332304.7774
      1568.2214       1221.9894
  23716895.9874    -937256.30748   -712257.76246  23716895.0944   23716900.7544
     -2690.2954      -2096.3364
 00  1  6  1 12  0.0010000  0  7G 8G 9G 5G 2G 4G24G 7
  23441465.3644   -3691057.97447  -2863971.65746  23441464.0964   23441469.6414
     -4056.4894      -3160.9014
  21560062.0594  -15859159.02349 -12129465.37247  21560061.4514   21560066.4294
     -1190.3224       -927.5244
  22288817.5554  -15111839.78948 -11428433.45947  22288816.5984   22288822.5544
      2023.1354       1576.4684
  24619077.9424    1946339.25947   1530687.13345  24619077.0064   24619083.1804
     -3082.1984      -2401.7194
  21065071.2024  -16461946.00949 -12595245.68647  21065070.7414   21065074.9944
     -1165.8754       -908.4754
  21323390.1524  -18930104.37549 -14485164.02347  21323389.7994   21323394.9254
      1551.7224       1209.1324
  23732252.9934    -856554.74848   -649373.41846  23732251.9684   23732257.6964
     -2691.1664      -2097.0124
 00  1  6  1 12 30.0010000  0  7G 8G 9G 5G 2G 4G24G 7
  23464641.9304   -3569260.02947  -2769064.15545  23464641.2334   23464647.3674
     -4061.2324      -3164.5954
  21566915.5274  -15823145.48149 -12101402.86447  21566914.8064   21566919.6984
     -1208.5284       -941.7104
  22277290.8604  -15172414.86648 -11475634.77847  22277289.8454   22277295.4174
      2017.3744       1571.9774
  24636701.9674    2038954.23147   1602854.68345  24636701.0554   24636706.9904
     -3090.0784      -2407.8634
  21071791.1064  -16426630.04249 -12567726.73447  21071790.8564   21071795.3524
     -1186.3694       -924.4444
  21314585.3324  -18976374.08649 -14521218.30847  21314584.7474   21314589.9454
      1534.8514       1195.9874
  23747623.1574    -775782.32548   -586433.85646  23747622.2674   23747627.5334
     -2691.7844      -2097.4964
 00  1  6  1 13  0.0010000  0  7G 8G 9G 5G 2G 4G24G 7
  23487841.3604   -3447341.65647  -2674062.85045  23487841.1604   23487847.9154
     -4065.6634      -3168.0454
  21573869.1634  -15786603.54749 -12072928.62447  21573868.4514   21573873.3754
     -1226.6114       -955.8034
  22265794.6234  -15232827.86448 -11522709.80047  22265793.5094   22265798.9604
      2011.1074       1567.0964
  24654367.0464    2131785.17847   1675190.47845  24654365.9964   24654372.9274
     -3097.3344      -2413.5064
  21078625.1224  -16390717.98449 -12539743.29647  21078624.9004   21078629.3094
     -1206.8144       -940.3754
  21305876.3644  -19022140.07649 -14556880.08347  21305875.6704   21305880.9364
      1517.1344       1182.1814
  23762995.6864    -695001.68248   -523487.86646  23762994.4314   23762999.9264
     -2692.7104      -2098.2174
 00  1  6  1 13 30.0010000  0  7G 8G 9G 5G 2G 4G24G 7
  23511071.0384   -3325277.40847  -2578947.89846  23511069.7694   23511076.6594
     -4072.0434      -3173.0194
  21580928.9024  -15749503.91049 -12044019.81147  21580928.2114   21580933.2244
     -1246.6214       -971.3934
  22254338.4214  -15293032.75648 -11569622.66647  22254337.4474   22254342.0754
      2002.6524       1560.5094
  24672073.6054    2224832.97647   1747695.23845  24672073.2804   24672078.7614
     -3105.7084      -2420.0354
  21085578.7094  -16354176.91649 -12511269.72547  21085578.4514   21085582.8064
     -1229.2634       -957.8674
  21297272.3824  -19067354.10149 -14592111.75847  21297271.7474   21297277.1104
      1497.1094       1166.5784
  23778374.8484    -614182.21948   -460511.62946  23778373.5844   23778378.8344
     -2695.4854      -2100.3784
 00  1  6  1 14  0.0010000  0  7G 8G 9G 5G 2G 4G24G 7
  23534343.2574   -3202983.71947  -2483654.14446  23534341.8264   23534347.5484
     -4079.3844      -3178.7384
  21588110.6664  -15711764.08249 -12014612.15047  21588109.9194   21588114.7654
     -1267.8264       -987.9174
  22242935.2804  -15352957.07848 -11616316.91347  22242934.2044   22242938.6924
      1993.9464       1553.7244
  24689833.5484    2318162.11547   1820419.27345  24689832.1554   24689839.4254
     -3114.5134      -2426.8924
  21092666.5994  -16316933.09549 -12482248.55247  21092666.0514   21092670.0014
     -1252.0894       -975.6554
  21288788.9974  -19111934.51049 -14626849.70647  21288788.4124   21288793.6624
      1476.6654       1150.6474
  23793775.9974    -533244.87548   -397443.54546  23793775.2504   23793780.5734
     -2698.9074      -2103.0444
 00  1  6  1 14 30.0010000  0  7G 8G 9G 5G 2G 4G24G 7
  23557640.8104   -3080546.58147  -2388248.59845  23557640.7604   23557646.3604
     -4083.1134      -3181.6474
  21595397.9394  -15673468.95749 -11984771.79247  21595397.1694   21595401.8674
     -1284.9894      -1001.2894
  22231563.5974  -15412714.03148 -11662880.74547  22231562.4754   22231567.0994
      1989.8334       1550.5184
  24707626.9244    2411665.77347   1893279.29645  24707625.7784   24707631.7984
     -3119.1544      -2430.5074
  21099864.7444  -16279105.18849 -12452772.24847  21099864.4164   21099868.4114
     -1269.6894       -989.3684
  21280404.0964  -19156000.17949 -14661186.56047  21280403.2594   21280408.1574
      1461.1704       1138.5744
  23809182.6824    -452286.97248   -334359.45546  23809181.2964   23809187.2514
     -2698.5534      -2102.7694
 00  1  6  1 15  0.0010000  0  7G 8G 9G 5G 2G 4G24G 7
  23580948.7084   -2958068.09147  -2292810.82345  23580947.3434   23580952.9344
     -4084.8964      -3183.0344
  21602767.8894  -15634739.63849 -11954593.10147  21602767.0624   21602771.4954
     -1299.6164      -1012.6894
  22220203.7334  -15472410.41748 -11709397.37747  22220202.5324   22220207.2284
      1987.4264       1548.6434
  24725434.0004    2505243.17647   1966196.79145  24725432.7304   24725438.5454
     -3122.0234      -2432.7424
  21107148.0194  -16240832.29549 -12422949.19947  21107147.6514   21107151.5024
     -1284.3904      -1000.8254
  21272090.1874  -19199688.12749 -14695229.08547  21272089.4654   21272094.6304
      1448.7824       1128.9204
  23824572.5614    -371409.93148   -271338.35746  23824571.4064   23824578.0284
     -2696.0544      -2100.8224
 00  1  6  1 15 30.0010000  0  7G 8G 9G 5G 2G 4G24G 7
  23604288.7714   -2835413.67347  -2197235.97945  23604287.7594   23604294.4534
     -4091.2304      -3187.9704
  21610244.1624  -15595451.09649 -11923978.65247  21610243.5024   21610248.1474
     -1318.8734      -1027.6944
  22208878.3004  -15531927.13848 -11755774.00647  22208877.1354   22208881.6814
      1981.1594       1543.7594
  24743283.3674    2599040.99147   2039286.04145  24743281.9184   24743289.5964
     -3130.5054      -2439.3494
  21114535.6814  -16202009.80249 -12392697.89047  21114535.2044   21114539.0584
     -1303.0374      -1015.3554
  21263868.3784  -19242893.22649 -14728895.36647  21263867.6884   21263872.9144
      1432.2914       1116.0694
  23839971.8164    -290491.40648   -208284.96146  23839970.5024   23839975.8844
     -2697.9454      -2102.2974
 00  1  6  1 16  0.0010000  0  7G 8G 9G 5G 2G 4G24G 7
  23627650.2094   -2712651.42047  -2101577.13546  23627648.8174   23627655.3344
     -4095.1744      -3191.0394
  21617813.9624  -15555670.95649 -11892981.14247  21617813.1924   21617817.8634
     -1335.4474      -1040.6084
  22197572.4674  -15591340.31348 -11802069.95347  22197571.0694   22197576.1084
      1977.3354       1540.7784
  24761166.9224    2693019.12647   2112515.76445  24761163.7984   24761172.7014
     -3137.0624      -2444.4554
  21122013.3684  -16162714.39449 -12362078.07947  21122012.9594   21122016.8924
     -1319.1894      -1027.9404
  21255722.8914  -19285697.87649 -14762249.61247  21255722.1844   21255727.4364
      1418.9444       1105.6704
  23855365.3074    -209598.19448   -145251.26946  23855364.2484   23855369.1264
     -2697.4264      -2101.8914
 00  1  6  1 16 30.0010000  0  7G 8G 9G 5G 2G 4G24G 7
  23651046.7154   -2589701.13647  -2005771.75945  23651045.9354   23651051.2094
     -4102.1364      -3196.4654
  21625491.2074  -15515326.44649 -11861543.86347  21625490.5464   21625495.2084
     -1354.6664      -1055.5854
  22186302.3254  -15650561.34148 -11848216.17447  22186301.2774   22186306.7774
      1969.9864       1535.0544
  24779103.2004    2787278.33547   2185964.45845  24779102.7784   24779108.7564
     -3147.4734      -2452.5794
  21129598.3094  -16122855.21649 -12331018.97047  21129597.8344   21129601.6264
     -1338.7714      -1043.1984
  21247669.4384  -19328019.92649 -14795227.80447  21247668.6914   21247673.6984
      1401.6764       1092.2164
  23870769.4054    -128644.65748    -82170.56546  23870768.1744   23870773.4254
     -2700.2574      -2104.0974
 00  1  6  1 17  0.0010000  0  7G 8G 9G 5G 2G 4G24G 7
  23674483.0924   -2466539.77047  -1909801.87445  23674482.0364   23674487.4524
     -4108.1714      -3201.1664
  21633280.2184  -15474396.03049 -11829650.03447  21633279.5214   21633283.9044
     -1373.5804      -1070.3234
  22175076.4014  -15709556.23048 -11894186.18047  22175075.2734   22175080.6104
      1963.3864       1529.9114
  24797101.1474    2881854.62047   2259660.30245  24797100.0264   24797105.0744
     -3157.1064      -2460.0864
  21137296.9614  -16082397.78849 -12299493.69447  21137296.5944   21137300.3404
     -1358.2104      -1058.3464
  21239717.8724  -19369806.69949 -14827788.89947  21239717.0924   21239721.9434
      1384.2944       1078.6704
  23886188.5304     -47612.09948    -19028.28946  23886187.5694   23886193.6954
     -2701.6784      -2105.2044
 00  1  6  1 17 30.0010000  0  7G 8G 9G 5G 2G 4G24G 7
  23697954.3014   -2343192.27647  -1813686.96945  23697953.7974   23697960.3954
     -4114.8204      -3206.3484
  21641179.4734  -15432885.50249 -11797304.16747  21641178.6874   21641183.1944
     -1393.5464      -1085.8804
  22163890.0274  -15768338.59848 -11939990.57847  22163889.0604   22163894.3194
      1955.4664       1523.7384
  24815154.2494    2976727.09947   2333586.96645  24815153.7024   24815158.5184
     -3167.5134      -2468.1874
  21145112.4464  -16041325.38949 -12267489.21447  21145112.1964   21145116.0494
     -1380.0454      -1075.3604
  21231870.2974  -19411044.55549 -14859922.26347  21231869.5954   21231874.6114
      1364.9164       1063.5714
  23901619.3004      33470.71348     44153.12746  23901618.1374   23901622.6774
     -2703.9904      -2107.0094
 00  1  6  1 18  0.0010000  0  7G 8G 9G 5G 2G 4G24G 7
  23721458.3324   -2219692.42547  -1717453.35245  23721455.9604   23721462.3294
     -4117.3634      -3208.3374
  21649185.0814  -15390816.36149 -11764523.02647  21649184.3314   21649188.7004
     -1409.8594      -1098.5914
  22152743.6344  -15826913.21648 -11985633.10247  22152742.4234   22152747.9614
      1950.6404       1519.9784
  24833259.3344    3071867.19847   2407722.16045  24833258.4064   24833263.7134
     -3173.8354      -2473.1244
  21153046.5154  -15999631.84449 -12235000.72947  21153046.1694   21153050.1844
     -1398.4704      -1089.7184
  21224126.2514  -19451737.83749 -14891631.29547  21224125.8704   21224131.1134
      1349.0354       1051.1944
  23917055.3244     114585.83848    107359.73746  23917053.9574   23917059.3154
     -2702.6384      -2105.9574
 00  1  6  1 18 30.0010000  0  7G 8G 9G 5G 2G 4G24G 7
  23744963.7654   -2096160.99447  -1621195.13445  23744963.0474   23744969.8084
     -4118.0984      -3208.9074
  21657277.0314  -15348292.66549 -11731387.68047  21657276.3724   21657280.5314
     -1424.9644      -1110.3624
  22141617.0324  -15885381.90948 -12031193.08547  22141616.1524   22141621.5644
      1947.3134       1517.3854
  24851391.6774    3167155.12847   2481972.49845  24851389.0844   24851397.6064
     -3178.3264      -2476.6134
  21161078.5014  -15957422.41949 -12202110.25647  21161078.1414   21161082.1024
     -1415.3194      -1102.8474
  21216468.3624  -19491981.02149 -14922989.59947  21216467.6944   21216472.9534
      1333.8914       1039.3954
  23932474.6584     195617.46348    170501.29846  23932473.6604   23932478.9914
     -2699.5824      -2103.5734
 00  1  6  1 19  0.0010000  0  7G 8G 9G 5G 2G 4G24G 7
  23768483.6864   -1972560.50947  -1524883.11545  23768482.3814   23768490.2084
     -4122.0514      -3211.9844
  21665465.3904  -15305260.80549 -11697856.36147  21665464.8594   21665469.0514
     -1443.9644      -1125.1664
  22130519.6424  -15943699.05848 -12076634.98047  22130518.9294   22130524.2254
      1940.2974       1511.9204
  24869555.9904    3262612.92547   2556355.19845  24869554.4624   24869561.5874
     -3185.5634      -2482.2664
  21169215.9694  -15914658.20049 -12168787.47447  21169215.7354   21169219.9494
     -1435.9484      -1118.9204
  21208905.1984  -19531725.30749 -14953959.14347  21208904.5884   21208910.0634
      1315.5444       1025.0994
  23947885.5904     276606.95448    233610.01046  23947884.7444   23947890.5444
     -2700.2914      -2104.1234
 00  1  6  1 19 30.0010000  0  7G 8G 9G 5G 2G 4G24G 7
  23792014.8764   -1848908.96347  -1428531.32945  23792013.7374   23792019.8284
     -4124.2724      -3213.7164
  21673748.7924  -15261730.50349 -11663936.64647  21673748.2974   21673752.7504
     -1460.9224      -1138.3824
  22119451.4744  -16001863.18048 -12121957.64147  22119450.7154   22119455.5744
      1934.7094       1507.5644
  24887749.0504    3358221.24547   2630855.24545  24887748.9894   24887755.7324
     -3191.1634      -2486.6164
  21177459.9294  -15871334.68649 -12135028.88447  21177459.8194   21177463.9014
     -1454.8934      -1133.6844
  21201434.2434  -19570984.59849 -14984550.77447  21201433.6814   21201438.9114
      1299.0584       1012.2534
  23963292.4144     357573.05648    296700.48046  23963291.4814   23963298.3324
     -2700.3844      -2104.1934
 00  1  6  1 20  0.0010000  0  7G 8G 9G 5G 2G 4G24G 7
  23815569.2354   -1725125.32847  -1332076.56845  23815568.4154   23815574.5774
     -4128.7784      -3217.2234
  21682143.0114  -15217618.50649 -11629563.66447  21682142.5904   21682146.9164
     -1480.5784      -1153.6974
  22108426.1394  -16059800.40848 -12167103.49547  22108425.3244   22108430.6234
      1927.1114       1501.6444
  24905986.3374    3454057.25147   2705532.67245  24905985.6334   24905990.8514
     -3198.5184      -2492.3474
  21185821.9854  -15827393.84749 -12100789.25547  21185821.6754   21185825.5824
     -1475.1794      -1149.4904
  21194069.1764  -19609687.08049 -15014708.52547  21194068.7374   21194074.2184
      1280.2574        997.6034
  23978712.8594     438605.82848    359842.89846  23978712.2224   23978717.6134
     -2702.7244      -2106.0184
 00  1  6  1 20 30.0010000  0  6G 8G 9G 5G 4G24G 7
  23839158.5464   -1601163.56047  -1235482.97545  23839157.4214   23839164.5504
     -4133.6184      -3220.9994
  21690655.6744  -15172883.54049 -11594705.24847  21690655.1214   21690659.6414
     -1499.8824      -1168.7374
  22097449.0934  -16117485.56348 -12212052.92447  22097448.0464   22097453.7734
      1920.3584       1496.3824
  21194305.2244  -15782814.46049 -12066052.05447  21194304.9174   21194309.1044
     -1495.0264      -1164.9564
  21186818.5654  -19647787.11649 -15044396.83647  21186818.0364   21186823.6454
      1261.5494        983.0244
  23994154.4094     519751.75348    423073.52646  23994153.4194   23994158.6114
     -2705.5814      -2108.2434
 00  1  6  1 21  0.0010000  0  6G 8G 9G 5G 4G24G 7
  23862773.8824   -1477064.18147  -1138782.21745  23862772.3154   23862780.0754
     -4137.6664      -3224.1514
  21699275.6524  -15127584.50849 -11559407.30047  21699275.2184   21699280.0504
     -1517.9694      -1182.8354
  22086509.1274  -16174973.59248 -12256848.74347  22086508.0884   22086514.0324
      1914.1034       1491.5084
  21202900.7494  -15737643.80249 -12030854.12447  21202900.5164   21202904.9934
     -1514.4994      -1180.1294
  21179673.8104  -19685334.01349 -15073654.13347  21179673.3084   21179678.8914
      1243.5064        968.9654
  24009612.3474     600983.17048    486370.77446  24009611.4544   24009616.9484
     -2707.9304      -2110.0774
 00  1  6  1 21 30.0010000  0  6G 8G 9G 5G 4G24G 7
  23886407.4304   -1352869.30847  -1042007.06545  23886406.4144   23886413.6104
     -4141.8354      -3227.4034
  21707993.1344  -15081772.78649 -11523709.85447  21707992.6264   21707997.7004
     -1535.8514      -1196.7674
  22075600.8364  -16232295.42148 -12301515.05947  22075600.0634   22075605.7054
      1907.6534       1486.4824
  21211601.7074  -15691921.05449 -11995225.99747  21211601.4844   21211605.7124
     -1533.3744      -1194.8374
  21172628.0174  -19722358.96249 -15102504.71447  21172627.7244   21172633.1234
      1225.0974        954.6204
  24025079.1334     682259.84848    549703.28646  24025078.0494   24025083.7624
     -2710.1554      -2111.8124
 00  1  6  1 22  0.0010000  0  6G 8G 9G 5G 4G24G 7
  23910066.6354   -1228540.38547   -945127.42345  23910065.8184   23910071.8434
     -4146.2924      -3230.8794
  21716814.6304  -15035414.07149 -11487586.18047  21716814.3164   21716819.4804
     -1554.1594      -1211.0354
  22064732.4004  -16289411.34448 -12346020.93747  22064731.6374   22064736.7334
      1900.4194       1480.8454
  21220411.2364  -15645626.44049 -11959152.25647  21220411.1044   21220415.1974
     -1552.5774      -1209.7994
  21165689.5244  -19758821.97549 -15130917.42347  21165689.0494   21165694.5524
      1206.2234        939.9134
  24040556.4704     763597.87548    613083.58046  24040555.3184   24040561.8204
     -2712.1124      -2113.3364
 00  1  6  1 22 30.0010000  0  6G 8G 9G 5G 4G24G 7
  23933746.1274   -1104102.34747   -848162.73145  23933744.9004   23933750.6774
     -4150.9204      -3234.4834
  21725733.7284  -14988544.09949 -11451064.12547  21725733.4564   21725738.5084
     -1571.9304      -1224.8814
  22053901.0704  -16346330.88549 -12390373.79247  22053900.2304   22053905.3514
      1892.5604       1474.7214
  21229325.7724  -15598779.36349 -11922648.02647  21229325.4794   21229329.8764
     -1572.1504      -1225.0534
  21158852.2334  -19794751.20349 -15158914.19647  21158851.8934   21158857.5584
      1187.6404        925.4314
  24056041.3794     844968.89448    676489.56846  24056040.3224   24056046.8084
     -2714.1894      -2114.9544
 00  1  6  1 23  0.0010000  0  6G 8G 9G 5G 4G24G 7
  23957450.2934    -979533.38447   -751096.02445  23957449.8604   23957456.9604
     -4154.6574      -3237.3944
  21734752.8074  -14941148.85049 -11414132.76747  21734752.2694   21734757.6754
     -1588.8744      -1238.0824
  22043116.2534  -16403006.62249 -12434536.66747  22043115.4194   22043120.4074
      1884.6834       1468.5824
  21238352.1124  -15551344.41949 -11885685.71247  21238351.9504   21238356.5904
     -1591.1784      -1239.8824
  21152119.6454  -19830128.62749 -15186480.98947  21152119.4474   21152125.2264
      1169.8734        911.5884
  24071532.3434     926376.82448    739924.32746  24071531.7384   24071537.8634
     -2714.1104      -2114.8904
 00  1  6  1 23 30.0010000  0  6G 8G 9G 5G 4G24G 7
  23981182.4624    -854825.59247   -653921.20245  23981180.9884   23981188.7454
     -4157.0174      -3239.2314
  21743876.0414  -14893205.56849 -11376774.36847  21743875.6344   21743880.8524
     -1605.0774      -1250.7084
  22032381.4624  -16459415.65749 -12478491.72547  22032380.6064   22032386.3774
      1878.3154       1463.6224
  21247490.0534  -15503324.54449 -11848267.61747  21247489.7894   21247494.5914
     -1607.8394      -1252.8634
  21145493.3214  -19864952.07049 -15213616.11547  21145492.9694   21145498.9344
      1154.0334        899.2464
  24087028.6554    1007808.78448    803377.80746  24087027.7124   24087033.4834
     -2712.6344      -2113.7414
 00  1  6  1 24  0.0010000  0  6G 8G 9G 5G 4G24G 7
  24004925.1654    -730058.17447   -556699.90345  24004924.2044   24004930.5924
     -4161.7664      -3242.9344
  21753091.4614  -14844779.30249 -11339039.61347  21753090.9604   21753095.6984
     -1624.2134      -1265.6204
  22021680.7014  -16515646.55249 -12522307.96447  22021679.9744   22021685.7624
      1869.4984       1456.7504
  21256719.8774  -15454820.47449 -11810472.22247  21256719.7734   21256724.5334
     -1626.9394      -1267.7464
  21138954.1264  -19899315.67449 -15240392.91847  21138953.7614   21138959.6254
      1135.8104        885.0464
  24102513.7594    1089181.48448    866785.13046  24102512.7254   24102518.0924
     -2713.5224      -2114.4334
 00  1  6  1 24 30.0010000  0  6G 8G 9G 5G 4G24G 7
  24028693.5084    -605156.92947   -459374.27945  24028691.8384   24028698.3664
     -4166.1394      -3246.3484
  21762414.7254  -14795785.47849 -11300862.60747  21762414.3394   21762419.1374
     -1643.2354      -1280.4424
  22011029.5504  -16571617.72949 -12565921.82347  22011028.8524   22011034.7224
      1860.8314       1449.9984
  21266057.5954  -15405749.82949 -11772235.34647  21266057.4524   21266062.3514
     -1645.8144      -1282.4534
  21132517.7574  -19933138.42449 -15266748.27647  21132517.3724   21132523.4914
      1117.7994        871.0114
  24118003.0314    1170578.27948    930211.24346  24118002.0414   24118007.2794
     -2714.3234      -2115.0584
 00  1  6  1 25  0.0010000  0  6G 8G 9G 5G 4G24G 7
  24052496.2374    -480061.61947   -361897.43545  24052496.2004   24052502.3764
     -4172.8044      -3251.5344
  21771861.7814  -14746140.14649 -11262177.93747  21771861.4184   21771866.2614
     -1665.8074      -1298.0334
  22000440.5804  -16627264.03549 -12609282.53747  22000439.8154   22000445.9994
      1849.6644       1441.2954
  21275516.1934  -15356043.50749 -11733503.14047  21275516.0364   21275520.9294
     -1667.2634      -1299.1664
  21126198.0874  -19966347.87649 -15292625.73947  21126197.7224   21126203.8074
      1096.8264        854.6684
  24133510.5584    1252076.13848    993716.08446  24133509.6204   24133516.2444
     -2718.4684      -2118.2864
 00  1  6  1 25 30.0010000  0  6G 8G 9G 5G 4G24G 7
  24076316.4774    -354893.90847   -264364.21245  24076315.7704   24076322.3764
     -4174.2724      -3252.6734
  21781415.2864  -14695935.27749 -11223057.25347  21781414.8244   21781419.8984
     -1683.5144      -1311.8294
  21989891.4024  -16682698.76949 -12652478.39047  21989890.7504   21989896.6484
      1843.5324       1436.5164
  21285073.1854  -15305820.85849 -11694368.60047  21285073.0434   21285077.9584
     -1683.6914      -1311.9674
  21119975.1164  -19999050.60049 -15318108.35047  21119974.6494   21119980.8284
      1080.5634        841.9974
  24149022.8564    1333592.58448   1057235.39446  24149021.8884   24149027.7764
     -2718.7714      -2118.5254
 00  1  6  1 26  0.0010000  0  6G 8G 9G 5G 4G24G 7
  24100139.5244    -229705.81447   -166815.08745  24100138.5284   24100145.4984
     -4170.7234      -3249.9154
  21791065.5134  -14645225.89249 -11183543.44047  21791064.7744   21791069.9924
     -1696.1494      -1321.6744
  21979374.4054  -16737968.80649 -12695545.91047  21979373.4154   21979378.9354
      1841.9694       1435.3004
  21294722.9464  -15255111.25849 -11654854.61847  21294722.7614   21294727.4094
     -1696.3644      -1321.8414
  21113842.7544  -20031276.03449 -15343219.04647  21113842.3314   21113848.3764
      1068.5374        832.6264
  24164532.9744    1415098.02848   1120746.14246  24164531.9134   24164537.8494
     -2714.2774      -2115.0194
 00  1  6  1 26 30.0010000  0  6G 8G 9G 5G 4G24G 7
  24123945.1184    -104598.79647    -69329.15545  24123944.2094   24123952.0984
     -4169.8014      -3249.1964
  21800790.7914  -14594118.45549 -11143719.46747  21800790.1774   21800795.2934
     -1710.9374      -1333.1964
  21968871.6874  -16793161.56449 -12738553.21747  21968870.7144   21968875.9464
      1837.6914       1431.9684
  21304450.2334  -15203993.14949 -11615022.30947  21304450.3374   21304454.8724
     -1711.5334      -1333.6644
  21107785.2594  -20063108.01049 -15368023.15447  21107784.9494   21107790.9044
      1053.7114        821.0724
  24180024.2994    1496506.85048   1184181.60346  24180023.5514   24180030.3254
     -2713.0234      -2114.0444
 00  1  6  1 27  0.0010000  0  6G 8G 9G 5G 4G24G 7
  24147751.8444      20510.71547     28158.71645  24147751.9344   24147759.1954
     -4173.7224      -3252.2454
  21810604.6554  -14542545.06849 -11103532.41247  21810604.0544   21810609.0954
     -1729.8844      -1347.9624
  21958397.7264  -16848200.40249 -12781440.57947  21958396.8104   21958402.4454
      1828.7384       1424.9894
  21314269.6904  -15152393.55949 -11574814.82147  21314269.5384   21314273.9124
     -1731.1234      -1348.9264
  21101818.4324  -20094463.86149 -15392456.25247  21101818.0404   21101823.9054
      1033.9174        805.6494
  24195513.4254    1577901.87648   1247606.31146  24195512.1934   24195518.1234
     -2716.1274      -2116.4644
 00  1  6  1 27 30.0010000  0  7G 8G 9G 5G30G 4G24G 7
  24171581.8394     145735.24647    125736.23845  24171581.2594   24171587.6664
     -4175.9964      -3254.0214
  21820524.1454  -14490415.93649 -11062912.31047  21820523.8324   21820529.0254
     -1746.5544      -1360.9504
  21947974.3784  -16902971.68949 -12824119.45447  21947973.7554   21947980.1194
      1821.4844       1419.3364
  25118821.0004    -750501.60456   -364374.56145  25118819.8094   25118827.4074
      2888.2874       2250.6084
  21324200.4014  -15100207.42549 -11534150.28547  21324200.2504   21324204.3984
     -1749.3484      -1363.1304
  21095964.0354  -20125228.67849 -15416428.80647  21095963.6584   21095969.4004
      1015.6024        791.3774
  24211018.3044    1659383.54948   1311098.54546  24211017.4794   24211023.8754
     -2717.3654      -2117.4274
 00  1  6  1 28  0.0010000  0  7G 8G 9G 5G30G 4G24G 7
  24195432.4324     271071.66547    223400.95345  24195432.3854   24195439.4674
     -4178.8704      -3256.2584
  21830546.0004  -14437750.93249 -11021874.64447  21830545.5524   21830550.9664
     -1763.5074      -1374.1604
  21937600.8714  -16957486.09049 -12866598.16547  21937600.2594   21937606.2304
      1813.8314       1413.3744
  25102336.5484    -837128.36646   -431875.97644  25102336.3174   25102343.6014
      2887.7914       2250.2334
  21334243.7164  -15047429.02049 -11493024.24047  21334243.6334   21334247.9194
     -1768.1274      -1377.7624
  21090222.9184  -20155398.40349 -15439937.65347  21090222.5284   21090228.0574
       996.7934        776.7224
  24226537.0174    1740936.43848   1374646.28146  24226536.2564   24226542.8094
     -2718.6214      -2118.4054
 00  1  6  1 28 30.0010000  0  7G 8G 9G 5G30G 4G24G 7
  24219294.9484     396470.37747    321114.17945  24219294.1114   24219302.4764
     -4179.9134      -3257.0754
  21840658.7894  -14384607.61149 -10980464.26547  21840658.3444   21840663.6554
     -1778.3074      -1385.6934
  21927266.7104  -17011796.51149 -12908917.93047  21927265.8534   21927271.4494
      1808.1084       1408.9144
  25085852.0794    -923754.66647   -499376.97145  25085851.7984   25085858.4914
      2888.4834       2250.7584
  21344387.8564  -14994121.40949 -11451485.82347  21344387.8984   21344392.1744
     -1784.6574      -1390.6424
  21084584.0914  -20185030.67249 -15463027.70947  21084583.7074   21084589.0744
       979.8014        763.4834
  24242060.1904    1822507.87548   1438208.43546  24242059.7104   24242065.8094
     -2718.3524      -2118.1964
 00  1  6  1 29  0.0010000  0  7G 8G 9G 5G30G 4G24G 7
  24243159.0274     521875.62047    418832.47645  24243158.7134   24243166.0004
     -4181.2494      -3258.1074
  21850852.2034  -14331040.69049 -10938723.80547  21850851.8004   21850857.2344
     -1793.6444      -1397.6434
  21916957.8684  -17065968.43749 -12951129.77447  21916957.2174   21916962.8934
      1802.5144       1404.5564
  25069359.1524   -1010426.81547   -566913.69945  25069359.3444   25069367.2364
      2888.8664       2251.0634
  21354622.3484  -14940339.48749 -11409577.81347  21354622.0524   21354626.6734
     -1801.5324      -1403.7914
  21079036.7164  -20214181.13449 -15485742.32447  21079036.2614   21079041.9694
       962.7254        750.1754
  24257573.8844    1904030.62248   1501732.66346  24257572.9864   24257578.7304
     -2717.5074      -2117.5374
 00  1  6  1 29 30.0010000  0  7G 8G 9G 5G30G 4G24G 7
  24267045.3814     647397.84947    516641.95945  24267044.3974   24267051.8984
     -4186.4304      -3262.1514
  21861150.8924  -14276919.52949 -10896551.47347  21861150.5054   21861156.1034
     -1813.8434      -1413.3844
  21906696.8534  -17119891.55249 -12993147.74547  21906696.1484   21906701.4274
      1792.8624       1397.0344
  25052882.6274   -1097012.63547   -634383.16145  25052882.1094   25052889.3984
      2884.1764       2247.4094
  21364969.0084  -14885966.65949 -11367209.36047  21364968.8454   21364973.4084
     -1822.7414      -1420.3194
  21073602.1654  -20242738.23449 -15507994.57947  21073601.9304   21073607.6584
       941.4584        733.6034
  24273098.6294    1985614.78248   1565304.76646  24273097.5984   24273104.4444
     -2721.1454      -2120.3744
 00  1  6  1 30  0.0010000  0  7G 8G 9G 5G30G 4G24G 7
  24290953.2194     773032.96147    614539.41845  24290952.2424   24290959.2184
     -4188.5664      -3263.8194
  21871556.4394  -14222240.62649 -10853944.53947  21871555.8724   21871561.3094
     -1830.6374      -1426.4714
  21896481.7674  -17173570.27749 -13034975.28347  21896480.8744   21896486.5094
      1786.4154       1392.0114
  25036420.4864   -1183521.33447   -701792.47345  25036419.9734   25036428.3234
      2884.0734       2247.3314
  21375424.3114  -14831021.58949 -11324395.00147  21375424.3284   21375429.3054
     -1839.5214      -1433.3944
  21068279.1424  -20270712.11249 -15529792.37947  21068278.7604   21068284.5644
       924.2914        720.2254
  24288633.7164    2067252.73448   1628918.76246  24288632.8144   24288639.4054
     -2720.8034      -2120.1054
 00  1  6  1 30 30.0010000  0  7G 8G 9G 5G30G 4G24G 7
  24314880.8904     898779.81747    712523.95045  24314880.1024   24314889.4004
     -4193.7844      -3267.8854
  21882066.1524  -14167012.51149 -10810909.64847  21882065.6194   21882070.7594
     -1850.4214      -1441.8874
  21886313.4794  -17227002.45449 -13076610.70247  21886312.5654   21886318.7974
      1776.5214       1384.3004
  25019964.2084   -1269995.65647   -769174.93245  25019964.0964   25019972.4404
      2881.7494       2245.5174
  21385984.4494  -14775526.58749 -11281152.12747  21385984.3244   21385989.4894
     -1859.4574      -1448.9284
  21063062.4414  -20298125.96949 -15551153.79547  21063062.0024   21063068.0984
       904.0554        704.4594
  24304174.8424    2148926.33747   1692560.53846  24304174.1094   24304180.5474
     -2723.3964      -2122.1254
 00  1  6  1 31  0.0010000  0  7G 8G 9G 5G30G 4G24G 7
  24338834.7464    1024654.63447    810608.15345  24338833.6974   24338842.7774
     -4195.0214      -3268.8484
  21892683.8734  -14111215.13349 -10767431.17047  21892683.5534   21892688.6804
     -1866.4134      -1454.3474
  21876198.0614  -17280157.27049 -13118029.99547  21876197.2644   21876203.5564
      1769.7864       1379.0544
  25003514.3234   -1356438.50347   -836532.85345  25003515.5394   25003522.1614
      2883.9024       2247.1794
  21396652.2194  -14719466.56349 -11237468.97547  21396651.9954   21396657.3294
     -1874.9944      -1461.0344
  21057955.3824  -20324963.40149 -15572066.04947  21057954.8524   21057961.1434
       887.8814        691.8534
  24319724.8144    2230642.27147   1756235.30145  24319724.1464   24319730.6034
     -2721.8664      -2120.9344
 00  1  6  1 31 30.0010000  0  7G 8G 9G 5G30G 4G24G 7
  24362791.2144    1150540.68847    908701.12445  24362790.0184   24362797.8694
     -4196.1134      -3269.6944
  21903385.9604  -14054974.45849 -10723607.26747  21903385.5094   21903390.6424
     -1881.4744      -1466.0844
  21866119.2944  -17333124.05049 -13159302.77447  21866118.4254   21866124.2024
      1762.5524       1373.4164
  24987049.0824   -1442970.80847   -903960.55845  24987048.3034   24987053.0004
      2886.3714       2249.1224
  21407403.6894  -14662968.24249 -11193444.29047  21407403.5444   21407408.4764
     -1890.3974      -1473.0374
  21052936.2604  -20351339.92049 -15592619.14747  21052935.8104   21052942.0594
       871.7314        679.2704
  24335264.5264    2312299.61048   1819864.41246  24335263.5804   24335269.5154
     -2720.9554      -2120.2254
 00  1  6  1 32  0.0010000  0  7G 8G 9G 5G30G 4G24G 7
  24386748.6494    1276441.81247   1006805.83345  24386747.7574   24386754.9294
     -4199.0724      -3271.9994
  21914169.4174  -13998306.44549 -10679450.37447  21914168.9674   21914174.2474
     -1898.0734      -1479.0184
  21856080.7854  -17385877.76349 -13200409.52347  21856080.0454   21856085.8184
      1752.8054       1365.8204
  24970563.0434   -1529605.18347   -971467.77645  24970563.0814   24970569.3664
      2887.3484       2249.8814
  21418241.2324  -14606017.55449 -11149067.10747  21418241.0424   21418245.7424
     -1908.1724      -1486.8884
  21048007.0914  -20377243.41949 -15612803.66247  21048006.5134   21048012.7024
       853.4624        665.0344
  24350794.8854    2393912.38448   1883458.81746  24350794.2134   24350800.4684
     -2721.9324      -2120.9894
 00  1  6  1 32 30.0010000  0  7G 8G 9G 5G30G 4G24G 7
  24410717.6894    1402402.85847   1104957.26445  24410716.9414   24410724.8104
     -4198.2954      -3271.3924
  21925043.7414  -13941161.97249 -10634922.21747  21925043.3154   21925048.7044
     -1911.4774      -1489.4624
  21846092.8544  -17438365.58649 -13241309.08947  21846091.8604   21846097.7764
      1746.5014       1360.9094
  24954068.8574   -1616279.70447  -1039006.18545  24954068.2984   24954076.5894
      2890.8564       2252.6124
  21429176.7374  -14548551.55149 -11104288.38247  21429176.5324   21429180.9764
     -1922.9024      -1498.3664
  21043179.3414  -20402611.72949 -15632571.14847  21043178.8364   21043185.2944
       837.7214        652.7694
  24366327.5484    2475536.00348   1947061.65646  24366326.7304   24366332.5764
     -2719.8554      -2119.3674
 00  1  6  1 33  0.0010000  0  7G 8G 9G 5G30G 4G24G 7
  24434689.8114    1528370.53947   1203113.83945  24434688.4524   24434696.0294
     -4197.9974      -3271.1594
  21936001.4774  -13883579.01049 -10590052.38147  21936000.9614   21936006.3754
     -1925.7394      -1500.5764
  21836146.6764  -17490632.55949 -13282036.56947  21836145.8544   21836151.6154
      1739.6984       1355.6084
  24937561.2904   -1703013.58847  -1106590.77445  24937561.0374   24937571.7604
      2892.9274       2254.2234
  21440202.2414  -14490613.24249 -11059141.62547  21440202.0934   21440206.0884
     -1938.0134      -1510.1414
  21038449.4604  -20427467.19949 -15651939.01447  21038449.1304   21038455.4034
       820.8594        639.6294
  24381854.0944    2557133.34948   2010644.02046  24381853.1164   24381860.2064
     -2718.6164      -2118.4034
 00  1  6  1 33 30.0010000  0  7G 8G 9G 5G30G 4G24G 7
  24458663.5464    1654355.43947   1301283.83845  24458662.5794   24458669.6594
     -4200.9664      -3273.4694
  21947046.7614  -13825534.15149 -10544822.62147  21947046.2994   21947051.9324
     -1943.9434      -1514.7614
  21826242.8694  -17542678.40949 -13322591.74347  21826241.8814   21826247.5184
      1730.1464       1348.1644
  24921053.5214   -1789769.09147  -1174192.12345  24921054.0104   24921062.7224
      2890.8874       2252.6344
  21451320.7074  -14432184.90049 -11013613.02347  21451320.4884   21451324.7044
     -1957.1244      -1525.0334
  21033821.8824  -20451785.00749 -15670887.92347  21033821.4664   21033827.6904
       800.3654        623.6594
  24397379.3714    2638720.55747   2074218.44546  24397378.7064   24397385.6444
     -2720.4314      -2119.8174
 00  1  6  1 34  0.0010000  0  7G 8G 9G 5G30G 4G24G 7
  24482651.0404    1780408.01547   1399506.57345  24482649.6864   24482657.3014
     -4203.8764      -3275.7404
  21958194.6714  -13766951.10249 -10499173.49347  21958194.2354   21958199.8884
     -1962.8504      -1529.4944
  21816389.2404  -17594457.01849 -13362938.68347  21816388.5314   21816394.3194
      1720.7044       1340.8074
  24904555.7264   -1876471.73947  -1241752.42645  24904556.5854   24904563.0104
      2888.1324       2250.4864
  21462543.2434  -14373208.92049 -10967657.69647  21462543.0214   21462547.6784
     -1975.8144      -1539.5954
  21029306.6054  -20475510.49749 -15689375.28447  21029306.2004   21029312.9314
       780.0884        607.8594
  24412908.4664    2720326.72147   2137807.64345  24412907.4754   24412914.8614
     -2721.3934      -2120.5594
 00  1  6  1 34 30.0010000  0  7G 8G 9G 5G30G 4G24G 7
  24506653.4184    1906543.52147   1497793.90745  24506651.8904   24506659.9584
     -4203.8274      -3275.7024
  21969449.9794  -13707804.01449 -10453084.85247  21969449.6324   21969455.2584
     -1978.8394      -1541.9514
  21806586.7344  -17645968.21449 -13403077.24647  21806585.9264   21806592.0134
      1714.6674       1336.1034
  24888071.9254   -1963093.77247  -1309249.97045  24888072.2884   24888077.1584
      2888.0634       2250.4344
  21473869.4794  -14313687.23849 -10921277.15047  21473869.4174   21473874.6924
     -1991.1414      -1551.5394
  21024905.9844  -20498637.02149 -15707395.92247  21024905.4584   21024911.9054
       763.0404        594.5764
  24428443.8634    2801958.59448   2201416.93146  24428442.8774   24428448.3274
     -2719.5964      -2119.1684
 00  1  6  1 35  0.0010000  0  7G 8G 9G 5G30G 4G24G 7
  24530650.4344    2032649.26247   1596058.04845  24530650.3684   24530656.6154
     -4202.5984      -3274.7474
  21980791.0794  -13648207.30649 -10406645.86447  21980790.6504   21980795.9344
     -1993.4154      -1553.3114
  21796815.5094  -17697318.59749 -13443090.50747  21796814.4584   21796820.1734
      1709.4254       1332.0184
  24871582.2454   -2049743.95947  -1376769.49145  24871581.7534   24871587.6394
      2889.4194       2251.4924
  21485279.8224  -14253724.80949 -10874553.17147  21485279.7204   21485285.0614
     -2005.7414      -1562.9144
  21020595.8094  -20521287.56349 -15725045.66447  21020595.5004   21020601.6414
       747.7374        582.6514
  24443962.9344    2883515.53448   2264967.83946  24443962.0274   24443968.8054
     -2717.0374      -2117.1734
 00  1  6  1 35 30.0010000  0  7G 8G 9G 5G30G 4G24G 7
  24554654.9694    2158785.80947   1694346.22645  24554653.2194   24554660.4444
     -4204.3854      -3276.1394
  21992228.1094  -13588106.83849 -10359814.33247  21992227.5144   21992232.8604
     -2011.0154      -1567.0254
  21787087.1974  -17748442.15249 -13482927.01847  21787086.3144   21787091.5094
      1700.8584       1325.3434
  24855094.2254   -2136377.63547  -1444276.02245  24855094.3794   24855103.7524
      2888.4774       2250.7494
  21496787.2474  -14193253.24549 -10827432.46447  21496787.1114   21496792.1504
     -2023.7264      -1576.9304
  21016383.5334  -20543423.68849 -15742294.56347  21016383.0854   21016389.1724
       729.9994        568.8304
  24459482.0584    2965068.76347   2328515.83046  24459481.2724   24459487.5254
     -2718.0074      -2117.9354
 00  1  6  1 36  0.0010000  0  7G 8G 9G 5G30G 4G24G 7
  24578661.6004    2284943.32847   1792650.74145  24578659.2744   24578667.1424
     -4206.4744      -3277.7694
  22003757.3244  -13527520.03749 -10312603.84447  22003756.9794   22003762.2064
     -2028.3384      -1580.5244
  21777402.7554  -17799333.65349 -13522582.71147  21777401.9104   21777407.4674
      1691.7554       1318.2504
  24838607.8644   -2223022.25147  -1511791.11045  24838608.3444   24838616.0024
      2887.6974       2250.1384
  21508392.2464  -14132271.57949 -10779914.27447  21508392.1004   21508396.6534
     -2042.2254      -1591.3444
  21012266.7564  -20565056.75049 -15759151.46947  21012266.4544   21012272.6014
       711.7394        554.6014
  24475002.9194    3046636.02947   2392074.74246  24475002.3324   24475009.8574
     -2720.5314      -2119.8914
 00  1  6  1 36 30.0010000  0  7G 8G 9G 5G30G 4G24G 7
  24602672.8804    2411129.37147   1890977.46145  24602673.0784   24602680.5084
     -4207.6684      -3278.6994
  22015379.9394  -13466443.64649 -10265011.85347  22015379.5264   22015384.7194
     -2044.9934      -1593.5014
  21767764.1664  -17849983.24149 -13562049.89247  21767763.4374   21767769.1294
      1682.9764       1311.4084
  24822118.9244   -2309677.24547  -1579314.32345  24822118.3264   24822125.3524
      2887.5374       2250.0284
  21520099.0314  -14070751.53649 -10731976.56447  21520099.0354   21520103.2904
     -2061.0004      -1605.9744
  21008250.1504  -20586163.74649 -15775598.44847  21008249.8654   21008256.0924
       693.4994        540.3884
  24490538.6174    3128271.34948   2455686.67346  24490537.7064   24490544.0934
     -2723.6524      -2122.3284
 00  1  6  1 37  0.0010000  0  7G 8G 9G 5G30G 4G24G 7
  24626700.5214    2537396.38947   1989367.27145  24626699.9484   24626708.2854
     -4209.2354      -3279.9194
  22027106.5454  -13404820.01449 -10216993.44347  22027105.9084   22027111.5294
     -2062.2564      -1606.9524
  21758188.0314  -17900306.36349 -13601262.68847  21758186.9064   21758193.2014
      1672.9074       1303.5634
  24805638.4114   -2396279.74147  -1646796.69045  24805638.4264   24805643.4934
      2886.9534       2249.5714
  21531923.4244  -14008614.26049 -10683557.89647  21531923.2554   21531927.3744
     -2080.3014      -1621.0144
  21004348.8604  -20606666.26749 -15791574.40947  21004348.2884   21004354.4354
       674.2314        525.3734
  24506099.2164    3210044.03548   2519405.64946  24506098.1294   24506105.3504
     -2726.9154      -2124.8684
 00  1  6  1 37 30.0010000  0  7G 8G 9G 5G30G 4G24G 7
  24650730.1114    2663673.18947   2087764.70245  24650729.1134   24650736.7094
     -4210.0584      -3280.5684
  22038925.6804  -13342708.82249 -10168595.11747  22038925.1454   22038930.6554
     -2079.2444      -1620.1894
  21748661.9394  -17950363.65249 -13640268.33047  21748661.1674   21748667.4584
      1663.4324       1296.1794
  24789155.3554   -2482893.27547  -1714287.67045  24789155.8834   24789161.6794
      2886.3894       2249.1264
  21543849.3124  -13945942.20449 -10634722.51347  21543849.2184   21543853.2554
     -2098.6834      -1635.3374
  21000552.5024  -20626615.62449 -15807119.33147  21000552.0654   21000558.4444
       654.7724        510.2124
  24521669.7924    3291869.21647   2583165.57346  24521668.8894   24521675.4474
     -2729.0234      -2126.5124
 00  1  6  1 38  0.0010000  0  7G 8G 9G 5G30G 4G24G 7
  24674759.7784    2789949.20647   2186161.56845  24674759.7644   24674767.0934
     -4208.4294      -3279.2964
  22050836.4614  -13280117.32149 -10119822.52347  22050835.7594   22050841.4224
     -2093.3614      -1631.1914
  21739186.6434  -18000159.36349 -13679070.14647  21739185.6054   21739191.5664
      1656.2704       1290.5984
  24772672.9764   -2569506.78347  -1781778.62645  24772672.9104   24772679.3444
      2887.8584       2250.2704
  21555874.1064  -13882750.56149 -10585482.25447  21555873.8734   21555878.1044
     -2113.9744      -1647.2534
  20996863.3264  -20646002.29749 -15822225.80047  20996862.8534   20996869.0294
       637.7234        496.9264
  24537246.1344    3373723.47647   2646948.12145  24537245.2614   24537251.8604
     -2727.7984      -2125.5604
 00  1  6  1 38 30.0010000  0  7G 8G 9G 5G30G 4G24G 7
  24698785.5934    2916201.91147   2284540.24745  24698784.9954   24698792.0664
     -4208.5544      -3279.3904
  22062830.5684  -13217086.60249 -10070707.68747  22062829.9994   22062835.9714
     -2108.4954      -1642.9834
  21729757.6004  -18049706.97649 -13717678.64447  21729756.9624   21729762.8844
      1646.9774       1283.3574
  24756189.8704   -2656131.32147  -1849278.18145  24756189.9284   24756196.3074
      2887.2194       2249.7864
  21567988.1504  -13819089.85449 -10535876.50047  21567987.9384   21567992.7554
     -2129.8974      -1659.6614
  20993276.5314  -20664850.88749 -15836912.98747  20993275.9034   20993282.2694
       618.9424        482.2924
  24552817.0544    3455547.50347   2710707.14045  24552815.6684   24552822.3534
     -2727.0744      -2124.9934
 00  1  6  1 39  0.0020000  0  7G 8G 9G 5G30G 4G24G 7
  24722811.5494    3042465.76947   2382927.63445  24722811.4424   24722819.2454
     -4206.5724      -3277.8424
  22074910.9014  -13153603.33149 -10021240.20947  22074910.2324   22074916.3204
     -2121.3324      -1652.9864
  21720381.5894  -18098981.82749 -13756074.59847  21720380.3534   21720385.9654
      1640.2544       1278.1194
  24739708.6194   -2742744.63047  -1916769.02345  24739707.9094   24739714.8994
      2888.9824       2251.1534
  21580189.7324  -13754969.58849 -10485912.64747  21580189.3314   21580194.6954
     -2142.4184      -1669.4164
  20989795.6914  -20683141.37749 -15851165.28547  20989795.3094   20989801.5894
       602.6734        469.6144
  24568380.6584    3537338.83847   2774440.65645  24568380.0744   24568386.6344
     -2723.6164      -2122.2984
 00  1  6  1 39 30.0020000  0  7G 8G 9G 5G30G 4G24G 7
  24746827.0234    3168666.26147   2481265.60145  24746826.3314   24746835.5474
     -4207.4354      -3278.5214
  22087066.0544  -13089730.95549  -9971469.52947  22087065.1624   22087070.6924
     -2137.3004      -1665.4304
  21711042.7094  -18148056.34249 -13794314.44647  21711041.6884   21711047.1934
      1630.7894       1270.7434
  24723217.6804   -2829402.88147  -1984294.86845  24723217.4804   24723224.1584
      2887.7094       2250.1614
  21592462.8834  -13690473.41849 -10435655.88447  21592462.4554   21592467.8874
     -2158.2004      -1681.7154
  20986408.3794  -20700941.52349 -15865035.49347  20986407.9184   20986414.2194
       583.3364        454.5464
  24583928.0354    3619033.44447   2838098.82345  24583926.3934   24583932.7734
     -2723.7074      -2122.3714
 00  1  6  1 40  0.0020000  0  7G 8G 9G 5G30G 4G24G 7
  24770853.5954    3294922.33847   2579646.87545  24770852.7184   24770860.7904
     -4209.1124      -3279.8244
  22099316.5154  -13025354.69749  -9921306.21947  22099315.6514   22099321.1064
     -2153.8584      -1678.3304
  21701763.6624  -18196817.88249 -13832310.41547  21701762.3754   21701767.7234
      1620.5504       1262.7654
  24706738.9404   -2915999.72647  -2051772.84145  24706738.0344   24706745.9174
      2885.8824       2248.7384
  21604831.4784  -13625478.42749 -10385010.43047  21604830.9384   21604836.1024
     -2174.3254      -1694.2804
  20983136.1674  -20718138.79149 -15878435.93147  20983135.3684   20983141.7224
       563.5544        439.1324
  24599481.1744    3700769.86747   2901789.56545  24599480.5194   24599486.8884
     -2725.1504      -2123.4934
 00  1  6  1 40 30.0020000  0  7G 8G 9G 5G30G 4G24G 7
  24794880.3074    3421186.35047   2678034.34745  24794879.5234   24794888.7114
     -4209.5794      -3280.1944
  22111654.1874  -12960518.82949  -9870784.76847  22111653.3614   22111658.9244
     -2169.8204      -1690.7684
  21692534.9134  -18245316.40949 -13870101.44247  21692533.7264   21692539.0004
      1611.7014       1255.8704
  24690262.2934   -3002581.98347  -2119239.44645  24690262.2394   24690269.6734
      2885.1224       2248.1404
  21617284.2134  -13560038.92149 -10334018.59847  21617283.7784   21617289.0414
     -2189.6794      -1706.2444
  20979969.8074  -20734778.35649 -15891401.79347  20979969.1074   20979975.5164
       544.5724        424.3414
  24615038.8924    3782524.25747   2965494.29246  24615037.5524   24615044.2964
     -2726.5334      -2124.5744
 00  1  6  1 41  0.0020000  0  7G 8G 9G 5G30G 4G24G 7
  24818911.2884    3547470.25747   2776437.36045  24818910.8134   24818918.4914
     -4208.1164      -3279.0584
  22124087.6594  -12895180.05549  -9819871.44447  22124086.8064   22124092.5044
     -2184.8034      -1702.4444
  21683357.4434  -18293540.82549 -13907678.87447  21683356.5334   21683362.3714
      1604.3654       1250.1524
  24673793.7594   -3089122.49047  -2186673.55245  24673793.3154   24673800.6364
      2885.5124       2248.4414
  21629828.9744  -13494115.80149 -10282649.92847  21629828.5774   21629833.4824
     -2204.2504      -1717.5984
  20976912.3874  -20750843.91748 -15903920.38347  20976911.7624   20976918.2504
       527.7634        411.2424
  24630605.4584    3864331.04247   3029239.84645  24630604.6314   24630611.5444
     -2726.2734      -2124.3674
 00  1  6  1 41 30.0020000  0  7G 8G 9G 5G30G 4G24G 7
  24842940.9504    3673748.81747   2874836.20445  24842939.7234   24842948.1544
     -4209.2364      -3279.9184
  22136612.7304  -12829359.88749  -9768583.01447  22136612.0124   22136617.6384
     -2201.8154      -1715.7004
  21674230.6594  -18341502.60449 -13945051.65347  21674229.6004   21674235.6664
      1594.3564       1242.3534
  24657330.6234   -3175636.27847  -2254086.80445  24657330.9524   24657338.1774
      2883.3054       2246.7234
  21642465.5604  -13427710.93849 -10230905.86947  21642465.1944   21642469.6764
     -2221.5264      -1731.0594
  20973957.1234  -20766374.17648 -15916021.85747  20973956.4884   20973962.5144
       508.8204        396.4824
  24646178.6514    3946166.16247   3093007.47945  24646177.2864   24646184.2074
     -2728.1974      -2125.8704
 00  1  6  1 42  0.0020000  0  7G 8G 9G 5G30G 4G24G 7
  24866963.4244    3799989.57947   2973205.54545  24866963.1024   24866972.6504
     -4207.3874      -3278.4834
  22149218.5394  -12763115.33249  -9716963.89447  22149217.7464   22149223.6384
     -2215.0064      -1725.9784
  21665147.5384  -18389236.18549 -13982246.61647  21665146.5134   21665152.2184
      1587.3734       1236.9124
  24640868.9404   -3262151.31447  -2321501.02945  24640868.4004   24640874.7844
      2883.7234       2247.0564
  21655184.8774  -13360867.81149 -10178820.30847  21655184.5814   21655189.6444
     -2235.1974      -1741.7124
  20971095.4524  -20781412.92148 -15927740.33147  20971094.7584   20971100.6524
       493.0804        384.2174
  24661746.4864    4027975.95447   3156755.39245  24661745.0824   24661751.7424
     -2726.5644      -2124.5994
 00  1  6  1 42 30.0020000  0  7G 8G 9G 5G30G 4G24G 7
  24890987.2714    3926222.20547   3071568.53245  24890985.3384   24890994.1144
     -4208.9124      -3279.6784
  22161906.2194  -12696439.84649  -9665008.98847  22161905.6134   22161911.2674
     -2230.9354      -1738.3914
  21656111.6274  -18436718.54149 -14019245.82047  21656110.8124   21656116.4884
      1577.2124       1228.9944
  24624411.3264   -3348633.08747  -2388889.36845  24624411.6294   24624417.7264
      2881.0294       2244.9544
  21667991.2684  -13293568.24649 -10126379.08947  21667991.1754   21667996.0224
     -2252.4044      -1755.1204
  20968332.0604  -20795935.51148 -15939056.60947  20968331.4564   20968337.2164
       474.1674        369.4814
  24677310.4324    4109768.82147   3220490.10345  24677309.6214   24677315.9404
     -2727.2374      -2125.1214
 00  1  6  1 43  0.0020000  0  7G 8G 9G 5G30G 4G24G 7
  24915022.8374    4052535.18047   3169994.14645  24915022.1004   24915030.7044
     -4210.7854      -3281.1274
  22174692.1884  -12629249.71249  -9612653.05247  22174691.6384   22174697.2654
     -2247.0474      -1750.9464
  21647143.5444  -18483847.43749 -14055969.59847  21647142.6134   21647148.2584
      1565.9304       1220.2044
  24607975.4124   -3434997.82047  -2456186.45845  24607974.6944   24607982.0704
      2877.8774       2242.4974
  21680904.5674  -13225711.15549 -10073503.42247  21680904.1544   21680908.5354
     -2270.0874      -1768.9004
  20965683.7974  -20809850.94848 -15949899.78047  20965683.3214   20965689.0284
       454.6044        354.2354
  24692886.4154    4191616.50648   3284267.55546  24692885.3854   24692892.1144
     -2728.3814      -2126.0084
 00  1  6  1 43 30.0020000  0  7G 8G 9G 5G30G 4G24G 7
  24939060.1154    4178846.32147   3268418.34045  24939058.6574   24939066.7334
     -4210.6984      -3281.0594
  22187558.0514  -12561641.08649  -9559971.02647  22187557.5074   22187562.6254
     -2261.0174      -1761.8314
  21638227.8944  -18530698.77649 -14092477.10347  21638227.2994   21638232.6414
      1556.7744       1213.0704
  24591546.0574   -3521334.57247  -2523461.72345  24591546.4724   24591552.9774
      2877.1344       2241.9154
  21693905.2344  -13157390.76949 -10020266.75147  21693905.2904   21693909.6694
     -2285.4594      -1780.8774
  20963139.5794  -20823223.38848 -15960319.84747  20963139.0244   20963144.5454
       435.7734        339.5624
  24708458.2714    4273446.54947   3348031.22146  24708457.8014   24708463.2334
     -2728.0554      -2125.7624
 00  1  6  1 44  0.0020000  0  7G 8G 9G 5G30G 4G24G 7
  24963101.8464    4305190.64047   3366868.42645  24963099.9804   24963107.8454
     -4213.1574      -3282.9714
  22200511.9914  -12493568.29549  -9506927.30047  22200511.5554   22200516.4714
     -2278.0864      -1775.1314
  21629372.4804  -18577234.57249 -14128738.72547  21629371.5304   21629376.8834
      1544.7574       1203.7054
  24575129.4304   -3607608.53347  -2590688.07145  24575129.7274   24575134.7844
      2873.8054       2239.3294
  21707002.8254  -13088566.38849  -9966637.34847  21707002.5614   21707006.7304
     -2303.7054      -1795.0954
  20960713.0024  -20835974.23648 -15970255.54447  20960712.7094   20960718.1464
       413.4934        322.2004
  24724036.8344    4355317.02347   3411826.42245  24724036.3634   24724042.8084
     -2731.1384      -2128.1544
 00  1  6  1 44 30.0020000  0  7G 8G 9G 5G30G 4G24G 7
  24987150.5864    4431565.51947   3465342.29745  24987149.9144   24987157.3944
     -4213.0604      -3282.8994
  22213557.8664  -12425013.84949  -9453508.25947  22213557.3684   22213562.2354
     -2293.5124      -1787.1524
  21620579.8454  -18623439.40349 -14164742.44947  21620579.1404   21620584.1714
      1534.2984       1195.5564
  24558721.5524   -3693832.07647  -2657875.17445  24558721.4974   24558726.2264
      2873.2464       2238.8954
  21720197.8844  -13019223.77949  -9912604.12947  21720197.8714   21720202.3734
     -2320.3344      -1808.0534
  20958404.9524  -20848101.64648 -15979705.44047  20958404.5834   20958410.3014
       393.7554        306.8224
  24739626.3104    4437237.96047   3475660.93245  24739625.1424   24739631.6004
     -2731.7454      -2128.6314
 00  1  6  1 45  0.0020000  0  7G 8G 9G 5G30G 4G24G 7
  25011185.8404    4557874.02147   3563764.41145  25011185.1964   25011193.1704
     -4208.6904      -3279.4954
  22226682.2194  -12356043.37949  -9399765.04047  22226681.7794   22226686.6394
     -2305.4414      -1796.4474
  21611836.1864  -18669385.21949 -14200544.34547  21611835.5744   21611841.0404
      1527.8654       1190.5434
  24542305.9274   -3780098.55047  -2725095.72845  24542305.7894   24542310.3974
      2876.7414       2241.6094
  21733476.5314  -12949444.27049  -9858230.46847  21733476.5914   21733481.0984
     -2332.5824      -1817.5974
  20956198.7544  -20859694.11948 -15988738.50247  20956198.4724   20956204.3564
       378.0014        294.5454
  24755209.6964    4519135.71647   3539477.37345  24755209.6244   24755216.3794
     -2729.3814      -2126.7864
 00  1  6  1 45 30.0020000  0  7G 8G 9G 5G30G 4G24G 7
  25035212.2274    4684129.68147   3662145.38545  25035211.7594   25035219.5224
     -4206.8354      -3278.0494
  22239889.4044  -12286638.51649  -9345683.33847  22239888.8644   22239893.9294
     -2319.8324      -1807.6604
  21603143.5484  -18715066.36449 -14236140.00647  21603143.1984   21603148.5184
      1519.2094       1183.7984
  24525884.0644   -3866392.12547  -2792337.35545  24525884.0904   24525891.1814
      2877.7704       2242.4174
  21746839.0294  -12879223.91749  -9803513.29647  21746838.9404   21746843.4944
     -2347.1784      -1828.9704
  20954097.2304  -20870738.14348 -15997344.20347  20954096.8124   20954102.7864
       359.9744        280.4984
  24770797.0494    4601037.05747   3603296.59945  24770796.3364   24770801.2074
     -2729.1104      -2126.5774
 00  1  6  1 46  0.0020000  0  7G 8G 9G 5G30G 4G24G 7
  25059227.8734    4810336.91747   3760488.60945  25059227.2934   25059235.6004
     -4207.9164      -3278.8944
  22253181.6914  -12216785.80449  -9291252.66447  22253181.3794   22253186.4514
     -2337.6474      -1821.5434
  21594502.8814  -18760473.94349 -14271522.49747  21594502.1014   21594507.6904
      1507.2524       1174.4814
  24509459.1164   -3952699.96247  -2859590.04445  24509459.0364   24509466.6914
      2875.4034       2240.5654
  21760285.8074  -12808558.50749  -9748449.32547  21760285.7934   21760290.7594
     -2364.5354      -1842.4954
  20952096.4454  -20881251.36048 -16005536.28747  20952096.0854   20952102.2624
       340.4354        265.2724
  24786381.9214    4682938.01047   3667115.60645  24786381.1054   24786386.5384
     -2731.6924      -2128.5914
 00  1  6  1 46 30.0020000  0  7G 8G 9G 5G30G 4G24G 7
  25083241.5804    4936531.99947   3858822.30845  25083241.7534   25083248.3324
     -4205.6604      -3277.1284
  22266566.7414  -12146447.41649  -9236443.54647  22266566.1444   22266571.7404
     -2352.1384      -1832.8344
  21585922.0914  -18805566.99249 -14306659.90447  21585921.4084   21585926.8504
      1498.3414       1167.5374
  24493041.4984   -4038975.89147  -2926817.89145  24493042.3004   24493048.8284
      2875.4844       2240.6324
  21773822.9394  -12737420.66649  -9693017.23047  21773822.8404   21773827.6144
     -2378.7054      -1853.5374
  20950196.2594  -20891237.37648 -16013317.56847  20950195.8674   20950202.1004
       324.4154        252.7904
  24801971.5654    4764864.37947   3730954.36145  24801971.0434   24801977.3814
     -2730.9484      -2128.0074
 00  1  6  1 47  0.0020000  0  7G 8G 9G 5G30G 4G24G 7
  25107248.1954    5062680.99747   3957120.17545  25107246.5724   25107253.5814
     -4205.3994      -3276.9294
  22280038.5144  -12075651.77349  -9181278.12447  22280038.0154   22280043.5804
     -2368.3604      -1845.4754
  21577395.7774  -18850373.45149 -14341573.99547  21577395.0114   21577400.3914
      1487.6904       1159.2384
  24476630.9274   -4125217.55447  -2994019.10245  24476631.1814   24476637.5774
      2872.7434       2238.4994
  21787443.8264  -12665841.24149  -9637241.03847  21787443.6234   21787448.6934
     -2394.4234      -1865.7854
  20948393.4264  -20900708.93448 -16020697.97247  20948393.1124   20948399.9354
       305.7704        238.2624
  24817563.3204    4846802.28047   3794802.07745  24817562.0974   24817569.0254
     -2732.7424      -2129.4094
 00  1  6  1 47 30.0020000  0  7G 8G 9G 5G30G 4G24G 7
  25131251.8124    5188820.95747   4055411.05445  25131250.6434   25131258.5404
     -4202.8364      -3274.9324
  22293602.4834  -12004373.57049  -9125736.67047  22293602.0044   22293607.4194
     -2382.3004      -1856.3374
  21568932.6544  -18894849.67549 -14376230.76347  21568931.5024   21568936.6174
      1478.5524       1152.1184
  24460238.2284   -4211362.42547  -3061144.88145  24460238.4544   24460244.3474
      2871.3734       2237.4264
  21801155.8574  -12593784.10749  -9581092.60847  21801155.6314   21801160.4834
     -2408.3064      -1876.6034
  20946697.9474  -20909618.90048 -16027640.77047  20946697.3054   20946704.3234
       289.2474        225.3854
  24833163.9304    4928784.80647   3858684.58145  24833163.4124   24833169.6294
     -2731.7514      -2128.6424
 00  1  6  1 48  0.0020000  0  8G 8G 6G 9G 5G30G 4G24G 7
  25155237.2574    5314864.63647   4153626.85445  25155235.1184   25155245.1224
     -4198.9584      -3271.9154
  25495043.7914   -2309781.60757  -1784336.54745  25495042.3414   25495051.2694
      2068.7024       1611.9684
  22307242.4774  -11932695.43549  -9069883.57947  22307241.8994   22307247.4564
     -2394.8944      -1866.1514
  21560517.5764  -18939069.77049 -14410687.94447  21560516.5014   21560521.6664
      1470.5424       1145.8764
  24443850.5144   -4297477.55647  -3128247.47245  24443849.8254   24443856.7024
      2870.8454       2237.0214
  21814943.7874  -12521329.25549  -9524634.26047  21814943.5214   21814947.9394
     -2420.9604      -1886.4624
  20945093.7164  -20918048.44548 -16034209.21547  20945093.2254   20945099.9274
       273.6504        213.2324
  24848756.8204    5010722.87547   3922532.42545  24848755.6344   24848762.3994
     -2729.7694      -2127.0954
 00  1  6  1 48 30.0020000  0  8G 8G 6G 9G 5G30G 4G24G 7
  25179206.0714    5440831.48447   4251782.69945  25179206.1204   25179215.2004
     -4196.4114      -3269.9274
  25483244.9334   -2371778.99347  -1832646.00345  25483245.1264   25483252.7994
      2066.9754       1610.6224
  22320958.8074  -11860615.25749  -9013717.21347  22320958.1094   22320963.5044
     -2407.9804      -1876.3484
  21552155.0124  -18983012.80249 -14444929.23447  21552154.1594   21552159.2674
      1461.4824       1138.8194
  24427472.4134   -4383544.80747  -3195312.72145  24427471.5124   24427479.7924
      2869.3904       2235.8854
  21828811.5974  -12448454.35349  -9467848.59947  21828811.1304   21828815.8524
     -2434.9714      -1897.3804
  20943589.5464  -20925954.98648 -16040370.12047  20943588.9924   20943595.4384
       255.6544        199.2114
  24864344.5824    5092634.50347   3986359.71145  24864343.3774   24864348.8294
     -2728.8484      -2126.3784
 00  1  6  1 49  0.0020000  0  8G 8G 6G 9G 5G30G 4G24G 7
  25203157.3404    5566687.89347   4349852.44245  25203155.1874   25203163.4914
     -4195.6904      -3269.3614
  25471449.8114   -2433766.48247  -1880947.75545  25471449.0034   25471457.3454
      2064.1224       1608.4004
  22334742.9224  -11788180.87849  -8957274.84247  22334742.0034   22334747.5514
     -2422.4564      -1887.6274
  21543835.7844  -19026729.63949 -14478994.27247  21543834.8674   21543840.0524
      1451.5154       1131.0494
  24411094.5954   -4469610.18047  -3262376.49145  24411094.0514   24411101.7914
      2866.9234       2233.9594
  21842750.9544  -12375201.94049  -9410768.78247  21842750.5014   21842755.3414
     -2449.9774      -1909.0734
  20942182.2484  -20933351.19948 -16046133.36647  20942181.6284   20942187.8044
       236.0524        183.9364
  24879919.4004    5174481.77547   4050136.85045  24879918.0884   24879924.2984
     -2729.2344      -2126.6794
 00  1  6  1 49 30.0020000  0  8G 8G 6G 9G 5G30G 4G24G 7
  25227105.4154    5692533.62247   4447913.98045  25227104.1624   25227110.0364
     -4192.8154      -3267.1224
  25459670.3554   -2495672.24147  -1929185.84845  25459669.2064   25459677.2684
      2064.1944       1608.4584
  22348607.4664  -11715320.60649  -8900500.61947  22348606.6274   22348612.6554
     -2433.6254      -1896.3324
  21535571.6544  -19070158.95449 -14512835.26747  21535570.4304   21535575.9164
      1445.1284       1126.0734
  24394729.4184   -4555618.68447  -3329395.98845  24394728.6414   24394735.1304
      2868.3554       2235.0854
  21856774.4124  -12301509.12349  -9353345.79347  21856773.8534   21856778.6564
     -2461.7144      -1918.2204
  20940884.1264  -20940175.30148 -16051450.82447  20940883.2724   20940889.4844
       220.1404        171.5384
  24895494.3464    5256326.01447   4113911.62545  24895493.0964   24895498.7474
     -2726.0594      -2124.2074
 00  1  6  1 50  0.0020000  0  7G 6G 9G 5G30G 4G24G 7
  25447898.5344   -2557530.90947  -1977387.26745  25447897.7634   25447905.8974
      2058.9034       1604.3384
  22362544.8334  -11642077.71849  -8843428.25047  22362544.0244   22362550.1464
     -2450.1114      -1909.1764
  21527352.3294  -19113350.64849 -14546491.10447  21527351.2104   21527356.8584
      1433.3224       1116.8734
  24378362.7214   -4641624.29747  -3396413.25645  24378362.2024   24378368.2964
      2864.4924       2232.0674
  21870875.1964  -12227409.42549  -9295605.75847  21870874.5214   21870879.6684
     -2479.1454      -1931.8014
  20939686.1284  -20946471.13748 -16056356.64247  20939685.1974   20939691.3184
       198.6984        154.8284
  24911060.1884    5338131.07747   4177655.85845  24911058.7064   24911065.7624
     -2728.7224      -2126.2764
 00  1  6  1 50 30.0020000  0  7G 6G 9G 5G30G 4G24G 7
  25436147.0434   -2619282.87847  -2025505.55945  25436146.2324   25436154.3404
      2056.3454       1602.3404
  22376566.7994  -11568392.89449  -8786011.52247  22376565.9304   22376571.7154
     -2463.9174      -1919.9344
  21519190.2404  -19156243.97149 -14579914.44847  21519189.0944   21519194.8144
      1424.4994       1109.9994
  24362005.7254   -4727568.46547  -3463382.65045  24362005.1724   24362012.0214
      2863.4084       2231.2194
  21885064.8144  -12152842.02249  -9237501.28447  21885064.2704   21885069.5024
     -2493.6874      -1943.1334
  20938598.9494  -20952184.70648 -16060808.74947  20938598.1474   20938603.8404
       180.5974        140.7264
  24926631.7154    5419963.17247   4241421.10945  24926630.6944   24926638.3494
     -2728.7944      -2126.3324
 00  1  6  1 51  0.0020000  0  7G 6G 9G 5G30G 4G24G 7
  25424410.4314   -2680958.51947  -2073564.36745  25424409.7184   25424417.8724
      2055.5754       1601.7464
  22390667.8414  -11494293.65549  -8728271.87147  22390666.9604   22390672.2754
     -2475.8254      -1929.2144
  21511079.7604  -19198866.81349 -14613127.02847  21511078.4434   21511084.1624
      1417.0054       1104.1594
  24345657.7774   -4813479.88247  -3530326.49445  24345657.4094   24345663.6474
      2864.1634       2231.8084
  21899335.9784  -12077845.91149  -9179062.74947  21899335.5174   21899340.3024
     -2505.9354      -1952.6774
  20937614.1024  -20957361.46648 -16064842.55847  20937613.1064   20937618.6804
       164.6994        128.3374
  24942206.0064    5501800.01347   4305190.09445  24942204.7674   24942210.8334
     -2726.9744      -2124.9224
 00  1  6  1 51 30.0020000  0  7G 6G 9G 5G30G 4G24G 7
  25412684.6734   -2742566.53847  -2121570.46545  25412684.6084   25412694.7354
      2054.7974       1601.1354
  22404845.4994  -11419791.55449  -8670218.29647  22404844.5304   22404849.8324
     -2487.6484      -1938.4274
  21503023.5514  -19241201.48649 -14646115.05947  21503022.3914   21503028.0814
      1408.3314       1097.4004
  24329315.6424   -4899362.08447  -3597247.60445  24329314.9624   24329321.9124
      2864.5594       2232.1234
  21913688.8834  -12002421.94149  -9120290.81447  21913688.2714   21913692.8214
     -2519.2454      -1963.0494
  20936729.0124  -20962010.45348 -16068465.12047  20936727.9574   20936733.8224
       148.3204        115.5744
  24957778.8464    5583633.10947   4368956.16145  24957777.3534   24957783.5694
     -2725.6034      -2123.8514
 00  1  6  1 52  0.0020000  0  7G 6G 9G 5G30G 4G24G 7
  25400967.5844   -2804139.99047  -2169549.54745  25400967.6884   25400976.7094
      2050.9774       1598.1554
  22419091.6694  -11344925.62849  -8611881.21647  22419090.8204   22419096.2344
     -2502.5284      -1950.0224
  21495021.5584  -19283253.25949 -14678882.63947  21495020.1874   21495025.8274
      1395.9024       1087.7164
  24312973.9174   -4985241.76447  -3664166.76245  24312973.4554   24312978.9214
      2861.5834       2229.8004
  21928118.9414  -11926590.78149  -9061201.58047  21928118.5894   21928123.0504
     -2535.1714      -1975.4584
  20935940.3554  -20966154.21848 -16071693.99947  20935939.4704   20935945.3354
       128.8114        100.3714
  24973344.2324    5665434.20147   4432697.29045  24973343.4244   24973349.2934
     -2727.1674      -2125.0634
 00  1  6  1 52 30.0020000  0  7G 6G 9G 5G30G 4G24G 7
  25389260.5254   -2865673.81047  -2217497.81045  25389259.6944   25389268.1174
      2050.5434       1597.8234
  22433408.6874  -11269688.35149  -8553254.77847  22433407.8024   22433413.4244
     -2513.8704      -1958.8594
  21487077.3364  -19324999.51249 -14711412.16647  21487076.0334   21487081.4704
      1386.4824       1080.3744
  24296632.7504   -5071111.31147  -3731078.04445  24296631.9974   24296638.3934
      2862.3704       2230.4184
  21942623.8934  -11850367.33549  -9001806.67747  21942623.2924   21942628.0904
     -2547.1984      -1984.8314
  20935249.5374  -20969783.27548 -16074521.81047  20935248.6634   20935254.8144
       112.3004         87.5054
  24988904.3124    5747201.56847   4496412.10845  24988903.2934   24988909.2904
     -2724.9374      -2123.3294
 00  1  6  1 53  0.0020000  0  7G 6G 9G 5G30G 4G24G 7
  25377573.5534   -2927089.66147  -2265354.22945  25377572.9744   25377580.1204
      2044.4324       1593.0604
  22447809.8864  -11194007.93049  -8494283.03047  22447809.1484   22447814.8934
     -2530.9124      -1972.1394
  21479208.9434  -19366347.28949 -14743631.18747  21479207.8884   21479213.0934
      1370.7964       1068.1514
  24280308.4094   -5156890.99847  -3797919.27845  24280308.1064   24280314.7914
      2856.9394       2226.1844
  21957216.7734  -11773680.33549  -8942050.55947  21957216.2284   21957220.9324
     -2564.7634      -1998.5174
  20934675.8694  -20972797.03948 -16076870.17247  20934675.0024   20934681.3214
        89.3244         69.6024
  25004472.8644    5829014.77047   4560162.68745  25004471.9014   25004476.8634
     -2728.7274      -2126.2804
 00  1  6  1 53 30.0020000  0  7G 6G 9G 5G30G 4G24G 7
  25365904.8814   -2988407.08047  -2313133.93345  25365904.3794   25365911.9114
      2042.8294       1591.8084
  22462292.5964  -11117901.63849  -8434979.43447  22462291.6754   22462297.1104
     -2543.2514      -1981.7544
  21471413.5984  -19407314.03249 -14775553.30047  21471412.1624   21471417.4224
      1359.8804       1059.6474
  24264001.5684   -5242584.87747  -3864693.65245  24264001.4854   24264007.7724
      2855.3834       2224.9684
  21971894.3544  -11696547.91049  -8881947.35747  21971893.8984   21971898.9944
     -2577.9084      -2008.7604
  20934215.4654  -20975214.04048 -16078753.52147  20934214.8474   20934221.3624
        71.3034         55.5624
  25020046.6854    5910857.74547   4623936.47445  25020045.4444   25020051.7864
     -2728.3534      -2125.9924
 00  1  6  1 54  0.0020000  0  7G 6G 9G 5G30G 4G24G 7
  25354252.2764   -3049640.31647  -2360848.00445  25354251.0454   25354259.7554
      2038.2484       1588.2474
  22476851.4504  -11041396.20949  -8375364.81847  22476850.4414   22476855.8594
     -2558.4694      -1993.6144
  21463683.7334  -19447932.43249 -14807203.97547  21463682.7054   21463688.1394
      1346.7594       1049.4224
  24247710.8984   -5328193.26147  -3931401.42445  24247710.7024   24247716.6314
      2850.5614       2221.2134
  21986649.8034  -11619008.43249  -8821526.97147  21986649.2334   21986654.3084
     -2592.8144      -2020.3764
  20933864.0664  -20977062.41448 -16080193.78547  20933863.1424   20933869.9044
        50.5504         39.3884
  25035625.1094    5992725.36747   4687729.42245  25035624.2784   25035631.4804
     -2731.0304      -2128.0764
 00  1  6  1 54 30.0020000  0  7G 6G 9G 5G30G 4G24G 7
  25342618.8464   -3110769.27147  -2408480.78045  25342618.2774   25342627.0354
      2035.7504       1586.2874
  22491490.7424  -10964464.26449  -8315417.85647  22491490.0234   22491495.5134
     -2571.5444      -2003.8014
  21456022.6904  -19488194.14649 -14838576.71447  21456021.3414   21456026.6384
      1336.1804       1041.1784
  24231441.9274   -5413687.22047  -3998020.05045  24231442.4154   24231448.3814
      2847.8044       2219.0644
  22001485.6874  -11541046.61049  -8760777.48847  22001484.9914   22001489.7084
     -2606.1164      -2030.7414
  20933626.3924  -20978309.45448 -16081165.48047  20933625.7504   20933632.6184
        31.3994         24.4654
  25051215.0774    6074648.39847   4751565.52445  25051213.5994   25051220.6224
     -2732.0274      -2128.8544
 00  1  6  1 55  0.0020000  0  7G 6G 9G 5G30G 4G24G 7
  25331002.7974   -3171812.23847  -2456046.55645  25331002.1064   25331010.8234
      2034.2294       1585.1114
  22506207.5574  -10887127.27349  -8255155.27647  22506206.6234   22506212.3544
     -2583.7114      -2013.2804
  21448421.6444  -19528135.28749 -14869699.65747  21448420.5904   21448426.2544
      1327.1794       1034.1644
  24215192.1474   -5499080.95747  -4064560.55245  24215191.9304   24215198.6424
      2845.7554       2217.4694
  22016399.8964  -11462672.46549  -8699706.70947  22016399.2454   22016403.8494
     -2618.3804      -2040.2974
  20933498.9894  -20978980.90748 -16081688.66247  20933498.0134   20933504.8194
        14.0534         10.9484
  25066814.1894    6156618.20847   4815438.11845  25066812.7824   25066818.5304
     -2732.1874      -2128.9804
 00  1  6  1 55 30.0020000  0  7G 6G 9G 5G30G 4G24G 7
  25319395.2844   -3232814.54147  -2503580.68145  25319393.9594   25319402.9864
      2031.0394       1582.6224
  22520990.7434  -10809441.33949  -8194620.79047  22520989.9484   22520995.6074
     -2596.9384      -2023.5884
  21440869.6554  -19567823.49249 -14900625.50347  21440868.1724   21440873.9794
      1316.8884       1026.1454
  24198950.3474   -5584433.17147  -4131068.68045  24198949.7454   24198957.7554
      2842.8764       2215.2234
  22031381.1254  -11383943.89849  -8638359.75447  22031380.6204   22031385.2524
     -2631.8184      -2050.7674
  20933465.9614  -20979152.19948 -16081822.10547  20933465.3344   20933472.1654
        -4.3464         -3.3874
  25082409.7464    6238574.23147   4879300.01545  25082408.0114   25082413.9604
     -2733.2644      -2129.8204
 00  1  6  1 56  0.0020000  0  7G 6G 9G 5G30G 4G24G 7
  25307793.3764   -3293782.44147  -2551088.04145  25307792.6084   25307799.9764
      2032.4814       1583.7474
  22535839.6084  -10731410.31349  -8133817.40447  22535838.7304   22535844.3284
     -2606.3614      -2030.9304
  21433364.6054  -19607259.22549 -14931354.61747  21433363.3374   21433369.6844
      1310.9534       1021.5214
  24182711.0064   -5669768.52147  -4197563.67645  24182711.0114   24182717.5584
      2845.2094       2217.0434
  22046428.3024  -11304871.76049  -8576745.08047  22046427.7384   22046432.0604
     -2640.9824      -2057.9094
  20933529.0814  -20978820.92648 -16081563.94347  20933528.3644   20933535.0854
       -18.8544        -14.6934
  25097996.6194    6320488.90947   4943129.66745  25097995.0064   25098002.6114
     -2728.9524      -2126.4624
 00  1  6  1 56 30.0020000  0  8G 6G 9G 5G30G10G 4G24G 7
  25296200.4384   -3354699.63647  -2598555.93745  25296200.0694   25296207.3374
      2029.5694       1581.4784
  22550761.3544  -10652995.87349  -8072715.26047  22550760.4424   22550766.3744
     -2620.3454      -2041.8264
  21425913.1664  -19646416.14249 -14961866.47147  21425912.1184   21425918.1514
      1300.3334       1013.2464
  24166477.6744   -5755078.83347  -4264039.16145  24166477.1304   24166483.9484
      2842.9714       2215.3004
  25256056.6444   -1631896.01557  -1255355.35145  25256054.7184   25256064.5604
      2879.0194       2243.3804
  22061547.3324  -11225419.40249  -8514834.13047  22061546.6394   22061551.0004
     -2654.9934      -2068.8264
  20933692.0894  -20977965.18048 -16080897.10247  20933691.3994   20933697.9424
       -37.1544        -28.9514
  25113578.8664    6402376.50647   5006938.17345  25113577.0074   25113584.6834
     -2729.4494      -2126.8344
 00  1  6  1 57  0.0020000  0  8G 6G 9G 5G30G10G 4G24G 7
  25284632.6654   -3415484.87347  -2645921.02345  25284631.8014   25284639.9404
      2024.3414       1577.4064
  22565769.6644  -10574127.37149  -8011259.30047  22565768.8414   22565774.6964
     -2635.9784      -2054.0094
  21418530.1234  -19685214.01449 -14992098.54447  21418529.0374   21418534.9804
      1287.5694       1003.2994
  24150265.7354   -5840275.72647  -4330426.28345  24150265.2074   24150271.1764
      2838.3914       2211.7284
  25239623.8704   -1718252.25046  -1322645.85445  25239622.6924   25239629.8884
      2879.6454       2243.8804
  22076751.9554  -11145518.18449  -8452573.42047  22076751.2834   22076755.8944
     -2670.3194      -2080.7694
  20933963.8334  -20976538.16848 -16079785.11647  20933962.8974   20933969.3434
       -56.5594        -44.0744
  25129172.0284    6484314.86547   5070786.23245  25129169.7554   25129177.1594
     -2731.7924      -2128.6684
 00  1  6  1 57 30.0020000  0  8G 6G 9G 5G30G10G 4G24G 7
  25273082.9084   -3476183.04547  -2693218.23045  25273082.1664   25273089.7624
      2022.4214       1575.9094
  22580854.4064  -10494858.33349  -7949491.23347  22580853.3164   22580858.9444
     -2648.5364      -2063.7944
  21411211.1414  -19723679.38349 -15022071.53147  21411209.6114   21411214.9674
      1276.8124        994.9194
  24134066.4224   -5925401.18147  -4396757.70545  24134065.3904   24134072.3714
      2836.7014       2210.4134
  25223174.1934   -1804694.99046  -1390003.85245  25223172.9984   25223181.0414
      2883.2504       2246.6884
  22092032.1784  -11065219.14349  -8390002.72147  22092031.6184   22092036.3404
     -2682.9964      -2090.6464
  20934333.7634  -20974593.93448 -16078270.10147  20934333.0394   20934339.5274
       -73.1464        -56.9984
  25144765.6064    6566257.62747   5134637.75045  25144763.7314   25144768.9844
     -2731.2184      -2128.2274
 00  1  6  1 58  0.0020000  0  8G 6G 9G 5G30G10G 4G24G 7
  25261542.1354   -3536829.83447  -2740475.37945  25261541.0884   25261549.0404
      2019.3404       1573.5134
  22596010.4964  -10415212.61349  -7887429.64047  22596009.4664   22596015.0394
     -2662.2684      -2074.4944
  21403952.2374  -19761825.84949 -15051796.02547  21403951.0354   21403955.9754
      1265.1114        985.8004
  24117876.9134   -6010472.53647  -4463046.96245  24117876.5474   24117882.7744
      2833.4744       2207.8934
  25206704.6974   -1891243.22647  -1457444.02645  25206702.9874   25206710.9574
      2885.5244       2248.4584
  22107385.9424  -10984535.49149  -8327132.32447  22107385.2534   22107389.9684
     -2697.1944      -2101.7104
  20934798.0814  -20972155.09548 -16076369.68447  20934797.2354   20934803.6864
       -90.7144        -70.6874
  25160355.6004    6648187.58247   5198479.36445  25160355.0774   25160359.8744
     -2732.2664      -2129.0394
 00  1  6  1 58 30.0020000  0  8G 6G 9G 5G30G10G 4G24G 7
  25250012.3434   -3597425.18747  -2787692.49045  25250010.6774   25250018.5924
      2020.1324       1574.1294
  22611233.6324  -10335212.97149  -7825092.26247  22611232.6714   22611238.4134
     -2671.0394      -2081.3294
  21396752.8104  -19799661.11149 -15081278.03147  21396751.3314   21396755.9544
      1257.1394        979.5884
  24101700.0304   -6095484.31347  -4529289.78845  24101699.9134   24101706.3804
      2833.8394       2208.1824
  25190212.5134   -1977909.42247  -1524976.02745  25190210.8524   25190218.7164
      2891.9654       2253.4634
  22122810.4974  -10903480.28249  -8263972.40147  22122809.8314   22122814.6484
     -2706.6964      -2109.1154
  20935352.0854  -20969243.53548 -16074100.91147  20935351.1224   20935357.4584
      -103.7044        -80.8094
  25175945.9194    6730112.15447   5262316.73045  25175944.7114   25175950.6384
     -2729.5624      -2126.9424
 00  1  6  1 59  0.0020000  0  8G 6G 9G 5G30G10G 4G24G 7
  25238484.5904   -3658002.70647  -2834895.69745  25238483.8374   25238491.2034
      2018.5854       1572.9204
  22626512.8964  -10254919.20449  -7762525.69847  22626511.9894   22626517.5744
     -2681.8164      -2089.7284
  21389606.5914  -19837212.18449 -15110538.59347  21389605.4684   21389610.1374
      1246.3634        971.1914
  24085527.4214   -6180477.04847  -4595517.78146  24085526.3904   24085532.5824
      2832.5324       2207.1644
  25173691.9834   -2064719.62747  -1592620.17445  25173690.7984   25173700.5824
      2895.2324       2256.0234
  22138297.1954  -10822097.44549  -8200557.19347  22138296.5594   22138301.6014
     -2718.9064      -2118.6294
  20935989.7884  -20965891.22748 -16071488.69647  20935989.0514   20935995.4914
      -120.0314        -93.5324
  25191525.9054    6811982.98147   5326112.22345  25191524.4454   25191530.1734
     -2728.4774      -2126.0904
 00  1  6  1 59 30.0020000  0  8G 6G 9G 5G30G10G 4G24G 7
  25226962.3314   -3718547.97647  -2882073.76545  25226961.4334   25226970.0084
      2018.4944       1572.8474
  22641853.8204  -10174300.94649  -7699706.28547  22641852.9134   22641858.5884
     -2692.1224      -2097.7584
  21382522.3564  -19874438.89849 -15139546.40347  21382521.1994   21382526.1624
      1236.1854        963.2604
  24069358.8214   -6265438.79247  -4661721.61746  24069358.9004   24069365.0124
      2832.2014       2206.9024
  25157157.6484   -2151616.66147  -1660332.02145  25157154.6614   25157163.7744
      2898.3904       2258.4894
  22153854.7144  -10740341.33549  -8136851.12847  22153854.0304   22153858.9274
     -2730.8214      -2127.9134
  20936723.6884  -20962036.13148 -16068484.70447  20936722.7634   20936729.3144
      -136.5714       -106.4224
  25207097.0514    6893811.24447   5389874.54945  25207095.5184   25207102.0834
     -2726.2724      -2124.3734
 00  1  6  2  0  0.0020000  0  8G 6G 9G 5G30G10G 4G24G 7
  25215450.6124   -3779039.85747  -2929210.21345  25215449.7404   25215457.8554
      2013.4784       1568.9384
  22657262.5754  -10093327.40849  -7636610.03047  22657261.6454   22657267.1904
     -2706.6944      -2109.1114
  21375503.3424  -19911323.28549 -15168287.45847  21375502.0664   21375507.2884
      1222.0984        952.2834
  24053202.9814   -6350338.59947  -4727877.21045  24053202.3544   24053207.9764
      2827.0484       2202.8964
  25140614.5654   -2238548.97647  -1728071.44545  25140612.8874   25140620.3734
      2896.3864       2256.9264
  22169487.6194  -10658188.77449  -8072836.13147  22169487.0584   22169491.2524
     -2746.5954      -2140.2044
  20937563.0994  -20957626.52348 -16065048.62347  20937562.0824   20937568.5454
      -158.1284       -123.2174
  25222663.8974    6975619.72547   5453621.41545  25222662.0674   25222668.8024
     -2728.4644      -2126.0744
 00  1  6  2  0 30.0020000  0  8G 6G 9G 5G30G10G 4G24G 7
  25203951.3884   -3839471.11647  -2976299.42345  25203951.0544   25203957.1494
      2013.5554       1569.0044
  22672739.3994  -10011998.50849  -7573236.87147  22672738.4984   22672743.9014
     -2717.0084      -2117.1494
  21368550.2484  -19947860.45149 -15196757.95547  21368549.1574   21368554.5334
      1212.0744        944.4724
  24037060.8964   -6435166.00147  -4793976.37845  24037059.8304   24037065.8384
      2826.3414       2202.3414
  25124068.9924   -2325494.84147  -1795821.44645  25124066.8544   25124072.5414
      2898.2694       2258.3984
  22185194.5654  -10575649.30149  -8008519.64447  22185193.9074   22185198.0644
     -2757.8724      -2148.9934
  20938510.3754  -20952647.02949 -16061168.47947  20938509.5124   20938516.0174
      -175.7274       -136.9324
  25238225.1764    7057407.90047   5517352.39645  25238224.5474   25238233.9904
     -2725.9844      -2124.1384
 00  1  6  2  1  0.0020000  0  8G 6G 9G 5G30G10G 4G24G 7
  25192459.9364   -3899854.42547  -3023351.25245  25192459.4664   25192467.1654
      2011.2244       1567.1864
  22688285.8914   -9930300.86149  -7509576.37347  22688285.0584   22688290.5384
     -2730.2734      -2127.4844
  21361663.5444  -19984050.24649 -15224957.76547  21361662.3004   21361667.9384
      1199.7644        934.8804
  24020932.2514   -6519919.72847  -4860018.12445  24020932.1924   24020937.9824
      2823.0414       2199.7664
  25107522.6274   -2412448.66046  -1863577.64045  25107520.1804   25107528.4244
      2898.2044       2258.3444
  22200976.7404  -10492712.30449  -7943893.39947  22200976.2554   22200980.5434
     -2771.9424      -2159.9564
  20939570.2724  -20947078.62449 -16056829.44147  20939569.3354   20939575.5444
      -196.1164       -152.8184
  25253787.6794    7139171.38947   5581064.13145  25253786.2954   25253791.0704
     -2725.8054      -2124.0074
 00  1  6  2  1 30.0020000  0  8G 6G 9G 5G30G10G 4G24G 7
  25180986.3674   -3960151.56047  -3070335.90645  25180985.3764   25180993.4184
      2008.5304       1565.0794
  22703910.6234   -9848194.04249  -7445597.04247  22703909.4874   22703914.9534
     -2743.2774      -2137.6184
  21354849.2654  -20019859.23649 -15252860.84447  21354847.8994   21354853.8874
      1187.5664        925.3754
  24004828.6824   -6604547.94147  -4925962.08746  24004828.0614   24004833.9764
      2818.9444       2196.5754
  25090973.7074   -2499397.43446  -1931329.82844  25090973.2294   25090982.5754
      2898.5774       2258.6234
  22216839.4234  -10409354.42549  -7878939.19447  22216838.7684   22216842.9854
     -2785.0494      -2170.1694
  20940746.8814  -20940895.31449 -16052011.25747  20940745.9484   20940752.2254
      -215.9264       -168.2544
  25269349.8244    7220950.34447   5644788.10245  25269348.9094   25269351.2764
     -2726.3064      -2124.4074
 00  1  6  2  2  0.0020000  0  8G 6G 9G 5G30G10G 4G24G 7
  25169535.5824   -4020328.19947  -3117226.62645  25169534.4394   25169542.7104
      2004.4064       1561.8724
  22719613.3674   -9765674.96349  -7381296.46547  22719612.3824   22719618.3024
     -2756.8194      -2148.1714
  21348109.4304  -20055277.96449 -15280459.82147  21348108.1474   21348114.3674
      1174.8374        915.4574
  23988753.2604   -6689025.28448  -4991788.47746  23988752.6284   23988758.4464
      2814.1814       2192.8614
  25074431.4074   -2586340.70547  -1999077.66945  25074430.5614   25074439.0144
      2898.9884       2258.9604
  22232780.4594  -10325582.54349  -7813662.38547  22232780.0024   22232785.0354
     -2798.6274      -2180.7494
  20942039.2994  -20934103.31749 -16046718.77247  20942038.5584   20942044.4964
      -235.6244       -183.6034
  25284919.8464    7302771.24547   5708544.81645  25284918.8904   25284924.1934
     -2727.5014      -2125.3314
 00  1  6  2  2 30.0020000  0  8G 6G 9G 5G30G10G 4G24G 7
  25158101.0934   -4080416.55947  -3164048.55745  25158099.9214   25158107.2014
      2000.6034       1558.9054
  22735389.4684   -9682771.11649  -7316696.07147  22735388.3334   22735394.2294
     -2770.8974      -2159.1404
  21341437.5384  -20090340.79649 -15307781.48247  21341436.1844   21341442.2484
      1161.8774        905.3574
  23972699.4314   -6773390.19647  -5057527.28146  23972698.5124   23972703.3554
      2809.3774       2189.1234
  25057877.4844   -2673336.21447  -2066866.26645  25057875.5084   25057883.2614
      2899.9674       2259.7094
  22248794.5704  -10241429.09549  -7748088.26847  22248793.8044   22248798.9074
     -2812.5454      -2191.5934
  20943438.8464  -20926751.61149 -16040990.15347  20943437.8134   20943443.4154
      -255.4034       -199.0164
  25300492.2284    7384605.97247   5772312.17445  25300490.6004   25300497.1784
     -2729.2834      -2126.7134
 00  1  6  2  3  0.0020000  0  8G 6G 9G 5G30G10G 4G24G 7
  25146691.6854   -4140372.73047  -3210767.50845  25146690.5754   25146698.0574
      1998.1214       1556.9744
  22751245.1974   -9599447.82149  -7251768.83347  22751244.0604   22751249.8804
     -2782.2804      -2168.0114
  21334839.6554  -20125012.39349 -15334798.27847  21334838.4944   21334844.3364
      1150.9794        896.8664
  23956673.0904   -6857606.12647  -5123150.02746  23956672.2534   23956677.7544
      2806.7424       2187.0664
  25041317.3294   -2760362.61347  -2134678.89745  25041315.3174   25041322.6214
      2903.5004       2262.4604
  22264888.4064  -10156855.20849  -7682186.53047  22264887.7294   22264892.4034
     -2824.0124      -2200.5304
  20944949.9674  -20918810.27549 -16034802.07847  20944948.9594   20944954.5154
      -272.3154       -212.1944
  25316073.9264    7466496.69447   5836123.07945  25316071.3154   25316079.5934
     -2728.8744      -2126.3894
 00  1  6  2  3 30.0020000  0  8G 6G 9G 5G30G10G 4G24G 7
  25135298.2554   -4200243.85147  -3257420.15445  25135297.4114   25135304.7154
      1993.9364       1553.7144
  22767167.5924   -9515774.67149  -7186568.98447  22767166.6954   22767172.4824
     -2795.2844      -2178.1434
  21328308.0934  -20159339.76849 -15361546.85247  21328306.6614   21328312.0234
      1138.2254        886.9264
  23940664.5024   -6941729.76247  -5188700.80645  23940663.6104   23940670.2754
      2802.2824       2183.5954
  25024741.5074   -2847465.42846  -2202551.05445  25024740.5054   25024746.0314
      2904.0084       2262.8514
  22281048.6294  -10071932.99949  -7616013.37347  22281047.7114   22281052.4554
     -2836.8434      -2210.5284
  20946560.4884  -20910347.62049 -16028207.78147  20946559.4974   20946564.9754
      -291.3344       -227.0144
  25331659.7454    7548401.74347   5899945.03345  25331658.8864   25331666.2414
     -2730.9214      -2127.9804
 00  1  6  2  4  0.0020000  0  8G 6G 9G 5G30G10G 4G24G 7
  25123925.0784   -4260008.45947  -3303989.81245  25123923.8234   25123931.7574
      1992.4054       1552.5184
  22783162.1764   -9431724.19449  -7121075.11147  22783161.1594   22783166.8414
     -2806.1494      -2186.6104
  21321843.9444  -20193308.38949 -15388015.87947  21321842.5444   21321847.7924
      1128.2684        879.1704
  23924678.2374   -7025740.63847  -5254163.75346  23924677.5124   23924682.5664
      2800.3804       2182.1104
  25008157.2204   -2934609.43146  -2270455.32044  25008155.9994   25008164.4294
      2907.4014       2265.5034
  22297279.2314   -9986643.20749  -7549553.78747  22297278.3664   22297282.5604
     -2847.3024      -2218.6784
  20948276.6374  -20901329.89249 -16021180.95847  20948275.5494   20948280.9264
      -307.9394       -239.9544
  25347255.9094    7630346.95047   5963798.41945  25347254.3654   25347259.2194
     -2730.3854      -2127.5724
 00  1  6  2  4 30.0020000  0  7G 6G 9G 5G30G10G 4G24
  25112555.6694   -4319754.29247  -3350544.83445  25112554.4004   25112562.6074
      1989.3874       1550.1654
  22799213.3214   -9347375.73949  -7055349.04447  22799212.1184   22799217.9174
     -2818.1984      -2195.9994
  21315433.7754  -20226995.11149 -15414265.24447  21315432.1844   21315437.1174
      1116.2144        869.7754
  23908697.1394   -7109719.53748  -5319601.81146  23908696.7824   23908701.8044
      2796.9234       2179.4174
  24991551.6814   -3021876.17947  -2338455.24045  24991549.7334   24991558.8474
      2908.9304       2266.7054
  22313563.6524   -9901066.70949  -7482870.78647  22313563.0494   22313566.7524
     -2859.1174      -2227.8844
  20950082.6234  -20891838.29849 -16013784.88847  20950081.6284   20950087.0064
      -326.0774       -254.0884
 00  1  6  2  5  0.0020000  0  7G 6G 9G 5G30G10G 4G24
  25101205.4424   -4379403.40447  -3397024.50645  25101203.9824   25101211.1744
      1986.2864       1547.7494
  22815330.5314   -9262677.05049  -6989350.07147  22815329.5864   22815335.5284
     -2829.5294      -2204.8294
  21309093.1334  -20260312.67349 -15440226.94847  21309091.7014   21309096.6724
      1103.9114        860.1894
  23892734.9144   -7193599.69948  -5384962.89446  23892734.4994   23892740.2544
      2794.0464       2177.1704
  24974937.9234   -3109182.42147  -2406485.94745  24974936.5784   24974943.5054
      2910.3854       2267.8274
  22329915.1614   -9815136.85249  -7415912.44047  22329914.4754   22329918.5384
     -2870.5224      -2236.7714
  20951990.8004  -20881810.39049 -16005970.91347  20951989.9764   20951995.1554
      -343.5424       -267.6954
 00  1  6  2  5 30.0020000  0  7G 6G 9G 5G30G10G 4G24
  25089873.5814   -4438949.04447  -3443423.56245  25089872.2834   25089879.9244
      1986.3484       1547.8024
  22831516.4664   -9177620.01948  -6923071.87547  22831515.3714   22831520.9034
     -2837.8864      -2211.3394
  21302825.4434  -20293248.09749 -15465890.88847  21302824.0174   21302829.1904
      1094.9554        853.2114
  23876793.8674   -7277369.63248  -5450238.10046  23876793.3744   23876799.2994
      2793.6544       2176.8704
  24958317.9104   -3196514.18947  -2474536.48545  24958317.0404   24958324.4964
      2914.8214       2271.2844
  22346333.4724   -9728857.50549  -7348681.77047  22346332.7944   22346337.7874
     -2878.6764      -2243.1254
  20954002.8304  -20871238.07949 -15997732.72647  20954001.7044   20954007.1704
      -358.3774       -279.2544
 00  1  6  2  6  0.0020000  0  7G 6G 9G 5G30G10G 4G24
  25078547.9874   -4498461.66947  -3489796.90745  25078547.5694   25078555.3724
      1982.0844       1544.4764
  22847755.3294   -9092280.91348  -6856573.87147  22847754.6554   22847760.2314
     -2850.5224      -2221.1854
  21296614.5444  -20325883.36649 -15491320.93947  21296613.2914   21296618.8584
      1081.3744        842.6284
  23860860.9614   -7361098.19748  -5515481.06246  23860860.3494   23860866.3954
      2789.0104       2173.2544
  24941679.3764   -3283952.32247  -2542669.91345  24941677.7014   24941686.2094
      2915.0254       2271.4394
  22362805.6354   -9642295.46249  -7281230.82947  22362804.8494   22362810.3874
     -2891.4924      -2253.1114
  20956103.2634  -20860196.64249 -15989128.98647  20956102.3474   20956108.2354
      -376.9184       -293.7024
 00  1  6  2  6 30.0020000  0  7G 6G 9G 5G30G10G 4G24
  25067250.2714   -4557833.62747  -3536060.64045  25067249.0324   25067256.7264
      1978.0494       1541.3364
  22864068.7534   -9006553.88448  -6789773.59247  22864068.0494   22864073.5514
     -2862.7034      -2230.6784
  21290485.8684  -20358086.73549 -15516414.45147  21290485.0074   21290490.5734
      1067.3914        831.7324
  23844958.2964   -7444666.48748  -5580599.15746  23844957.8484   23844963.0274
      2783.9174       2169.2844
  24925044.4474   -3371366.79347  -2610784.95445  24925042.9334   24925052.3824
      2914.3324       2270.9104
  22379353.8204   -9555331.94449  -7213467.05447  22379353.4134   22379358.8234
     -2904.3074      -2263.0964
  20958312.5944  -20848583.15649 -15980079.49547  20958312.0654   20958317.9754
      -395.4614       -308.1534
 00  1  6  2  7  0.0020000  0  7G 6G 9G 5G30G10G 4G24
  25055961.4854   -4617151.68447  -3582282.38745  25055961.4124   25055968.6124
      1974.1914       1538.3314
  22880439.8004   -8920522.96448  -6722736.52747  22880439.4024   22880444.7004
     -2875.1414      -2240.3684
  21284426.6424  -20389929.10749 -15541226.67747  21284425.9784   21284431.2474
      1053.1664        820.6484
  23829074.4664   -7528135.92547  -5645640.25746  23829074.2784   23829078.6964
      2778.2974       2164.9064
  24908403.7564   -3458814.44647  -2678925.97245  24908403.4964   24908409.9984
      2913.0674       2269.9224
  22395964.9104   -9468041.52549  -7145448.55047  22395964.9464   22395968.9734
     -2917.3544      -2273.2634
  20960617.6234  -20836473.65249 -15970643.50947  20960616.8654   20960622.3524
      -414.3594       -322.8774
 00  1  6  2  7 30.0020000  0  7G 6G 9G 5G30G10G 4G24
  25044692.5924   -4676372.20247  -3628428.12145  25044692.1454   25044699.3704
      1973.0894       1537.4684
  22896879.3274   -8834132.82248  -6655419.53647  22896878.8484   22896884.1384
     -2884.7884      -2247.8864
  21278445.4284  -20421361.82249 -15565719.67447  21278444.7404   21278449.9004
      1041.6894        811.7044
  23813223.1204   -7611434.62348  -5710548.26346  23813223.1824   23813228.7854
      2774.3734       2161.8454
  24891769.7474   -3546230.78647  -2747042.48545  24891768.3944   24891775.0734
      2913.9894       2270.6364
  22412648.1084   -9380369.52549  -7077132.69147  22412648.0204   22412652.3134
     -2928.2674      -2281.7664
  20963028.3674  -20823802.66048 -15960769.98047  20963028.0084   20963033.5054
      -431.1244       -335.9414
 00  1  6  2  8  0.0020000  0  7G 6G 9G 5G30G10G 4G24
  25033431.5584   -4735552.08347  -3674542.20845  25033431.2684   25033437.2314
      1972.4684       1536.9894
  22913376.1554   -8747441.70348  -6587868.02247  22913375.7864   22913381.4324
     -2894.3694      -2255.3524
  21272532.5724  -20452435.86949 -15589933.18747  21272531.7614   21272536.9024
      1029.9694        802.5714
  23797395.4214   -7694609.65348  -5775359.88846  23797395.9244   23797401.0464
      2770.7824       2159.0504
  24875133.2694   -3633655.12247  -2815165.23845  24875132.2514   24875137.7064
      2914.4234       2270.9744
  22429395.9874   -9292360.00849  -7008553.83647  22429395.8204   22429399.5684
     -2938.8674      -2290.0284
  20965536.2454  -20810623.55748 -15950500.51847  20965535.8124   20965541.1364
      -447.4794       -348.6854
 00  1  6  2  8 30.0020000  0  7G 6G 9G 5G30G10G 4G24
  25022174.2654   -4794708.58547  -3720638.07145  25022173.7554   25022180.4164
      1973.2654       1537.6044
  22929927.8694   -8660463.57948  -6520092.86747  22929927.3914   22929932.5684
     -2902.1494      -2261.4144
  21266688.2364  -20483147.28749 -15613864.13247  21266687.6774   21266692.6334
      1019.5084        794.4214
  23781589.9114   -7777667.36748  -5840080.09446  23781589.7574   23781595.4734
      2768.5884       2157.3374
  24858497.0374   -3721076.39747  -2883285.61745  24858495.8844   24858503.5164
      2915.8724       2272.1004
  22446206.6034   -9204020.85749  -6939718.11047  22446206.3794   22446209.9364
     -2948.4064      -2297.4604
  20968140.5594  -20796941.26949 -15939838.96547  20968140.2014   20968145.0084
      -462.8214       -360.6414
 00  1  6  2  9  0.0020000  0  7G 6G 9G 5G30G10G 4G24
  25010924.9934   -4853825.81847  -3766703.35046  25010924.4714   25010931.3164
      1969.8794       1534.9714
  22946535.0974   -8573192.59748  -6452089.51147  22946534.5744   22946539.7384
     -2913.8704      -2270.5494
  21260914.5724  -20513489.96549 -15637507.75047  21260913.7334   21260918.8094
      1005.5934        783.5774
  23765805.5634   -7860613.45848  -5904713.32446  23765805.6394   23765810.9344
      2763.4354       2153.3254
  24841862.3804   -3808491.47247  -2951401.18045  24841861.9474   24841869.0474
      2914.0304       2270.6654
  22463081.2884   -9115342.44349  -6870618.03247  22463081.1664   22463085.7634
     -2961.3884      -2307.5754
  20970843.2624  -20782737.28249 -15928770.89847  20970842.8874   20970847.9394
      -482.0934       -375.6564
 00  1  6  2  9 30.0020000  0  7G 6G 9G 5G30G10G 4G24
  24999686.9294   -4912873.46247  -3812714.41545  24999687.1494   24999694.2614
      1969.5604       1534.7204
  22963201.1324   -8485610.33348  -6383843.59447  22963200.5034   22963205.8074
     -2921.9614      -2276.8524
  21255210.4484  -20543462.98149 -15660863.31547  21255209.7764   21255215.0554
       995.5194        775.7284
  23750043.2014   -7943448.53748  -5969260.07246  23750043.1084   23750047.5744
      2762.0374       2152.2384
  24825230.2394   -3895896.86047  -3019509.21445  24825228.5004   24825235.0004
      2916.0464       2272.2374
  22480021.5394   -9026319.71349  -6801249.66447  22480021.3354   22480026.7274
     -2970.6084      -2314.7604
  20973648.2274  -20767994.06949 -15917282.64847  20973647.8974   20973653.2564
      -497.7384       -387.8494
 00  1  6  2 10  0.0020000  0  7G 6G 9G 5G30G10G 4G24
  24988454.6944   -4971899.83247  -3858708.90445  24988454.1634   24988462.1684
      1965.5644       1531.6044
  22979916.8534   -8397768.92948  -6315395.74847  22979916.1934   22979921.5624
     -2934.1864      -2286.3784
  21249566.8074  -20573120.12149 -15683972.74647  21249565.9824   21249571.0054
       981.4154        764.7394
  23734286.9994   -8026244.99448  -6033776.72446  23734287.2824   23734291.4764
      2757.5984       2148.7754
  24808586.9834   -3983355.80347  -3087659.00345  24808585.3254   24808593.0414
      2914.4774       2271.0194
  22497014.4074   -8937021.09149  -6731666.31647  22497014.1314   22497019.4064
     -2982.8044      -2324.2634
  20976543.7914  -20752778.24249 -15905426.12747  20976543.3164   20976548.6154
      -516.7774       -402.6854
 00  1  6  2 10 30.0020000  0  7G 6G 9G 5G30G10G 4G24
  24977250.6044   -5030777.77047  -3904587.73645  24977250.5544   24977257.8754
      1963.0084       1529.6164
  22996706.3604   -8309536.87548  -6246643.50447  22996705.8704   22996711.5814
     -2944.7074      -2294.5774
  21244008.9694  -20602325.78549 -15706730.37447  21244008.2494   21244013.4584
       969.0694        755.1174
  23718560.4854   -8108886.92448  -6098172.94646  23718560.1734   23718565.0924
      2755.1514       2146.8704
  24791955.3854   -4070753.14747  -3155760.78645  24791953.6224   24791960.1954
      2915.4834       2271.8024
  22514081.5004   -8847332.10849  -6661778.78147  22514081.3194   22514086.1134
     -2993.0924      -2332.2804
  20979552.3324  -20736969.74549 -15893107.78547  20979551.5874   20979556.9014
      -533.8964       -416.0254
 00  1  6  2 11  0.0020000  0  7G 6G 9G 5G30G10G 4G24
  24966060.0784   -5089584.46447  -3950411.05045  24966059.2824   24966067.2504
      1957.9124       1525.6394
  23013556.4354   -8220989.63448  -6177645.66247  23013555.7484   23013561.6414
     -2957.8914      -2304.8504
  21238518.9824  -20631177.48549 -15729212.19247  21238517.8644   21238523.2074
       954.8534        744.0404
  23702847.3704   -8191459.54048  -6162515.17246  23702847.1264   23702852.6044
      2750.0034       2142.8594
  24775314.5884   -4158195.58847  -3223897.68345  24775312.9454   24775321.2814
      2914.3624       2270.9284
  22531203.7094   -8757356.07248  -6591667.56947  22531203.1594   22531207.8944
     -3005.0214      -2341.5754
  20982656.4814  -20720655.77349 -15880395.57047  20982655.6544   20982661.2274
      -553.2034       -431.0684
 00  1  6  2 11 30.0020000  0  7G 6G 9G 5G30G10G 4G24
  24954885.3424   -5148310.19947  -3996171.28246  24954884.8194   24954892.7334
      1955.6134       1523.8514
  23030468.3404   -8132117.40948  -6108394.58447  23030467.8064   23030473.4134
     -2968.4984      -2313.1144
  21233099.4264  -20659655.08049 -15751402.50547  21233098.6354   21233104.0794
       942.0084        734.0314
  23687153.5374   -8273933.56548  -6226780.56146  23687153.2924   23687158.5084
      2746.5304       2140.1524
  24758670.7304   -4245664.30947  -3292055.06245  24758669.2454   24758677.0724
      2915.2234       2271.6014
  22548381.2444   -8667084.28148  -6521325.90247  22548381.1054   22548385.6894
     -3014.9634      -2349.3234
  20985858.6334  -20703828.69349 -15867283.53347  20985857.9964   20985863.6064
      -570.2214       -444.3294
 00  1  6  2 12  0.0020000  0  7G 6G 9G 5G30G10G 4G24
  24943730.6154   -5206932.15147  -4041850.68446  24943729.3384   24943736.6874
      1952.0674       1521.0874
  23047449.4544   -8042882.11748  -6038860.59647  23047448.9834   23047454.4164
     -2980.8754      -2322.7604
  21227762.7084  -20687701.86849 -15773257.12147  21227761.7314   21227767.1504
       927.3694        722.6254
  23671487.7474   -8356256.44248  -6290928.18146  23671487.6174   23671492.9794
      2741.0194       2135.8564
  24742029.8294   -4333115.60247  -3360198.85545  24742029.0494   24742036.1564
      2914.2734       2270.8644
  22565625.4414   -8576468.86248  -6450716.46847  22565625.2194   22565629.2584
     -3026.7254      -2358.4884
  20989164.9744  -20686452.79349 -15853743.85147  20989164.4894   20989169.8734
      -588.8194       -458.8214
 00  1  6  2 12 30.0020000  0  7G 6G 9G 5G30G10G 4G24
  24932588.7584   -5265480.07147  -4087472.40245  24932588.2814   24932595.1134
      1950.1944       1519.6314
  23064492.4674   -7953319.95148  -5969071.90047  23064491.9554   23064497.2984
     -2990.8704      -2330.5484
  21222502.9754  -20715342.04449 -15794794.89447  21222502.0714   21222507.2734
       914.4554        712.5614
  23655848.1044   -8438440.42548  -6354967.58346  23655847.9794   23655852.4274
      2736.7724       2132.5474
  24725388.8894   -4420566.01447  -3428341.99845  24725387.7114   24725393.7664
      2914.6584       2271.1644
  22582932.5654   -8485518.23248  -6379845.82047  22582932.2874   22582936.8874
     -3037.8364      -2367.1464
  20992572.7184  -20668544.21748 -15839789.09147  20992572.0974   20992577.6714
      -606.1674       -472.3404
 00  1  6  2 13  0.0020000  0  7G 6G 9G 5G30G10G 4G24
  24921456.8664   -5323975.93147  -4133053.56745  24921456.9384   24921463.0064
      1949.7274       1519.2664
  23081590.0284   -7863472.11948  -5899060.60847  23081589.4734   23081594.8864
     -2998.9314      -2336.8284
  21217316.5834  -20742597.60349 -15816032.96547  21217315.4654   21217320.6994
       902.5934        703.3194
  23640234.7194   -8520490.30548  -6418902.49346  23640234.5924   23640239.5574
      2733.2024       2129.7674
  24708747.7024   -4508012.16347  -3496481.83245  24708745.5784   24708752.0774
      2914.9914       2271.4224
  22600303.7884   -8394230.33148  -6308712.37647  22600303.5484   22600308.7714
     -3048.2324      -2375.2464
  20996078.8394  -20650117.17048 -15825430.32847  20996078.3144   20996084.1304
      -622.2584       -484.8764
 00  1  6  2 13 30.0020000  0  7G 6G 9G 5G30G10G 4G24
  24910324.3964   -5382475.53547  -4178637.62645  24910323.8444   24910331.1644
      1949.6604       1519.2114
  23098730.5334   -7773397.16048  -5828872.33847  23098729.8824   23098735.3484
     -3006.7354      -2342.9104
  21212195.0104  -20769510.10349 -15837003.71347  21212194.1024   21212199.3484
       890.9844        694.2724
  23624639.3724   -8602442.85748  -6482761.54546  23624638.7344   23624645.1024
      2729.6684       2127.0094
  24692103.2824   -4595477.45147  -3564636.53845  24692101.7304   24692109.2264
      2915.4694       2271.7954
  22617733.8464   -8302635.00548  -6237339.38847  22617733.4594   22617738.5744
     -3058.7094      -2383.4104
  20999675.0594  -20631220.04948 -15810705.27947  20999674.5364   20999680.1534
      -638.1784       -497.2834
 00  1  6  2 14  0.0020000  0  7G 6G 9G 5G30G10G 4G24
  24899205.3504   -5440905.44547  -4224167.36845  24899205.3524   24899212.5504
      1946.9924       1517.1344
  23115927.0584   -7683028.05048  -5758454.85547  23115926.5024   23115932.1314
     -3016.2364      -2350.3134
  21207149.0214  -20796028.63549 -15857667.47647  21207147.9824   21207153.1904
       878.2774        684.3704
  23609077.0794   -8684227.05148  -6546489.41746  23609076.8874   23609081.8174
      2724.1314       2122.7014
  24675468.0394   -4682895.89747  -3632754.73845  24675466.7354   24675474.6454
      2913.8624       2270.5414
  22635233.8974   -8210673.14248  -6165680.77947  22635233.5694   22635237.9984
     -3070.5434      -2392.6334
  21003372.8774  -20611787.41448 -15795562.94847  21003372.3554   21003377.8594
      -655.9724       -511.1484
 00  1  6  2 14 30.0020000  0  7G 6G 9G 5G30G10G 4G24
  24888098.6324   -5499277.49047  -4269652.01346  24888097.6844   24888105.4634
      1943.1924       1514.1764
  23133170.8854   -7592411.66948  -5687844.69047  23133170.3864   23133175.9904
     -3026.1844      -2358.0664
  21202170.4794  -20822189.27449 -15878052.37047  21202169.6684   21202175.0614
       864.5334        673.6624
  23593539.9844   -8765872.04348  -6610108.83246  23593540.2374   23593546.0264
      2717.6004       2117.6054
  24658838.0314   -4770285.84947  -3700850.72545  24658837.3914   24658845.3024
      2910.9124       2268.2354
  22652795.5424   -8118387.52448  -6093769.88747  22652795.3424   22652799.3364
     -3082.9094      -2402.2684
  21007168.4894  -20591840.78348 -15780020.10247  21007168.1324   21007173.5404
      -675.0854       -526.0424
 00  1  6  2 15  0.0020000  0  7G 6G 9G 5G30G10G 4G24
  24877012.9754   -5557533.28848  -4315046.07746  24877012.4124   24877019.4304
      1940.9034       1512.3904
  23150473.3534   -7501488.54448  -5616995.50447  23150472.6474   23150478.2404
     -3035.0984      -2365.0124
  21197270.1234  -20847940.74049 -15898118.42147  21197269.2254   21197274.8824
       852.6634        664.4104
  23578041.3224   -8847319.70348  -6673574.45846  23578040.7844   23578046.7904
      2712.8354       2113.8944
  24642224.5204   -4857591.20047  -3768880.81245  24642223.1844   24642231.1694
      2909.8834       2267.4484
  22670422.4424   -8025753.63048  -6021587.61247  22670422.4244   22670426.9794
     -3092.2204      -2409.5234
  21011074.2364  -20571315.93248 -15764026.68647  21011073.7834   21011078.9164
      -692.7764       -539.8274
 00  1  6  2 15 30.0020000  0  7G 6G 9G 5G30G10G 4G24
  24865933.7644   -5615751.56048  -4360410.87546  24865933.5154   24865940.4264
      1941.1034       1512.5464
  23167821.4534   -7410321.44648  -5545956.20347  23167821.0784   23167826.6464
     -3041.9634      -2370.3614
  21192430.1174  -20873373.30849 -15917935.97447  21192429.3784   21192435.1314
       843.3484        657.1524
  23562561.0034   -8928668.00948  -6736962.67946  23562560.9364   23562566.2984
      2710.9914       2112.4564
  24625606.7294   -4944914.96447  -3836925.20445  24625606.3184   24625612.7464
      2912.3644       2269.3684
  22688094.5084   -7932890.25848  -5949226.52547  22688094.1144   22688098.2664
     -3097.9414      -2413.9804
  21015074.1364  -20550296.64948 -15747648.00347  21015073.7164   21015078.9854
      -707.9184       -551.6264
 00  1  6  2 16  0.0020000  0  7G 6G 9G 5G30G10G 4G24
  24854855.0334   -5673966.91748  -4405773.38246  24854854.9744   24854862.2714
      1938.7104       1510.6794
  23185211.4564   -7318938.97948  -5474749.07747  23185210.8864   23185216.5764
     -3051.3994      -2377.7164
  21187648.2944  -20898503.02149 -15937517.53847  21187647.4444   21187653.1064
       830.5084        647.1474
  23547093.6994   -9009947.71748  -6800297.46946  23547093.8834   23547098.4834
      2706.4134       2108.8904
  24608979.2134   -5032294.79547  -3905013.33045  24608978.0804   24608984.3614
      2911.7674       2268.9024
  22705798.4954   -7839852.08248  -5876729.21847  22705798.1874   22705802.8944
     -3106.0434      -2420.2954
  21019163.2124  -20528807.26048 -15730903.00147  21019162.9404   21019168.4694
      -725.9414       -565.6704
 00  1  6  2 16 30.0020000  0  7G 6G 9G 5G30G10G 4G24
  24843799.3384   -5732064.13547  -4451043.83145  24843799.3424   24843806.6204
      1935.2594       1507.9884
  23202666.5684   -7227209.89248  -5403271.86247  23202665.9594   23202671.7874
     -3063.2004      -2386.9104
  21182953.0354  -20923174.87249 -15956742.32647  21182952.3254   21182957.9564
       815.1004        635.1414
  23531664.7964   -9091028.87848  -6863477.54146  23531665.0834   23531669.6134
      2699.8024       2103.7414
  24592368.2424   -5119593.03147  -3973037.88745  24592366.5794   24592372.0744
      2908.9934       2266.7524
  22723561.6704   -7746505.05248  -5803991.25947  22723561.6244   22723566.5214
     -3116.4444      -2428.4004
  21023367.3574  -20506715.19949 -15713688.38847  21023366.8474   21023372.7254
      -745.8314       -581.1684
 00  1  6  2 17  0.0020000  0  7G 6G 9G 5G30G10G 4G24
  24832758.1664   -5790087.92947  -4496257.05545  24832757.8994   24832764.1084
      1934.4684       1507.3714
  23220185.0044   -7135147.71348  -5331535.10447  23220184.8454   23220190.6404
     -3072.6744      -2394.2924
  21178340.2344  -20947415.80349 -15975631.33947  21178339.4444   21178345.1264
       802.3694        625.2224
  23516268.0984   -9171939.35348  -6926524.61546  23516267.8304   23516272.3904
      2695.7314       2100.5674
  24575765.1124   -5206839.01447  -4041021.68845  24575764.4624   24575771.3394
      2908.9164       2266.6834
  22741378.9854   -7652876.44748  -5731033.88447  22741378.8624   22741383.4154
     -3124.2494      -2434.4814
  21027674.1284  -20484081.71249 -15696051.88747  21027673.7304   21027679.5644
      -761.4614       -593.3474
 00  1  6  2 17 30.0020000  0  7G 6G 9G 5G30G10G 4G24
  24821716.4034   -5848112.95747  -4541471.24245  24821715.7824   24821721.6514
      1933.6124       1506.7054
  23237751.1334   -7042839.53048  -5259606.65847  23237750.6514   23237756.1954
     -3081.2664      -2400.9864
  21173796.5444  -20971294.10749 -15994237.78447  21173795.6334   21173800.9324
       789.2244        614.9804
  23500890.0494   -9252747.46348  -6989491.90846  23500890.3354   23500895.0954
      2691.1044       2096.9624
  24559158.7204   -5294105.97047  -4109021.82045  24559157.2874   24559164.9354
      2908.5704       2266.4224
  22759236.3014   -7559033.16548  -5657909.23647  22759236.4054   22759241.1224
     -3132.3374      -2440.7834
  21032063.8844  -20461013.05249 -15678076.28947  21032063.4994   21032069.1044
      -776.7534       -605.2624
 00  1  6  2 18  0.0020000  0  7G 6G 9G 5G30G10G 4G24
  24810694.8444   -5906035.44447  -4586605.52546  24810694.0864   24810699.7734
      1929.3304       1503.3684
  23255378.0494   -6950211.08248  -5187428.64947  23255377.3394   23255383.0554
     -3092.4064      -2409.6664
  21169342.2044  -20994701.65449 -16012477.41047  21169341.5084   21169346.5604
       773.0024        602.3404
  23485553.5424   -9333342.15648  -7052292.91646  23485553.8654   23485558.9564
      2683.5644       2091.0884
  24542570.6064   -5381276.41247  -4176946.72945  24542569.8874   24542577.8474
      2904.4624       2263.2104
  22777156.8414   -7464861.93748  -5584529.03847  22777156.7164   22777161.0694
     -3144.3464      -2450.1404
  21036554.4744  -20437415.97249 -15659688.92847  21036554.0404   21036559.6824
      -794.7244       -619.2674
 00  1  6  2 18 30.0020000  0  7G 6G 9G 5G30G10G 4G24
  24799675.7854   -5963940.78248  -4631726.46346  24799675.6734   24799681.8414
      1929.3834       1503.4124
  23273045.1994   -6857369.36948  -5115084.45847  23273044.5824   23273049.9474
     -3098.6064      -2414.4994
  21164955.2694  -21017757.11949 -16030442.68947  21164954.3134   21164959.1014
       762.5034        594.1584
  23470235.8044   -9413835.40348  -7115014.86746  23470235.9694   23470241.3224
      2681.1274       2089.1894
  24525982.4414   -5468443.83747  -4244869.29745  24525982.2444   24525989.5234
      2905.2114       2263.7964
  22795123.5674   -7370445.70348  -5510957.92847  22795123.4224   22795127.6304
     -3151.6144      -2455.8044
  21041123.2234  -20413408.31249 -15640981.63747  21041122.6384   21041128.1864
      -807.4374       -629.1734
 00  1  6  2 19  0.0020000  0  7G 6G 9G 5G30G10G 4G24
  24788681.4944   -6021710.99648  -4676742.08746  24788680.9974   24788688.6674
      1923.5934       1498.8974
  23290770.6734   -6764219.90948  -5042500.46147  23290770.1894   23290775.7554
     -3109.6994      -2423.1434
  21160651.3454  -21040373.28549 -16048065.65247  21160650.6164   21160655.3064
       746.6564        581.8094
  23454956.4454   -9494132.68148  -7177584.12546  23454956.3094   23454960.6854
      2673.7154       2083.4114
  24509415.5364   -5555509.20647  -4312712.38145  24509413.8174   24509420.8264
      2900.8084       2260.3744
  22813155.2474   -7275688.48548  -5437121.11747  22813155.1214   22813159.3824
     -3163.9314      -2465.4024
  21045788.6314  -20388890.79949 -15621877.05847  21045788.3214   21045793.7404
      -825.8664       -643.5324
 00  1  6  2 19 30.0020000  0  7G 6G 9G 5G30G10G 4G24
  24777699.1564   -6079423.05748  -4721712.38346  24777698.8174   24777706.2764
      1923.3694       1498.7224
  23308537.1764   -6670855.73548  -4969749.15547  23308536.6254   23308542.0834
     -3115.2644      -2427.4794
  21156418.2034  -21062619.80149 -16065400.57747  21156417.4224   21156421.8544
       735.7374        573.3014
  23439697.3094   -9574321.59348  -7240068.94646  23439697.2724   23439701.8344
      2671.5854       2081.7544
  24492852.5824   -5642550.03147  -4380536.35745  24492850.9694   24492856.8274
      2901.3834       2260.8154
  22831237.1904   -7180670.04248  -5363080.75447  22831236.8054   22831241.0644
     -3171.3624      -2471.1924
  21050542.2634  -20363909.65749 -15602411.20947  21050541.6534   21050547.1364
      -840.2694       -654.7564
 00  1  6  2 20  0.0020000  0  7G 6G 9G 5G30G10G 4G24
  24766719.2204   -6137115.51947  -4766667.40545  24766718.6034   24766726.4724
      1922.4564       1498.0154
  23326341.7694   -6577294.37848  -4896844.18247  23326341.1424   23326346.4024
     -3122.5384      -2433.1484
  21152251.8464  -21084511.83749 -16082459.28447  21152251.1994   21152255.7984
       723.3004        563.6104
  23424452.2864   -9654430.88048  -7302491.72646  23424452.0124   23424456.7204
      2668.5954       2079.4244
  24476288.6764   -5729589.13247  -4448359.00045  24476287.8684   24476294.3314
      2900.8494       2260.4074
  22849365.5044   -7085403.22348  -5288846.85447  22849365.2204   22849369.7684
     -3180.2004      -2478.0774
  21055382.2194  -20338474.19149 -15582591.34147  21055381.9314   21055387.4754
      -855.8824       -666.9234
 00  1  6  2 20 30.0020000  0  7G 6G 9G 5G30G10G 4G24
  24755756.3144   -6194731.57947  -4811562.93445  24755756.0064   24755762.7724
      1919.3794       1495.6204
  23344197.6954   -6483459.19348  -4823725.83347  23344197.2594   23344203.0544
     -3132.4014      -2440.8344
  21148168.0694  -21105973.66249 -16099182.76747  21148167.2414   21148171.8234
       707.9624        551.6574
  23409237.0654   -9734387.88748  -7364795.83746  23409237.0414   23409241.9934
      2662.3824       2074.5804
  24459737.4014   -5816561.86547  -4516129.85545  24459736.3544   24459744.0474
      2897.9544       2258.1434
  22867552.4484   -6989828.27448  -5214372.86047  22867552.2074   22867556.8894
     -3190.7514      -2486.3004
  21060322.2324  -20312516.39449 -15562364.46047  21060321.7114   21060327.1624
      -874.0544       -681.0844
 00  1  6  2 21  0.0020000  0  7G 6G 9G 5G30G10G 4G24
  24744813.8854   -6252236.41247  -4856371.78045  24744813.4734   24744819.5024
      1916.3674       1493.2694
  23362114.3614   -6389305.62048  -4750359.39747  23362113.7854   23362119.8674
     -3142.4144      -2448.6374
  21144180.0784  -21126930.87649 -16115513.03747  21144179.0514   21144183.9284
       691.2614        538.6434
  23394063.3904   -9814125.19748  -7426928.72746  23394063.3494   23394069.1644
      2655.3864       2069.1284
  24443210.9624   -5903413.89247  -4583806.63745  24443209.6024   24443216.9114
      2894.2394       2255.2424
  22885803.6364   -6893917.33748  -5139637.03747  22885803.4294   22885808.1714
     -3201.3564      -2494.5654
  21065369.2854  -20285993.45649 -15541697.20347  21065368.5864   21065374.3044
      -892.2064       -695.2274
 00  1  6  2 21 30.0020000  0  7G 6G 9G 5G30G10G 4G24
  24733883.4904   -6309676.19047  -4901129.94946  24733882.5174   24733889.1284
      1913.6784       1491.1714
  23380082.5564   -6294880.33848  -4676781.25147  23380081.8894   23380087.9744
     -3151.8514      -2455.9884
  21140282.6984  -21147410.42249 -16131471.10347  21140281.6864   21140286.7384
       674.8624        525.8654
  23378926.3654   -9893670.19048  -7488911.77946  23378926.1694   23378931.4284
      2648.2634       2063.5794
  24426699.5574   -5990178.64747  -4651415.50045  24426698.9214   24426705.2944
      2890.8964       2252.6454
  22904110.7084   -6797716.30848  -5064675.18047  22904110.2544   22904114.8644
     -3211.4294      -2502.4144
  21070514.1404  -20258955.36549 -15520628.53347  21070513.6434   21070519.3874
      -909.4934       -708.6964
 00  1  6  2 22  0.0020000  0  7G 6G 9G 5G30G10G 4G24
  24722972.4874   -6367014.95047  -4945809.43746  24722972.0734   24722977.6544
      1911.3904       1489.3944
  23398108.0384   -6200155.97948  -4602970.06147  23398107.7004   23398113.3344
     -3160.4324      -2462.6744
  21136480.5984  -21167389.03149 -16147038.82447  21136479.6834   21136484.9064
       659.6934        514.0464
  23363833.2784   -9972988.77648  -7550718.42946  23363832.8054   23363837.7924
      2642.1854       2058.8434
  24410209.6794   -6076832.20447  -4718937.74345  24410208.3594   24410215.2794
      2888.5444       2250.8104
  22922475.2424   -6701207.48848  -4989473.49147  22922475.0144   22922479.5044
     -3219.8684      -2508.9904
  21075759.0124  -20231394.23149 -15499152.30247  21075758.4804   21075764.2854
      -925.4394       -721.1214
 00  1  6  2 22 30.0020000  0  7G 6G 9G 5G30G10G 4G24
  24712061.4204   -6424350.79847  -4990486.63246  24712060.7754   24712066.9714
      1909.7944       1488.1474
  23416168.9884   -6105248.44148  -4529016.13246  23416168.1204   23416173.4774
     -3167.8934      -2468.4894
  21132751.5794  -21186986.02249 -16162309.18147  21132750.5624   21132755.7794
       645.5894        503.0554
  23348761.3604  -10052189.95448  -7612433.58146  23348760.6284   23348766.2504
      2636.6814       2054.5544
  24393721.7764   -6163477.34247  -4786453.42445  24393721.0734   24393727.8444
      2886.7084       2249.3824
  22940873.8624   -6604522.02548  -4914134.15047  22940873.2884   22940877.8644
     -3227.1684      -2514.6774
  21081081.1064  -20203427.26349 -15477359.83247  21081080.3794   21081086.2634
      -940.3274       -732.7234
 00  1  6  2 23  0.0020000  0  7G 6G 9G 5G30G10G 4G24
  24701168.7664   -6481588.09947  -5035087.03846  24701167.8284   24701175.3684
      1906.1144       1485.2794
  23434280.2064   -6010074.38548  -4454854.52346  23434279.4144   23434284.4614
     -3176.9264      -2475.5274
  21129111.0794  -21206116.00149 -16177215.63647  21129110.1924   21129115.3384
       630.1194        491.0024
  23333727.7944  -10131188.79648  -7673991.07746  23333727.9144   23333733.1234
      2629.8894       2049.2644
  24377251.4364   -6250030.37947  -4853897.29945  24377250.3624   24377257.8814
      2883.6114       2246.9624
  22959322.7094   -6507571.82948  -4838588.52947  22959322.4834   22959327.4324
     -3236.1744      -2521.6944
  21086498.2124  -20174959.77449 -15455177.35047  21086497.5454   21086503.4934
      -957.6144       -746.1934
 00  1  6  2 23 30.0020000  0  7G 6G 9G 5G30G10G 4G24
  24690299.8844   -6538703.85947  -5079592.71645  24690299.2154   24690306.9984
      1902.6684       1482.5934
  23452444.0724   -5914621.28048  -4380475.47547  23452443.2484   23452449.1474
     -3185.6684      -2482.3384
  21125557.5804  -21224789.42049 -16191766.33647  21125556.8064   21125561.8214
       615.9124        479.9304
  23318736.2424  -10209972.54648  -7735380.96246  23318736.1484   23318741.2724
      2623.2484       2044.0884
  24360799.9804   -6336484.17747  -4921263.81945  24360798.8144   24360805.7714
      2880.8874       2244.8394
  22977825.0694   -6410342.24348  -4762825.21447  22977824.6474   22977829.7154
     -3244.9654      -2528.5444
  21092018.0244  -20145951.97249 -15432573.84747  21092017.4254   21092023.4874
      -975.1934       -759.8924
 00  1  6  2 24  0.0020000  0  7G 6G 9G 5G30G10G 4G24
  24679447.0754   -6595737.94647  -5124034.76046  24679446.0364   24679453.6184
      1899.4944       1480.1244
  23470654.8834   -5818921.73248  -4305904.39547  23470654.3704   23470660.2254
     -3194.4784      -2489.2054
  21122080.8734  -21243061.33949 -16206004.17347  21122079.8824   21122084.9824
       601.9394        469.0424
  23303779.1924  -10288569.80548  -7796625.52946  23303779.1444   23303784.4644
      2616.2504       2038.6354
  24344362.4904   -6422866.24947  -4988574.48445  24344360.0924   24344367.1604
      2877.5004       2242.2104
  22996374.2214   -6312867.77648  -4686871.07447  22996373.5754   22996378.2244
     -3253.6174      -2535.2864
  21097636.4964  -20116427.78349 -15409567.96347  21097635.7704   21097641.7344
      -993.2214       -773.9384
 00  1  6  2 24 30.0020000  0  7G 6G 9G 5G30G10G 4G24
  24668608.8464   -6652693.08948  -5168415.30146  24668608.4974   24668614.6614
      1896.0484       1477.4374
  23488912.2834   -5722978.67348  -4231143.56646  23488911.5564   23488917.6184
     -3203.2014      -2496.0014
  21118681.2644  -21260925.68649 -16219924.42547  21118680.3334   21118685.5394
       587.5804        457.8534
  23288862.0494  -10366961.12148  -7857709.63446  23288862.0634   23288866.7654
      2608.4744       2032.5744
  24327940.9264   -6509159.11047  -5055815.65945  24327939.1094   24327945.8174
      2873.8334       2239.3514
  23014971.6454   -6215137.91948  -4610717.91647  23014971.0664   23014975.3494
     -3263.1274      -2542.6964
  21103355.8304  -20086371.84049 -15386147.72547  21103355.2804   21103360.9434
     -1011.9334       -788.5194
 00  1  6  2 25  0.0020000  0  7G 6G 9G 5G30G10G 4G24
  24657786.4974   -6709570.61748  -5212735.38646  24657785.6174   24657791.1634
      1895.1194       1476.7124
  23507213.6264   -5626805.63148  -4156203.52646  23507212.6784   23507218.6724
     -3209.1344      -2500.6244
  21115357.9214  -21278389.86249 -16233532.85847  21115357.0404   21115362.0564
       575.9804        448.8154
  23273982.9874  -10445148.46148  -7918634.78946  23273982.8674   23273988.7164
      2603.1354       2028.4174
  24311534.6554   -6595371.10447  -5122993.79845  24311533.8494   24311541.4484
      2872.6354       2238.4174
  23033616.5944   -6117157.13148  -4534369.23447  23033616.0764   23033620.6014
     -3269.8934      -2547.9694
  21109176.5134  -20055783.67749 -15362312.77247  21109175.9904   21109181.4724
     -1028.0554       -801.0824
 00  1  6  2 25 30.0020000  0  7G 6G 9G 5G30G10G 4G24
  24646970.9764   -6766403.64047  -5257020.81246  24646970.1924   24646975.3914
      1896.8244       1478.0444
  23525552.3864   -5530434.44548  -4081109.07946  23525551.7054   23525557.1284
     -3212.6684      -2503.3804
  21112105.5354  -21295481.34449 -16246850.88047  21112104.6694   21112109.7634
       566.2054        441.1984
  23259141.2074  -10523144.65648  -7979410.99846  23259141.0764   23259146.2144
      2599.7434       2025.7744
  24295142.1134   -6681514.19147  -5190118.28845  24295141.3164   24295147.4954
      2873.1154       2238.7894
  23052306.3144   -6018941.89948  -4457837.87747  23052305.8874   23052310.2994
     -3274.9804      -2551.9314
  21115091.3794  -20024700.65449 -15338092.20947  21115090.7604   21115096.4304
     -1040.9774       -811.1524
 00  1  6  2 26  0.0020000  0  7G 6G 9G 5G30G10G 4G24
  24636155.2674   -6823233.57047  -5301303.79845  24636154.9764   24636160.6824
      1894.4174       1476.1654
  23543921.5544   -5433904.66848  -4005891.05446  23543920.7214   23543926.0784
     -3219.9904      -2509.0824
  21108922.7494  -21312208.45349 -16259884.96947  21108921.7114   21108926.6374
       551.2954        429.5804
  23244327.8644  -10600989.49848  -8040069.28446  23244327.6384   23244332.5194
      2592.5604       2020.1744
  24278759.1784   -6767610.45847  -5257206.23445  24278757.8304   24278764.8344
      2869.2884       2235.8064
  23071035.8444   -5920516.57548  -4381142.80547  23071035.8014   23071040.1484
     -3284.1474      -2559.0784
  21121089.6474  -19993181.24249 -15313531.60747  21121088.9154   21121094.5424
     -1057.7124       -824.1914
 00  1  6  2 26 30.0020000  0  7G 6G 9G 5G30G10G 4G24
  24625345.5104   -6880039.90947  -5345568.40945  24625344.8214   24625351.4624
      1892.3824       1474.5804
  23562322.0424   -5337207.22048  -3930542.38746  23562321.0994   23562326.9344
     -3226.8284      -2514.4134
  21105816.7124  -21328529.80649 -16272602.88447  21105815.6074   21105820.9024
       536.5514        418.0904
  23229543.8764  -10678676.13648  -8100604.28246  23229543.8624   23229549.1304
      2586.2884       2015.2904
  24262387.0214   -6853649.35047  -5324249.47945  24262385.4934   24262391.6514
      2866.2254       2233.4214
  23089809.2104   -5821863.54048  -4304270.29747  23089808.7154   23089812.7374
     -3292.9304      -2565.9214
  21127172.3824  -19961216.13149 -15288623.71147  21127171.6704   21127176.9494
     -1073.6194       -836.5864
 00  1  6  2 27  0.0020000  0  7G 6G 9G 5G30G10G 4G24
  24614546.6024   -6936789.38347  -5389788.68946  24614545.7334   24614553.0964
      1889.2364       1472.1314
  23580762.1444   -5240302.52048  -3855032.22746  23580761.6294   23580767.0784
     -3235.2354      -2520.9634
  21102795.2164  -21344406.20349 -16284974.08347  21102794.5204   21102799.6134
       520.1004        405.2704
  23214797.0234  -10756176.97148  -8160994.49746  23214797.0764   23214801.5914
      2578.6924       2009.3694
  24246032.4904   -6939591.32947  -5391217.20845  24246031.1144   24246037.7804
      2861.2524       2229.5444
  23108629.7464   -5722958.63448  -4227201.52046  23108629.1984   23108633.9734
     -3302.6734      -2573.5134
  21133344.2634  -19928780.49849 -15263349.16947  21133343.7894   21133349.0564
     -1090.6064       -849.8244
 00  1  6  2 27 30.0020000  0  7G 6G 9G 5G30G10G 4G24
  24603758.5524   -6993481.42348  -5433964.22346  24603757.8614   24603765.2314
      1891.7484       1474.0894
  23599245.4884   -5143174.69248  -3779348.20646  23599244.7834   23599250.6224
     -3238.3684      -2523.4044
  21099862.3454  -21359818.53149 -16296983.66947  21099861.3754   21099866.8954
       508.9124        396.5554
  23200086.0054  -10833482.78448  -8221232.74946  23200085.6834   23200090.7694
      2576.6684       2007.7924
  24229702.5654   -7025406.69147  -5458086.29445  24229700.3174   24229706.7244
      2861.3214       2229.6094
  23127499.9574   -5623792.94348  -4149929.54246  23127499.8814   23127504.5534
     -3306.7414      -2576.6814
  21139607.3294  -19895868.72249 -15237703.60847  21139606.5934   21139611.8684
     -1102.0534       -858.7434
 00  1  6  2 28  0.0020000  0  7G 6G 9G 5G30G10G 4G24
  24592967.9564   -7050186.43548  -5478149.86346  24592967.4614   24592974.5834
      1888.4724       1471.5354
  23617758.1374   -5045889.40048  -3703541.48646  23617757.3334   23617763.1004
     -3247.4224      -2530.4574
  21097004.2764  -21374836.64849 -16308686.08047  21097003.3504   21097009.1364
       492.1324        383.4794
  23185398.0604  -10910669.35948  -8281378.09146  23185397.8814   23185402.4234
      2568.8934       2001.7344
  24213383.4614   -7111158.95447  -5524906.19045  24213381.9074   24213389.7134
      2855.4774       2225.0464
  23146403.3404   -5524455.06748  -4072523.39446  23146402.9784   23146407.7794
     -3315.9134      -2583.8304
  21145949.1664  -19862541.84749 -15211734.59847  21145948.5724   21145953.7444
     -1119.9934       -872.7224
 00  1  6  2 28 30.0020000  0  7G 6G 9G 5G30G10G 4G24
  24582202.6294   -7106759.71148  -5522232.87046  24582202.0934   24582207.8324
      1881.7704       1466.3134
  23636329.3494   -4948298.04648  -3627496.25646  23636328.6374   23636333.7984
     -3259.9404      -2540.2154
  21094247.9794  -21389321.37249 -16319972.86047  21094247.0354   21094253.0554
       472.3094        368.0324
  23170760.9904  -10987584.97248  -8341312.29846  23170760.7804   23170765.4734
      2557.4654       1992.8284
  24197103.9234   -7196708.15547  -5591567.82645  24197102.9564   24197110.7024
      2846.4244       2217.9904
  23165364.1414   -5424817.91048  -3994884.03446  23165363.8404   23165368.1594
     -3327.9404      -2593.2004
  21152400.6374  -19828640.63449 -15185318.04847  21152399.8464   21152405.0974
     -1141.5024       -889.4844
 00  1  6  2 29  0.0020000  0  7G 6G 9G 5G30G10G 4G24
  24571460.7144   -7163206.93647  -5566217.65246  24571459.9174   24571466.1244
      1881.7614       1466.3054
  23654957.0864   -4850407.58748  -3551217.95946  23654956.2144   23654962.2184
     -3265.5294      -2544.5694
  21091589.8724  -21403290.60349 -16330857.95847  21091588.7904   21091594.9404
       459.4114        357.9824
  23156175.5874  -11064230.32148  -8401035.90046  23156175.2684   23156180.5504
      2552.5914       1989.0314
  24180864.1234   -7282051.58047  -5658069.13445  24180863.1694   24180870.4424
      2843.7424       2215.9034
  23184377.5784   -5324900.61748  -3917026.39146  23184377.2244   23184381.9314
     -3333.0744      -2597.2014
  21158959.3184  -19794171.75249 -15158459.16647  21158958.8104   21158964.0634
     -1156.1214       -900.8744
 00  1  6  2 29 30.0020000  0  7G 6G 9G 5G30G10G 4G24
  24560716.7254   -7219664.84047  -5610210.75845  24560716.0904   24560721.8014
      1880.6224       1465.4184
  23673612.6804   -4752370.21548  -3474825.20146  23673612.1174   23673618.3394
     -3271.5354      -2549.2494
  21089002.0754  -21416887.92249 -16341453.25747  21089001.3114   21089007.4534
       445.7744        347.3564
  23141617.3364  -11140736.07448  -8460650.72846  23141617.1254   23141621.9474
      2546.5704       1984.3374
  24164634.0454   -7367342.05547  -5724529.20445  24164632.7014   24164639.5494
      2841.1574       2213.8884
  23203419.8954   -5224832.32748  -3839051.09446  23203419.5794   23203424.5304
     -3339.4714      -2602.1854
  21165598.9934  -19759279.77249 -15131270.59347  21165598.5434   21165603.7444
     -1171.4344       -912.8074
 00  1  6  2 30  0.0020000  0  7G 6G 9G 5G30G10G 4G24
  24549976.4624   -7276104.76747  -5654189.88745  24549975.9904   24549982.3324
      1881.2124       1465.8814
  23692299.7084   -4654171.77048  -3398306.95346  23692299.3194   23692305.0904
     -3275.7114      -2552.5004
  21086489.2954  -21430094.26349 -16351743.89847  21086488.4474   21086494.0654
       433.9404        338.1344
  23127088.4364  -11217084.82148  -8520143.22146  23127088.2284   23127093.3614
      2542.6204       1981.2614
  24148413.9194   -7452576.76447  -5790945.80745  24148413.4484   24148419.2614
      2840.5344       2213.4024
  23222494.8874   -5124593.11148  -3760942.60946  23222494.7934   23222499.1124
     -3343.9734      -2605.6954
  21172323.2084  -19723945.17549 -15103737.12847  21172322.7384   21172327.6274
     -1184.8504       -923.2614
 00  1  6  2 30 30.0020000  0  7G 6G 9G 5G30G10G 4G24
  24539247.8624   -7332489.30047  -5698125.81246  24539247.3634   24539252.9404
      1879.0594       1464.2004
  23711022.4414   -4555782.46548  -3321639.96146  23711022.2134   23711027.3094
     -3282.2444      -2557.5924
  21084056.0344  -21442883.31549 -16361709.37847  21084055.3424   21084060.5044
       420.0534        327.3134
  23112595.0674  -11293247.01048  -8579490.33746  23112595.2404   23112600.3014
      2536.0924       1976.1754
  24132210.1314   -7537728.76247  -5857297.92245  24132208.8354   24132215.3264
      2837.3844       2210.9414
  23241607.6614   -5024156.07048  -3682679.96746  23241607.5084   23241611.3574
     -3350.7504      -2610.9764
  21179133.6494  -19688154.39249 -15075848.18647  21179133.4484   21179138.4664
     -1199.8584       -934.9574
 00  1  6  2 31  0.0020000  0  7G 6G 9G 5G30G10G 4G24
  24528529.1624   -7388815.20548  -5742016.05446  24528528.6254   24528534.6604
      1874.7904       1460.8764
  23729781.6344   -4457202.78148  -3244824.61846  23729781.1544   23729786.3934
     -3290.8554      -2564.3034
  21081700.4364  -21455262.49049 -16371355.47147  21081699.7364   21081704.8424
       403.9084        314.7334
  23098139.1834  -11369213.14448  -8638684.66446  23098139.4584   23098144.6984
      2527.1724       1969.2224
  24116026.4394   -7622777.87847  -5923569.85045  24116024.2644   24116031.5464
      2831.4894       2206.3564
  23260759.6474   -4923512.22648  -3604256.17746  23260759.5724   23260763.4084
     -3360.0804      -2618.2454
  21186028.0684  -19651926.05749 -15047618.30047  21186027.7304   21186032.5084
     -1216.6094       -948.0064
 00  1  6  2 31 30.0020000  0  7G 6G 9G 5G30G10G 4G24
  24517834.0864   -7445018.27648  -5785810.58946  24517833.8234   24517839.5674
      1872.9734       1459.4574
  23748588.1104   -4358370.43548  -3167812.39146  23748587.5604   23748593.2854
     -3297.1584      -2569.2144
  21079436.2224  -21467162.03449 -16380627.82147  21079435.3634   21079440.4864
       390.1364        304.0004
  23083732.8744  -11444921.93748  -8697678.47146  23083732.5424   23083737.4574
      2520.9554       1964.3784
  24099874.0974   -7707660.59247  -5989712.13545  24099872.6834   24099878.3774
      2828.0414       2203.6704
  23279962.5444   -4822599.60548  -3525622.95146  23279962.1294   23279966.6334
     -3366.5044      -2623.2524
  21193016.8324  -19615200.53049 -15019000.99047  21193016.3564   21193021.2934
     -1231.0284       -959.2434
 00  1  6  2 32  0.0020000  0  7G 6G 9G 5G30G10G 4G24
  24507152.4444   -7501147.93948  -5829547.93246  24507151.9034   24507158.2564
      1869.7704       1456.9614
  23767437.0714   -4259321.14948  -3090631.11646  23767436.6944   23767441.5494
     -3305.3704      -2575.6144
  21077256.5264  -21478615.46949 -16389552.55647  21077255.7274   21077260.9574
       374.1124        291.5164
  23069365.4364  -11520420.73248  -8756508.65046  23069365.6104   23069370.8574
      2512.8044       1958.0274
  24083747.5804   -7792398.86147  -6055741.87745  24083746.7154   24083753.0274
      2821.7744       2198.7864
  23299205.0384   -4721477.82448  -3446826.75346  23299205.0064   23299209.5074
     -3374.3674      -2629.3784
  21200092.5594  -19578015.05449 -14990025.27647  21200092.2504   21200097.3794
     -1247.2844       -971.9114
 00  1  6  2 32 30.0020000  0  7G 6G 9G 5G30G10G 4G24
  24496479.6224   -7557230.86648  -5873248.83246  24496479.3384   24496485.6314
      1868.8054       1456.2094
  23786322.3404   -4160080.66548  -3013300.83946  23786321.5964   23786326.2794
     -3310.7594      -2579.8134
  21075159.9124  -21489631.73949 -16398136.63747  21075159.2744   21075164.4674
       359.9334        280.4674
  23055038.6424  -11595706.01848  -8815172.43846  23055038.7684   23055044.1594
      2505.9404       1952.6804
  24067650.2914   -7876991.00747  -6121657.73945  24067648.8204   24067655.5174
      2817.5034       2195.4574
  23318483.7764   -4620167.45448  -3367883.58646  23318483.4254   23318487.7684
     -3380.0994      -2633.8424
  21207252.0984  -19540392.36949 -14960708.87847  21207251.6594   21207257.0784
     -1261.3194       -982.8464
 00  1  6  2 33  0.0020000  0  7G 6G 9G 5G30G10G 4G24
  24485825.1954   -7613220.77248  -5916877.25046  24485824.5744   24485831.1674
      1865.1794       1453.3804
  23805247.6824   -4060627.78448  -2935805.06546  23805246.7864   23805251.6674
     -3317.9614      -2585.4274
  21073158.4574  -21500149.46349 -16406332.24347  21073157.4334   21073162.8674
       342.5434        266.9164
  23040763.9604  -11670721.77148  -8873626.21446  23040763.8344   23040768.8974
      2496.5754       1945.3824
  24051588.7794   -7961392.94647  -6187425.36545  24051587.6274   24051594.4264
      2810.7964       2190.2294
  23337809.7244   -4518610.08548  -3288747.95146  23337809.1764   23337813.7364
     -3388.9934      -2640.7744
  21214505.3794  -19502276.09849 -14931007.86547  21214504.8124   21214510.0834
     -1278.4284       -996.1784
 00  1  6  2 33 30.0020000  0  7G 6G 9G 5G30G10G 4G24
  24475174.8674   -7669189.62948  -5960489.26946  24475174.0344   24475180.8964
      1863.9974       1452.4634
  23824196.1614   -3961049.69648  -2858211.74746  23824195.3454   23824200.9554
     -3322.6794      -2589.1024
  21071240.2984  -21510229.61549 -16414186.89047  21071239.3004   21071244.4914
       327.3914        255.1094
  23026524.9464  -11745546.14948  -8931930.85246  23026524.6454   23026530.5024
      2489.5744       1939.9234
  24035547.8794   -8045689.95147  -6253111.23345  24035546.3774   24035553.4584
      2806.7504       2187.0754
  23357167.9804   -4416879.22048  -3209477.14646  23357167.8844   23357172.8254
     -3395.3734      -2645.7454
  21221839.7744  -19463732.01849 -14900973.50547  21221839.1254   21221844.9344
     -1293.2654      -1007.7404
 00  1  6  2 34  0.0020000  0  7G 6G 9G 5G30G10G 4G24
  24464547.5404   -7725037.83448  -6004007.30546  24464546.7914   24464552.7474
      1861.3884       1450.4324
  23843186.1214   -3861255.05348  -2780449.69546  23843185.3114   23843190.9274
     -3328.0204      -2593.2634
  21069424.2784  -21519774.67049 -16421624.57947  21069423.1164   21069427.9954
       311.2724        242.5504
  23012342.3944  -11820076.68148  -8990006.53946  23012342.4634   23012347.4484
      2481.3104       1933.4864
  24019546.4854   -8129777.19847  -6318633.69545  24019545.4184   24019551.9214
      2801.3264       2182.8474
  23376579.2664   -4314874.43748  -3129992.89246  23376578.9354   23376583.1464
     -3402.9314      -2651.6344
  21229274.2574  -19424665.17049 -14870531.79447  21229273.6764   21229279.2354
     -1308.9834      -1019.9864
 00  1  6  2 34 30.0020000  0  7G 6G 9G 5G30G10G 4G24
  24453918.4074   -7780892.30648  -6047530.20146  24453917.9854   24453924.2494
      1861.2594       1450.3284
  23862188.6774   -3761398.57448  -2702639.45046  23862187.9614   23862193.4274
     -3330.0944      -2594.8784
  21067680.5764  -21528936.80349 -16428763.88747  21067679.6794   21067684.1514
       298.5594        232.6424
  22998188.2614  -11894456.78348  -9047965.00246  22998188.1554   22998193.3384
      2476.5254       1929.7584
  24003556.4374   -8213804.59547  -6384109.49445  24003555.0014   24003561.8064
      2799.5404       2181.4554
  23396016.0714   -4212733.44848  -3050402.48746  23396015.8064   23396019.8794
     -3407.5814      -2655.2594
  21236779.5494  -19385224.06249 -14839798.44647  21236778.9744   21236784.7024
     -1321.5764      -1029.7994
 00  1  6  2 35  0.0020000  0  7G 6G 9G 5G30G10G 4G24
  24443301.8024   -7836686.11848  -6091005.85846  24443301.1704   24443306.3994
      1857.1684       1447.1434
  23881215.2844   -3661411.13048  -2624727.15946  23881214.9714   23881220.3654
     -3337.0534      -2600.3024
  21066021.2394  -21537657.27749 -16435559.04747  21066020.2014   21066024.6014
       281.6454        219.4634
  22984072.0024  -11968638.84048  -9105769.13546  22984071.9954   22984077.3074
      2467.6684       1922.8544
  23987589.0044   -8297713.37447  -6449492.87345  23987587.7364   23987594.5254
      2793.0404       2176.3944
  23415490.9674   -4110387.99348  -2970652.77346  23415491.0184   23415496.0914
     -3416.6254      -2662.3054
  21244368.8044  -19345341.67949 -14808721.25147  21244368.2244   21244373.6144
     -1338.4534      -1042.9514
 00  1  6  2 35 30.0020000  0  7G 6G 9G 5G30G10G 4G24
  24432715.7244   -7892312.08648  -6134350.71546  24432715.1774   24432721.3784
      1853.3264       1444.1494
  23900293.6124   -3561152.69248  -2546603.70046  23900292.9574   23900299.2614
     -3344.5974      -2606.1784
  21064467.0644  -21545822.76449 -16441921.75047  21064466.3214   21064470.6124
       264.9214        206.4334
  22970014.9194  -12042505.74448  -9163327.70546  22970014.8354   22970020.4634
      2458.8014       1915.9464
  23971668.0624   -8381376.27747  -6514684.66245  23971667.6704   23971674.3004
      2786.6304       2171.3954
  23435025.7544   -4007735.27848  -2890663.65946  23435025.5214   23435030.2234
     -3424.8294      -2668.6964
  21252062.9134  -19304908.56249 -14777214.91247  21252062.5064   21252067.9244
     -1354.9634      -1055.8164
 00  1  6  2 36  0.0020000  0  7G 6G 9G 5G30G10G 4G24
  24422133.7374   -7947916.07348  -6177678.41046  24422133.3264   24422140.7374
      1855.5164       1445.8544
  23919396.9594   -3460764.79448  -2468379.38146  23919396.2594   23919402.5374
     -3345.9674      -2607.2494
  21062991.3374  -21553579.07249 -16447965.61347  21062990.3784   21062994.7974
       254.0364        197.9494
  22955993.2324  -12116192.04148  -9220745.54746  22955993.3784   22955998.1684
      2455.4244       1913.3164
  23955767.2684   -8464931.47747  -6579792.52745  23955765.8384   23955773.5714
      2785.6424       2170.6314
  23454588.2574   -3904932.79148  -2810557.81446  23454588.0684   23454592.4324
     -3426.9224      -2670.3304
  21259833.9214  -19264071.85549 -14745394.08747  21259833.4154   21259839.1604
     -1365.6854      -1064.1714
 00  1  6  2 36 30.0020000  0  7G 6G 9G 5G30G10G 4G24
  24411552.6554   -8003520.08648  -6221006.14946  24411552.3114   24411559.2254
      1851.7754       1442.9384
  23938521.8654   -3360262.17148  -2390065.66646  23938521.4464   23938527.5254
     -3353.8394      -2613.3814
  21061593.3754  -21560925.02749 -16453689.72147  21061592.4314   21061596.6214
       235.9974        183.8934
  22942005.3464  -12189701.80848  -9278025.83746  22942005.3064   22942010.2514
      2445.5094       1905.5924
  23939887.7134   -8548385.84247  -6644821.83145  23939886.7494   23939892.5414
      2778.1444       2164.7894
  23474176.6084   -3801995.03048  -2730346.55346  23474176.3994   23474180.6024
     -3435.3944      -2676.9324
  21267679.5714  -19222843.22149 -14713267.86547  21267679.0004   21267684.7474
     -1382.5844      -1077.3404
 00  1  6  2 37  0.0020000  0  7G 6G 9G 5G30G10G 4G24
  24400982.9744   -8059068.65348  -6264290.68846  24400982.3344   24400988.6634
      1851.9754       1443.0974
  23957682.9174   -3259573.50948  -2311606.98046  23957682.3424   23957687.8604
     -3357.8894      -2616.5394
  21060289.2824  -21567778.09049 -16459029.75947  21060288.4804   21060292.5494
       221.5154        172.6094
  22928065.0564  -12262959.32848  -9335109.56246  22928064.7604   22928069.2824
      2438.9534       1900.4804
  23924041.7424   -8631657.07747  -6709708.45845  23924040.0464   23924046.2774
      2773.9544       2161.5134
  23493803.8444   -3698854.63348  -2649977.40746  23493803.7784   23493808.1674
     -3439.9304      -2680.4654
  21275611.2364  -19181160.76049 -14680788.01247  21275610.8804   21275616.6644
     -1395.5714      -1087.4584
 00  1  6  2 37 30.0020000  0  7G 6G 9G 5G30G10G 4G24
  24390422.7514   -8114567.44848  -6307536.43646  24390421.9994   24390427.0644
      1848.2704       1440.2064
  23976872.6064   -3158730.60848  -2233028.08846  23976872.2474   23976877.3424
     -3364.3674      -2621.5874
  21059077.0124  -21574148.84749 -16463993.97547  21059076.2184   21059080.1594
       203.7374        158.7564
  22914170.4274  -12335974.72948  -9392004.64746  22914170.3644   22914174.7074
      2429.2254       1892.8994
  23908227.4684   -8714762.28747  -6774465.70245  23908226.5794   23908232.1404
      2766.8304       2155.9714
  23513462.8164   -3595546.89648  -2569477.87746  23513462.6724   23513467.3154
     -3447.0134      -2685.9834
  21283625.6274  -19139045.55149 -14647970.95447  21283625.3134   21283630.7634
     -1411.7834      -1100.0924
 00  1  6  2 38  0.0020000  0  7G 6G 9G 5G30G10G 4G24
  24379870.3194   -8170017.08448  -6350743.89346  24379869.8614   24379875.7414
      1847.1824       1439.3614
  23996086.1734   -3057761.47848  -2154350.81946  23996085.5274   23996091.0184
     -3368.2094      -2624.5834
  21057952.8394  -21580054.45349 -16468595.73047  21057952.0764   21057956.3644
       188.6504        147.0004
  22900317.8504  -12408765.70248  -9448724.83146  22900317.8754   22900323.1024
      2422.2444       1887.4614
  23892443.1374   -8797708.51947  -6839099.07945  23892441.8764   23892448.4174
      2761.5764       2151.8784
  23533150.9784   -3492083.12248  -2488856.74546  23533150.6524   23533155.3934
     -3452.0604      -2689.9164
  21291721.5424  -19096501.88749 -14614820.02847  21291720.9814   21291726.4324
     -1425.8174      -1111.0264
 00  1  6  2 38 30.0020000  0  7G 6G 9G 5G30G10G 4G24
  24369327.1894   -8225420.74848  -6393915.52846  24369326.7884   24369332.2504
      1846.5174       1438.8424
  24015323.2974   -2956668.32948  -2075576.93146  24015322.4074   24015328.4264
     -3371.2274      -2626.9334
  21056917.3104  -21585496.09149 -16472835.95247  21056916.5224   21056920.8054
       174.5084        135.9794
  22886508.4634  -12481336.96848  -9505273.82346  22886508.5344   22886513.3354
      2415.9354       1882.5464
  23876691.3234   -8880486.39047  -6903601.24445  23876690.2874   23876696.2874
      2757.0784       2148.3714
  23552870.8344   -3388452.40648  -2408105.53646  23552871.0484   23552875.7444
     -3456.5024      -2693.3774
  21299899.8674  -19053523.62649 -14581330.45547  21299899.4614   21299904.9154
     -1439.2604      -1121.5034
 00  1  6  2 39  0.0020000  0  7G 6G 9G 5G30G10G 4G24
  24358798.3194   -8280752.13848  -6437030.84146  24358797.6514   24358802.8754
      1843.6624       1436.6234
  24034586.6154   -2855436.72348  -1996695.17146  24034586.1044   24034592.4914
     -3376.0194      -2630.6634
  21055969.4564  -21590477.21249 -16476717.33047  21055968.5454   21055973.1584
       159.0024        123.8984
  22872745.4244  -12553663.92248  -9561632.45346  22872745.1184   22872749.6974
      2407.2824       1875.8034
  23860973.1054   -8963082.84747  -6967962.05445  23860971.8794   23860977.8824
      2750.8264       2143.4964
  23572625.5294   -3284644.20748  -2327216.02046  23572625.2584   23572629.4204
     -3462.4984      -2698.0514
  21308165.2664  -19010088.89649 -14547485.19247  21308164.6864   21308170.0234
     -1454.9274      -1133.7104
 00  1  6  2 39 30.0020000  0  7G 6G 9G 5G30G10G 4G24
  24348287.7894   -8335982.77348  -6480067.64446  24348287.2114   24348293.3054
      1839.7994       1433.6074
  24053880.7984   -2754049.40448  -1917692.08446  24053879.9004   24053885.6724
     -3382.0154      -2635.3364
  21055112.6714  -21594979.86049 -16480225.87347  21055111.6914   21055116.5534
       142.5824        111.1034
  22859034.6544  -12625713.86148  -9617775.22146  22859034.5574   22859038.9854
      2397.3234       1868.0434
  23845294.3824   -9045478.71547  -7032166.55445  23845292.7804   23845298.7364
      2743.3874       2137.7034
  23592414.5544   -3180647.87048  -2246179.89646  23592414.5534   23592419.3404
     -3469.5034      -2703.5084
  21316522.1074  -18966172.55149 -14513264.64647  21316521.6184   21316526.9404
     -1471.4964      -1146.6214
 00  1  6  2 40  0.0020000  0  7G 6G 9G 5G30G10G 4G24
  24337794.2074   -8391126.22448  -6523036.50846  24337793.6414   24337800.1384
      1834.8154       1429.7234
  24073206.6364   -2652488.49248  -1838553.72146  24073206.1204   24073211.7974
     -3390.3374      -2641.8194
  21054344.4414  -21599014.43849 -16483369.69047  21054343.6744   21054348.6284
       124.6704         97.1454
  22845377.9424  -12697477.57748  -9673694.96146  22845377.9124   22845382.8144
      2385.1894       1858.5874
  23829654.4704   -9127662.18147  -7096205.58045  23829653.0114   23829659.0394
      2733.8714       2130.2974
  23612241.8824   -3076453.71148  -2164989.63646  23612241.6774   23612246.3164
     -3478.4804      -2710.5054
  21324969.0264  -18921783.13549 -14478675.47347  21324968.6534   21324974.0994
     -1489.2914      -1160.4874
 00  1  6  2 40 30.0020000  0  7G 6G 9G 5G30G10G 4G24
  24327317.6154   -8446180.00148  -6565935.50346  24327316.8444   24327323.3324
      1833.8934       1429.0084
  24092567.2864   -2550748.95448  -1759276.16746  24092566.7344   24092571.8474
     -3393.7904      -2644.5144
  21053667.3484  -21602573.49749 -16486142.97047  21053666.3934   21053671.3244
       111.2004         86.6494
  22831780.4244  -12768934.39948  -9729375.56646  22831780.0454   22831785.0924
      2377.2554       1852.4054
  23814057.2924   -9209626.75947  -7160074.04145  23814056.1744   23814062.5444
      2729.0644       2126.5384
  23632107.2494   -2972064.37948  -2083647.30946  23632107.1724   23632112.1134
     -3482.3234      -2713.4984
  21333503.4624  -18876935.92049 -14443729.57347  21333502.8864   21333507.8044
     -1501.8314      -1170.2584
 00  1  6  2 41  0.0020000  0  7G 6G 9G 5G30G10G 4G24
  24316861.4154   -8501127.11948  -6608751.37746  24316860.6684   24316867.6774
      1832.7424       1428.1074
  24111964.1754   -2448816.98648  -1679848.67746  24111963.7794   24111969.4704
     -3398.0994      -2647.8714
  21053082.3014  -21605646.14949 -16488537.23247  21053081.5944   21053086.5314
        96.9814         75.5694
  22818241.2984  -12840081.66248  -9784814.95546  22818241.0994   22818246.2234
      2369.4054       1846.2904
  23798502.6684   -9291364.29447  -7223765.54145  23798500.8664   23798508.5054
      2723.6454       2122.3144
  23652010.2124   -2867477.20848  -2002150.80546  23652009.6194   23652013.6264
     -3486.7054      -2716.9144
  21342122.5694  -18831642.53749 -14408436.00747  21342122.1104   21342126.9634
     -1514.2234      -1179.9154
 00  1  6  2 41 30.0020000  0  7G 6G 9G 5G30G10G 4G24
  24306406.8364   -8556065.39648  -6651560.36446  24306406.6094   24306413.2154
      1829.3814       1425.4904
  24131382.2574   -2346775.71148  -1600336.01146  24131382.0774   24131387.3114
     -3405.0044      -2653.2484
  21052575.3224  -21608311.90949 -16490614.43647  21052574.4684   21052579.2564
        80.2664         62.5454
  22804743.1124  -12911018.18048  -9840090.13547  22804742.9414   22804748.0894
      2359.2654       1838.3884
  23782975.1304   -9372959.30847  -7287345.98345  23782974.4594   23782981.7114
      2715.5454       2116.0064
  23671933.1264   -2762778.88548  -1920567.68346  23671932.7414   23671937.8224
     -3493.7914      -2722.4354
  21350806.7384  -18786005.97549 -14372875.03147  21350806.3494   21350811.2864
     -1528.8894      -1191.3424
 00  1  6  2 42  0.0020000  0  7G 6G 9G 5G30G10G 4G24
  24295966.8624   -8610930.97648  -6694312.72446  24295966.4884   24295972.1754
      1826.4324       1423.1934
  24150834.0324   -2244559.51148  -1520687.03846  24150833.0084   24150838.6694
     -3411.0174      -2657.9334
  21052159.9384  -21610494.30149 -16492314.99547  21052159.1204   21052163.8614
        63.1044         49.1724
  22791296.9264  -12981678.24848  -9895149.90047  22791296.8404   22791302.0784
      2349.4734       1830.7594
  23767490.7504   -9454332.99347  -7350753.97145  23767490.1554   23767496.2204
      2707.5384       2109.7694
  23691891.7604   -2657894.56048  -1838839.64046  23691891.5564   23691895.8544
     -3500.4494      -2727.6264
  21359572.3584  -18739942.57249 -14336981.45547  21359571.7934   21359576.8274
     -1543.9694      -1203.0934
 00  1  6  2 42 30.0020000  0  7G 6G 9G 5G30G10G 4G24
  24285541.5784   -8665714.89848  -6737001.45446  24285541.0724   24285546.7474
      1826.6954       1423.3964
  24170314.4344   -2142186.03048  -1440915.52346  24170313.6874   24170320.0334
     -3413.1224      -2659.5754
  21051843.7584  -21612156.55149 -16493610.24747  21051843.0154   21051847.7314
        48.5944         37.8654
  22777904.5354  -13052054.57748  -9949988.57147  22777904.6554   22777909.6054
      2343.1284       1825.8124
  23752050.0514   -9535478.70947  -7413984.33446  23752048.5194   23752054.8094
      2702.9594       2106.1984
  23711887.9094   -2552816.37248  -1756960.51646  23711887.6804   23711891.7624
     -3503.9944      -2730.3884
  21368424.3854  -18693425.05049 -14300734.01847  21368423.8314   21368428.8704
     -1556.4894      -1212.8494
 00  1  6  2 43  0.0020000  0  7G 6G 9G 5G30G10G 4G24
  24275117.1534   -8720494.14148  -6779686.52946  24275116.7284   24275123.3374
      1825.0944       1422.1504
  24189811.6444   -2039723.72948  -1361074.79046  24189811.2264   24189817.4584
     -3417.6084      -2663.0714
  21051614.6854  -21613359.47549 -16494547.58347  21051613.9504   21051619.0874
        31.4904         24.5364
  22764552.8764  -13122217.52148 -10004660.96247  22764552.5224   22764557.8144
      2334.0834       1818.7634
  23736638.3424   -9616462.55147  -7477088.57145  23736637.2184   23736643.3194
      2695.8624       2100.6714
  23731907.1494   -2447612.45848  -1674983.44046  23731906.7154   23731911.1424
     -3509.6494      -2734.7934
  21377353.5564  -18646501.05749 -14264169.84947  21377353.0474   21377358.3964
     -1572.0654      -1224.9884
 00  1  6  2 43 30.0020000  0  7G 6G 9G 5G30G10G 4G24
  24264693.9874   -8775268.69548  -6822367.94546  24264693.5454   24264699.0664
      1825.5214       1422.4814
  24209323.7824   -1937187.57248  -1281176.50646  24209323.3834   24209329.1144
     -3419.0104      -2664.1694
  21051474.5034  -21614095.68349 -16495121.24447  21051473.7994   21051478.8604
        16.5914         12.9284
  22751246.3514  -13192144.23448 -10059149.27046  22751246.0424   22751250.8294
      2326.8554       1813.1324
  23721259.0504   -9697281.06047  -7540063.95545  23721257.9324   23721264.1984
      2690.9744       2096.8624
  23751947.9044   -2342296.73148  -1592919.25146  23751947.6554   23751952.2354
     -3512.4514      -2736.9764
  21386364.2424  -18599148.52849 -14227271.76647  21386363.7994   21386369.3014
     -1585.7514      -1235.6504
 00  1  6  2 44  0.0020000  0  7G 6G 9G 5G30G10G 4G24
  24254283.1674   -8829979.70348  -6864999.84946  24254282.3774   24254288.0844
      1821.8044       1419.5874
  24228857.1624   -1834538.96048  -1201190.57946  24228856.7174   24228862.7724
     -3424.3064      -2668.2904
  21051433.9824  -21614308.63149 -16495287.16847  21051433.2264   21051438.1394
        -2.3364         -1.8214
  22737993.0184  -13261786.55048 -10113415.98046  22737993.2494   22737997.6464
      2316.0634       1804.7254
  23705922.3124   -9777877.86647  -7602866.58246  23705921.1514   23705927.5864
      2682.2564       2090.0654
  23772018.9264   -2236824.99148  -1510733.47046  23772018.9064   23772022.3144
     -3519.0784      -2742.1394
  21395467.0734  -18551314.63649 -14189998.59247  21395466.4804   21395471.7974
     -1602.9094      -1249.0194
 00  1  6  2 44 30.0020000  0  7G 6G 9G 5G30G10G 4G24
  24243890.2264   -8884592.64848  -6907555.34746  24243889.9004   24243895.8484
      1820.4954       1418.5684
  24248418.8554   -1731745.95148  -1121092.12946  24248418.2554   24248423.6524
     -3427.3204      -2670.6384
  21051494.9794  -21613990.33849 -16495039.14247  21051494.0764   21051498.6944
       -17.3414        -13.5124
  22724798.3554  -13331128.99648 -10167449.03147  22724798.4794   22724802.3654
      2308.1334       1798.5464
  23690630.7234   -9858235.64448  -7665482.95046  23690629.8444   23690636.3634
      2676.2724       2085.4034
  23792122.5294   -2131182.11048  -1428414.31646  23792121.9914   23792126.0854
     -3522.4284      -2744.7494
  21404659.9154  -18503004.53949 -14152354.35047  21404659.6694   21404664.7554
     -1616.2824      -1259.4414
 00  1  6  2 45  0.0020000  0  7G 6G 9G 5G30G10G 4G24
  24233507.4734   -8939157.24048  -6950073.17646  24233507.0284   24233512.8314
      1816.5824       1415.5194
  24267998.1544   -1628852.68248  -1040915.57846  24267997.9624   24268003.8974
     -3432.6864      -2674.8224
  21051642.2024  -21613216.92249 -16494436.47347  21051641.5284   21051645.8364
       -34.8354        -27.1444
  22711650.3664  -13400224.77448 -10221289.87547  22711650.3004   22711654.1994
      2297.5964       1790.3344
  23675376.0714   -9938402.70548  -7727950.71846  23675374.9234   23675380.6984
      2667.6294       2078.6704
  23812244.4934   -2025437.50648  -1346015.93046  23812244.4934   23812248.2544
     -3527.9394      -2749.0414
  21413928.8194  -18454300.88049 -14114403.43647  21413928.2554   21413932.7334
     -1631.1604      -1271.0344
 00  1  6  2 45 30.0020000  0  7G 6G 9G 5G30G10G 4G24
  24223147.4274   -8993602.47048  -6992497.98246  24223147.0314   24223152.1504
      1813.3354       1412.9874
  24287607.4154   -1525806.89748   -960620.19646  24287606.7144   24287612.9774
     -3436.8654      -2678.0734
  21051888.3134  -21611923.87049 -16493428.88647  21051887.6124   21051891.9644
       -51.3224        -39.9924
  22698560.9874  -13469010.83648 -10274889.37047  22698560.9204   22698564.7104
      2288.3014       1783.0904
  23660170.0824  -10018309.74747  -7790215.87946  23660169.0114   23660173.9174
      2659.6844       2072.4824
  23832399.7874   -1919522.68948  -1263484.90346  23832399.4854   23832403.5864
     -3533.1004      -2753.0654
  21423278.9094  -18405167.42449 -14076117.61047  21423278.2974   21423282.7454
     -1644.2784      -1281.2554
 00  1  6  2 46  0.0020000  0  7G 6G 9G 5G30G10G 4G24
  24212803.4854   -9047957.26148  -7034852.30846  24212803.3004   24212808.5784
      1810.1584       1410.5134
  24307240.4744   -1422635.33048   -880226.79646  24307240.2874   24307244.9174
     -3441.3654      -2681.5824
  21052228.4614  -21610137.24549 -16492036.70647  21052227.8274   21052231.8944
       -68.0684        -53.0404
  22685524.9894  -13537514.40448 -10328268.74147  22685524.9404   22685528.9694
      2278.1834       1775.2074
  23645009.3794  -10097977.74447  -7852294.76945  23645008.0914   23645012.8964
      2651.3294       2065.9664
  23852584.9564   -1813448.73548  -1180829.88346  23852584.9104   23852588.8734
     -3538.7564      -2757.4754
  21432702.0874  -18355646.53949 -14037529.89847  21432701.7004   21432706.0734
     -1657.4604      -1291.5284
 00  1  6  2 46 30.0020000  0  7G 6G 9G 5G30G10G 4G24
  24202475.7484   -9102229.10448  -7077142.00946  24202475.4724   24202480.8074
      1806.0684       1407.3264
  24326896.4264   -1319345.63748   -799741.31446  24326895.9364   24326900.7184
     -3446.4314      -2685.5304
  21052663.6534  -21607850.60249 -16490254.89347  21052662.8064   21052666.9544
       -86.4194        -67.3404
  22672549.3934  -13605698.74348 -10381399.35147  22672549.5444   22672553.9084
      2265.3154       1765.1794
  23629896.6394  -10177399.13847  -7914181.50646  23629894.9754   23629900.3974
      2641.3024       2058.1554
  23872801.2214   -1707208.86048  -1098045.55746  23872801.1474   23872805.0964
     -3546.0184      -2763.1324
  21442200.6154  -18305731.21049 -13998634.82347  21442200.1434   21442204.5434
     -1672.4104      -1303.1774
 00  1  6  2 47  0.0020000  0  7G 6G 9G 5G30G10G 4G24
  24192157.2644   -9156452.67148  -7119394.10146  24192156.8074   24192162.4594
      1808.0314       1408.8534
  24346564.7234   -1215984.29348   -719199.99946  24346564.4904   24346569.7184
     -3445.1624      -2684.5434
  21053192.6104  -21605070.57249 -16488088.62847  21053191.6774   21053196.1054
       -99.7094        -77.6964
  22659635.7714  -13673560.12048 -10434278.31347  22659636.0134   22659640.1924
      2257.9204       1759.4184
  23614826.8924  -10256588.74048  -7975887.62346  23614826.0354   23614831.7744
      2637.1494       2054.9214
  23893048.4584   -1600812.74948  -1015139.48046  23893048.1224   23893051.8544
     -3547.9794      -2764.6604
  21451772.4864  -18255428.92749 -13959438.22947  21451772.1504   21451777.0194
     -1682.1604      -1310.7754
 00  1  6  2 47 30.0020000  0  7G 6G 9G 5G30G10G 4G24
  24181835.8414   -9210695.20148  -7161660.96046  24181835.2074   24181840.0574
      1806.5154       1407.6714
  24366234.5034   -1112614.93048   -638652.46746  24366234.6774   24366240.3334
     -3447.6614      -2686.4894
  21053803.9084  -21601856.85349 -16485584.42147  21053803.1734   21053807.6894
      -116.2284        -90.5694
  22646773.4984  -13741152.09448 -10486947.35447  22646773.4244   22646777.8404
      2246.7384       1750.7034
  23599789.1664  -10335611.44448  -8037463.68746  23599788.4424   23599794.0824
      2629.5034       2048.9624
  23913314.4304   -1494313.84248   -932153.30046  23913314.3254   23913318.4034
     -3553.4534      -2768.9264
  21461410.8624  -18204778.67049 -13919970.48647  21461410.4674   21461415.1564
     -1696.3444      -1321.8284
 00  1  6  2 48  0.0020000  0  7G 6G 9G 5G30G10G 4G24
  24171525.7584   -9264872.98748  -7203877.35646  24171525.6804   24171530.4904
      1802.9274       1404.8764
  24385924.7944   -1009147.48048   -558028.50546  24385923.9134   24385929.6384
     -3452.6194      -2690.3494
  21054513.6174  -21598126.19649 -16482677.40547  21054512.9734   21054517.7954
      -134.8494       -105.0784
  22633980.1124  -13808382.88348 -10539334.94747  22633980.1594   22633984.5284
      2233.1294       1740.1004
  23584799.2424  -10414382.01148  -8098843.28946  23584798.3174   23584804.3594
      2619.3394       2041.0394
  23933614.1984   -1387637.19748   -849028.65746  23933614.0304   23933618.2104
     -3560.6464      -2774.5334
  21471136.6214  -18153670.60049 -13880146.00647  21471135.9964   21471140.7744
     -1713.2724      -1335.0174
 00  1  6  2 48 30.0020000  0  7G 6G 9G 5G30G10G 4G24
  24161220.5694   -9319024.83348  -7246073.55746  24161220.2424   24161225.4634
      1806.2154       1407.4394
  24405626.9224    -905610.30848   -477350.20846  24405626.5734   24405632.2214
     -3450.7914      -2688.9284
  21055313.5224  -21593924.02049 -16479402.97047  21055312.6364   21055317.5814
      -145.9984       -113.7654
  22621244.5334  -13875305.15248 -10591482.13247  22621244.6094   22621249.5204
      2227.7044       1735.8734
  23569852.8944  -10492928.16048  -8160048.01546  23569851.4794   23569856.7594
      2616.2734       2038.6524
  23953936.9834   -1280836.82348   -765807.60346  23953936.9824   23953941.7874
     -3560.2844      -2774.2444
  21480942.1104  -18102140.10149 -13839992.36247  21480941.7854   21480946.6234
     -1722.9274      -1342.5404
 00  1  6  2 49  0.0020000  0  7G 6G 9G 5G30G10G 4G24
  24150915.7224   -9373175.64248  -7288268.93546  24150915.3174   24150921.2874
      1802.1974       1404.3044
  24425339.1684    -802022.29248   -396632.28846  24425338.7004   24425344.2354
     -3456.7624      -2693.5794
  21056193.1924  -21589300.82849 -16475800.47547  21056192.2804   21056197.1444
      -163.8464       -127.6734
  22608555.4844  -13941990.76748 -10643444.90747  22608555.3194   22608560.0464
      2216.4824       1727.1284
  23554940.9934  -10571288.70148  -8221108.12546  23554940.2534   23554945.7764
      2606.0604       2030.6934
  23974276.1834   -1173959.75248   -682526.77446  23974276.2354   23974279.2654
     -3566.4344      -2779.0394
  21490821.1954  -18050225.68549 -13799539.56047  21490820.7654   21490825.3694
     -1739.5504      -1355.4944
 00  1  6  2 49 30.0020000  0  7G 6G 9G 5G30G10G 4G24
  24140642.4574   -9427165.50748  -7330338.89546  24140641.7784   24140647.1514
      1798.8744       1401.7184
  24445091.8254    -698220.33848   -315747.66346  24445091.4164   24445097.1484
     -3461.4884      -2697.2634
  21057180.8764  -21584109.21349 -16471755.05447  21057180.3074   21057185.1244
      -180.6734       -140.7844
  22595935.4374  -14008308.25648 -10695120.83547  22595935.2394   22595939.9734
      2206.5324       1719.3744
  23540095.0944  -10649303.86948  -8281899.11146  23540094.0714   23540099.8294
      2596.6934       2023.3984
  23994653.8824   -1066873.09048   -599082.58346  23994653.7644   23994656.9954
     -3571.0154      -2782.6114
  21500799.9754  -17997786.26149 -13758677.66347  21500799.5654   21500804.2854
     -1754.5244      -1367.1614
 00  1  6  2 50  0.0020000  0  7G 6G 9G 5G30G10G 4G24
  24130383.9194   -9481073.92248  -7372345.40046  24130383.4374   24130388.7194
      1794.5624       1398.3544
  24464868.4324    -594293.65348   -234765.85046  24464867.9934   24464874.2624
     -3467.3824      -2701.8544
  21058262.3494  -21578425.76249 -16467326.37947  21058261.6634   21058266.4424
      -198.6194       -154.7684
  22583369.6864  -14074343.18448 -10746576.59147  22583369.4584   22583373.4874
      2195.4634       1710.7484
  23525300.9524  -10727048.86648  -8342479.57646  23525299.6544   23525304.6464
      2585.8754       2014.9644
  24015053.9924    -959665.45548   -515544.15946  24015054.1134   24015058.2394
     -3576.5944      -2786.9604
  21510859.4334  -17944923.17249 -13717485.63447  21510859.1434   21510863.9864
     -1769.9794      -1379.2054
 00  1  6  2 50 30.0020000  0  7G 6G 9G 5G30G10G 4G24
  24120153.9624   -9534828.70848  -7414232.19346  24120153.7574   24120159.6804
      1789.8114       1394.6554
  24484681.6264    -490174.40248   -153633.99346  24484681.2544   24484687.9994
     -3473.1084      -2706.3174
  21059451.7904  -21572176.98849 -16462457.19447  21059450.9944   21059455.6724
      -217.2844       -169.3124
  22570869.8784  -14140026.45348 -10797758.32947  22570870.0804   22570874.1134
      2184.0004       1701.8164
  23510569.8794  -10804458.65348  -8402798.84746  23510568.8914   23510574.7294
      2575.5604       2006.9254
  24035489.9314    -852273.05248   -431861.77246  24035489.7384   24035494.8804
     -3582.3504      -2791.4414
  21521010.0634  -17891581.38349 -13675920.59447  21521009.6414   21521014.2824
     -1785.4174      -1391.2354
 00  1  6  2 51  0.0020000  0  7G 6G 9G 5G30G10G 4G24
  24109939.0584   -9588510.12548  -7456061.80746  24109938.5144   24109944.3244
      1787.4344       1392.8054
  24504513.9404    -385957.35448    -72425.92546  24504513.3264   24504519.3504
     -3476.1464      -2708.6864
  21060737.0284  -21565421.80949 -16457193.40947  21060736.3784   21060741.2844
      -234.8074       -182.9674
  22558426.1744  -14205417.89848 -10848712.66647  22558426.3814   22558430.3604
      2173.6374       1693.7414
  23495885.5964  -10881620.41448  -8462924.83446  23495884.9614   23495891.2294
      2566.8774       2000.1604
  24055948.6454    -744765.43748   -348089.62246  24055948.5764   24055952.9684
     -3586.4434      -2794.6334
  21531235.2134  -17837846.69749 -13634049.39947  21531234.9484   21531239.9284
     -1798.4944      -1401.4254
 00  1  6  2 51 30.0020000  0  7G 6G 9G 5G30G10G 4G24
  24099729.6284   -9642160.17448  -7497866.97646  24099729.3794   24099734.4374
      1787.7594       1393.0574
  24524353.4164    -281697.90548      8815.18946  24524353.1474   24524359.4144
     -3476.0634      -2708.6174
  21062117.0654  -21558170.90549 -16451543.34347  21062115.9794   21062120.8264
      -250.2174       -194.9754
  22546036.5424  -14270525.54848 -10899445.86647  22546036.6074   22546040.8654
      2165.2934       1687.2404
  23481245.6544  -10958559.80348  -8522877.53946  23481244.2394   23481250.2834
      2560.8754       1995.4894
  24076422.4914    -637176.26448   -264253.89746  24076422.2584   24076426.1894
     -3587.8724      -2795.7454
  21541526.7214  -17783765.50649 -13591908.20347  21541526.4674   21541531.4204
     -1808.6104      -1409.3064
